[{"Album": "Mac and Devin Go to High School Soundtrack", "City": "Long Beach", "Lyrics": "some brownies, we gon' smoke, we gon' need some bongsRoll up so we can all...\r\n[Hook] x2\r\n[Verse 2", "Artist": "Snoop Dogg", "Country": "USA", "Title": "Wiz KhalifaOG", "Longitude": "-118.195556", "County": "Los Angeles", "State": "California", "Latitude": "33.768333", "Type": "Solo M", "Release date": "2011-12-13"},{"Album": "I Am Not a Human Being II", "City": "New Orleans", "Lyrics": ", I'm a kite in the air\r\nI like weed brownies and cookies,I'm straight but seeing crooked\r\nI got my", "Artist": "Lil Wayne", "Country": "USA", "Title": "Trippy", "Longitude": "-90.077714", "County": "Orleans", "State": "Louisiana", "Latitude": "29.95369", "Type": "Solo M", "Release date": "2013-03-22"},{"Album": "I Am Not a Human Being II (French Version)", "City": "New Orleans", "Lyrics": ", keep lighting an L, I'm a kite in the air\r\nI like weed brownies and cookies, I'm straight but seeing", "Artist": "Lil Wayne", "Country": "USA", "Title": "Trippy (French Version)", "Longitude": "-90.077714", "County": "Orleans", "State": "Louisiana", "Latitude": "29.95369", "Type": "Solo M", "Release date": "2013-03-22"},{"Album": "Fishscale", "City": "Staten Island", "Lyrics": "weed brownies\r\nTone got the powder squeeze, don't surround me\r\nQuick to pick a honey up, shit", "Artist": "Ghostface Killah", "Country": "USA", "Title": "Be Easy", "Longitude": "-74.144839", "County": "Richmond", "State": "New York", "Latitude": "40.576281", "Type": "Solo M", "Release date": "2006-01-01"},{"Album": "Record Single", "City": "Crown Heights", "Lyrics": "it?\r\nLeaning on them fools like I ate a weed brownie\r\nWavy on these haters then, now they all drowning", "Artist": "Troy Ave", "Country": "USA", "Title": "Lean On Em (Emilio Rojas) (Ft. IamSu! & Styles P) prod. by Illmind", "Longitude": "-73.944722", "County": "Kings", "State": "New York", "Latitude": "40.663056", "Type": "Solo M", "Release date": null}]