[{"Album": "Reasonable Doubt", "City": "Brooklyn", "Lyrics": "rhyming with remarkable timing\r\nCaviar and silk dreams, my voice is linen\r\nSpitting venom up", "Artist": "Jay Z", "Country": "USA", "Title": "Cashmere Thoughts", "Longitude": "-73.989872", "County": "Kings", "State": "New York", "Latitude": "40.692385", "Type": "Solo M", "Release date": "1996-01-01"},{"Album": "Life After Death", "City": "Bedford\u2013Stuyvesant", "Lyrics": "So no, caviar, sharp bar, uh uh\r\nStrictly sex that's pretty and leftover spaghetti\r\nI know you used", "Artist": "The Notorious B.I.G.", "Country": "USA", "Title": "Fuck You Tonight", "Longitude": "-73.963796", "County": "Kings", "State": "New York", "Latitude": "40.692385", "Type": "Solo M", "Release date": "1997-01-01"},{"Album": "House of Wax: The Vatican Mixtape, Vol. 3", "City": "Staten Island", "Lyrics": "predicted it, We just ill wizards, Live with it\r\nWe caviar, Popin shrimp with it\r\nWhatever pimp did", "Artist": "Raekwon", "Country": "USA", "Title": "Make You Pay", "Longitude": "-74.144839", "County": "Richmond", "State": "New York", "Latitude": "40.576281", "Type": "Solo M", "Release date": "2007-08-06"},{"Album": "Teflon Don", "City": "Carol City", "Lyrics": "thirty-six O's in a kilogram\r\nBlunt tip, orange like caviar\r\nWilding out, fishtailing Subaru rally", "Artist": "Rick Ross", "Country": "USA", "Title": "B.M.F. (Blowin' Money Fast)", "Longitude": "-80.269920", "County": "Miami-Dade", "State": "Florida", "Latitude": "25.942121", "Type": "Solo M", "Release date": "2010-07-20"},{"Album": "Diamond Princess", "City": "Miami", "Lyrics": "the M-I home of the stop bitches\r\nCristal, and caviar bitches, twist this game for all you fly bitches", "Artist": "Trina", "Country": "USA", "Title": "How We Do?", "Longitude": "-80.237419", "County": "Miami-Dade", "State": "Florida", "Latitude": "25.728985", "Type": "Solo F", "Release date": "2002-01-01"},{"Album": "Trouble Man: Heavy Is the Head", "City": "Atlanta", "Lyrics": "door\r\nRaw ho, caviar, sushi and escargot\r\nEverywhere I go fresh to death and clean as a bar of soap", "Artist": "T.I.", "Country": "USA", "Title": "The Introduction", "Longitude": "-84.41918", "County": "Fulton", "State": "Georgia", "Latitude": "33.77155", "Type": "Solo M", "Release date": "2012-12-18"},{"Album": "Tha Carter III", "City": "New Orleans", "Lyrics": "under par in a Bentley golf cart\r\nThe Polo be cream but the Prada's caviar\r\nWeezy I'm sick from all", "Artist": "Lil Wayne", "Country": "USA", "Title": "La La", "Longitude": "-90.077714", "County": "Orleans", "State": "Louisiana", "Latitude": "29.95369", "Type": "Solo M", "Release date": "2008-01-01"},{"Album": "Cradle 2 The Grave Soundtrack", "City": "Queens", "Lyrics": "Two]\r\nI used to chill in the hood to support the fiends\r\nBut, now I'm eating caviare instead of pork", "Artist": "50 Cent", "Country": "USA", "Title": "Follow Me Gangster", "Longitude": "-73.829959", "County": "Queens", "State": "New York", "Latitude": "40.713985", "Type": "Solo M", "Release date": "2003-02-18"},{"Album": "Infinite", "City": "Detroit", "Lyrics": "enough to see how this gentleman sex'es\r\nWe'll start it out with caviar, Don Parigne\r\nAnd then when", "Artist": "Eminem", "Country": "USA", "Title": "Searchin'", "Longitude": "-83.045833", "County": "Wayne", "State": "Michigan", "Latitude": "42.331389", "Type": "Solo M", "Release date": "1996-01-01"},{"Album": "Put it on the Line", "City": "Staten Island", "Lyrics": ", cuz the family was large\r\nNo fancy cars, no shrimp scampi or caviar\r\nJust a cold plate of agony", "Artist": "Ghostface Killah", "Country": "USA", "Title": "Hustle Hard", "Longitude": "-74.144839", "County": "Richmond", "State": "New York", "Latitude": "40.576281", "Type": "Solo M", "Release date": "2005-11-18"},{"Album": "Death Row Greatest Hits", "City": "Compton", "Lyrics": "the corner, now I'm on another\r\nMission, wishin, upon a star\r\nSnoop Doggy Dogg with the caviar", "Artist": "Dr. Dre", "Country": "USA", "Title": "Snoop DoggTha Shiznit", "Longitude": "-118.224329", "County": "Los Angeles", "State": "California", "Latitude": "33.895285", "Type": "Solo M", "Release date": "1996-11-26"},{"Album": "Streets is Watching soundtrack", "City": "Brooklyn", "Lyrics": "In 35 slow-mo, with the Rockafella logo\r\nAccapoco to Aruba, bay breezes and caviar beluga\r\nVery", "Artist": "Jay Z", "Country": "USA", "Title": "Only a Customer", "Longitude": "-73.989872", "County": "Kings", "State": "New York", "Latitude": "40.692385", "Type": "Solo M", "Release date": "1998-05-12"},{"Album": "Dedication 4", "City": "New Orleans", "Lyrics": "ass\r\nI'm the trigger man, and that shooting star\r\nEat that pussy like caviar\r\nShe treat that dick just", "Artist": "Lil Wayne", "Country": "USA", "Title": "Cashed Out", "Longitude": "-90.077714", "County": "Orleans", "State": "Louisiana", "Latitude": "29.95369", "Type": "Solo M", "Release date": "2012-09-03"},{"Album": "Doggystyle", "City": "Long Beach", "Lyrics": "Doggy Dogg with the caviar\r\nIn the back of the limo no demo, this is the real\r\nBreakin' niggas down like", "Artist": "Snoop Dogg", "Country": "USA", "Title": "Tha Shiznit", "Longitude": "-118.195556", "County": "Los Angeles", "State": "California", "Latitude": "33.768333", "Type": "Solo M", "Release date": "1993-11-23"},{"Album": "The Streets is Watching soundtrack/Dangerous Ground soundtrack", "City": "Brooklyn", "Lyrics": "In 35 slow-mo, with the Rockafella logo\r\nAccapoco to Arruba, bay breezes and caviar baluga\r\nVery", "Artist": "Jay Z", "Country": "USA", "Title": "You're Only a Customer", "Longitude": "-73.989872", "County": "Kings", "State": "New York", "Latitude": "40.692385", "Type": "Solo M", "Release date": "1998-05-12"},{"Album": "Hip Hop is Dead", "City": "Queensbridge", "Lyrics": ", that's the caviar\r\nYou niggas fish-made, y'all niggas is fifth grade\r\nNiggas, it's fifty ways to disect", "Artist": "Nas", "Country": "USA", "Title": "Money Over Bullshit", "Longitude": "-73.937622", "County": "Queens", "State": "New York", "Latitude": "40.756279", "Type": "Solo M", "Release date": "2006-12-15"},{"Album": "Street's Disciple", "City": "Queensbridge", "Lyrics": "they parts well\r\nNow they claim caviar, hate that oxtail\r\nLambda Sigma Phi badge on lapel\r\nWhitey always", "Artist": "Nas", "Country": "USA", "Title": "These Are Our Heroes", "Longitude": "-73.937622", "County": "Queens", "State": "New York", "Latitude": "40.756279", "Type": "Solo M", "Release date": "2005-01-01"},{"Album": "Married to the Game", "City": "East Oakland", "Lyrics": "caviar\r\nBut you might catch me exquisit at the bar\r\nYou're the finest that I seen thus far\r\nSo", "Artist": "Too Short", "Country": "USA", "Title": "Hey, Let's Go", "Longitude": "-122.2591", "County": "Oakland", "State": "California", "Latitude": "37.8039", "Type": "Solo M", "Release date": "2003-11-04"},{"Album": "Players", "City": "East Oakland", "Lyrics": "this\r\nYou could see it in his eyes he was seeing stars\r\nChoosing folks and caviars\r\nJust checking out", "Artist": "Too Short", "Country": "USA", "Title": "Wild Wild West", "Longitude": "-122.2591", "County": "Oakland", "State": "California", "Latitude": "37.8039", "Type": "Solo M", "Release date": "1985-05-27"},{"Album": "Record Single", "City": "Compton", "Lyrics": "baby)\r\nBlacked out Cartier, Four Season's caviar\r\nSpray a lil Diddy on it, that'll get their panties", "Artist": "Game", "Country": "USA", "Title": "400 Bars", "Longitude": "-118.224329", "County": "Los Angeles", "State": "California", "Latitude": "33.895285", "Type": "Solo M", "Release date": null},{"Album": "The Red Room", "City": "Compton", "Lyrics": "baby)\r\nBlacked out Cartier, Four Season's caviar\r\nSpray a lil Diddy on it, that'll get their panties", "Artist": "Game", "Country": "USA", "Title": "400 Bars", "Longitude": "-118.224329", "County": "Los Angeles", "State": "California", "Latitude": "33.895285", "Type": "Solo M", "Release date": "2010-04-26"}]