[{"Album": "Ghetto Heaven Vol. 1", "City": "Harlem", "Lyrics": "Stockton\u00e2\u20ac\u00a6\r\nJohn Stockton, Chris Webber, Reggie Miller\r\nHomie, you ain\u00e2\u20ac\u2122t win a chick never\r\nSharp cheese", "Artist": "Camron", "Country": "USA", "Title": "T.A.L.A.M", "Longitude": "-73.944862", "County": "Manhattan", "State": "New York", "Latitude": "40.806198", "Type": "Solo M", "Release date": "2013-10-01"},{"Album": "rejex", "City": "Bedford\u2013Stuyvesant", "Lyrics": "of cheese together?\r\nThe more cheddar, the more better, Ya'll won't be friends forever\r\nAnd I know", "Artist": "Joey BADA$$", "Country": "USA", "Title": "Oh, Deer (Beddar Daze)", "Longitude": "-73.963796", "County": "Kings", "State": "New York", "Latitude": "40.692385", "Type": "Solo M", "Release date": null},{"Album": "500 Degreez", "City": "New Orleans", "Lyrics": ", just cheese you\r\nAnd for that cheddar, hungry niggas'll eat you\r\nWe breeze through in the twelve", "Artist": "Lil Wayne", "Country": "USA", "Title": "Fuck You", "Longitude": "-90.077714", "County": "Orleans", "State": "Louisiana", "Latitude": "29.95369", "Type": "Solo M", "Release date": "2002-01-01"},{"Album": "Untold Story: Volume II", "City": "Compton", "Lyrics": "niggas get they pistol\r\nRun up in yo' back do', lookin for the cheddar cheese\r\nCanary wristwatch", "Artist": "Game", "Country": "USA", "Title": "Eat Ya Beats Alive", "Longitude": "-118.224329", "County": "Los Angeles", "State": "California", "Latitude": "33.895285", "Type": "Solo M", "Release date": "2005-07-26"},{"Album": "Therapist Collection, Before the Come Up", "City": "Fayetteville", "Lyrics": "True Love\n\r\n[Hook]\r\nAyo, paper, green or chedder, cheese or bread\r\nThe cream is better, cake niggas", "Artist": "J. Cole", "Country": "USA", "Title": "True Love", "Longitude": "-78.878056", "County": "Cumberland", "State": "North Carolina", "Latitude": "35.0525", "Type": "Solo M", "Release date": "2010-07-19"},{"Album": "Todd smith", "City": "Queens", "Lyrics": "religious\r\nHit every country of the world, made 'em all dig us\r\nI got a vendetta, I must blend cheddar", "Artist": "LL Cool J", "Country": "USA", "Title": "What You Want", "Longitude": "-73.829959", "County": "Queens", "State": "New York", "Latitude": "40.713985", "Type": "Solo M", "Release date": "2006-01-01"},{"Album": "The Come Up Mixtape Vol. 1", "City": "Fayetteville", "Lyrics": "Never that\r\nI'm tryna get where that cheddar at\r\nY'all don't hear me\r\nAlways somebody that don't want", "Artist": "J. Cole", "Country": "USA", "Title": "Goin Off", "Longitude": "-78.878056", "County": "Cumberland", "State": "North Carolina", "Latitude": "35.0525", "Type": "Solo M", "Release date": "2008-05-03"},{"Album": "Record Single", "City": "Bedford\u2013Stuyvesant", "Lyrics": ",fuck a rat race, we take the cheese\r\nJack cheddar from the make believe\r\nBreak the trees", "Artist": "Joey BADA$$", "Country": "USA", "Title": "Unorthodox prod. by DJ Premier", "Longitude": "-73.963796", "County": "Kings", "State": "New York", "Latitude": "40.692385", "Type": "Solo M", "Release date": null},{"Album": "8 Mile Soundtrack", "City": "Detroit", "Lyrics": "touch down, back from touringIt's forever, put that on the cheddar, manBut in the meantime", "Artist": "Eminem", "Country": "USA", "Title": "Love Me", "Longitude": "-83.045833", "County": "Wayne", "State": "Michigan", "Latitude": "42.331389", "Type": "Solo M", "Release date": "2002-10-29"},{"Album": "Summer Knights", "City": "Bedford\u2013Stuyvesant", "Lyrics": "take the cheese\r\nJack cheddar from the make believe\r\nBreak the trees on they eighth CD\r\nRocking", "Artist": "Joey BADA$$", "Country": "USA", "Title": "Unorthodox", "Longitude": "-73.963796", "County": "Kings", "State": "New York", "Latitude": "40.692385", "Type": "Solo M", "Release date": "2013-01-01"},{"Album": "Tha Block is Hot", "City": "New Orleans", "Lyrics": "fault I got mega cheese\r\nWalk that walk\r\nTalk that talk I'm BG\r\nPaperchaser to the fullest get my", "Artist": "Lil Wayne", "Country": "USA", "Title": "High Beamin", "Longitude": "-90.077714", "County": "Orleans", "State": "Louisiana", "Latitude": "29.95369", "Type": "Solo M", "Release date": "1999-11-02"},{"Album": "500 Degreez", "City": "New Orleans", "Lyrics": "sheezy\r\nCruise with the top off of the'Ghini\r\nBars got cheese I got cheddar linguini\r\nThat's why I", "Artist": "Lil Wayne", "Country": "USA", "Title": "Fo Sheezy", "Longitude": "-90.077714", "County": "Orleans", "State": "Louisiana", "Latitude": "29.95369", "Type": "Solo M", "Release date": "2002-01-01"},{"Album": "White Christmas", "City": "Crown Heights", "Lyrics": "spin it together\r\nShout to women in the strips, let's get in that cheddar\r\nCheese H, French full", "Artist": "Troy Ave", "Country": "USA", "Title": "All Birds (Keymix)", "Longitude": "-73.944722", "County": "Kings", "State": "New York", "Latitude": "40.663056", "Type": "Solo M", "Release date": "2012-12-25"},{"Album": "Record Single", "City": "Harlem", "Lyrics": "-wetter, slip that slit (that thong thing)\r\nHyphy-cheeky-cheddar-checker get her own cheese", "Artist": "Azelia Banks", "Country": "USA", "Title": "ATM Jam", "Longitude": "-73.948372", "County": "Manhattan", "State": "New York", "Latitude": "40.809033", "Type": "Solo F", "Release date": null},{"Album": "Unexpected Victory", "City": "Staten Island", "Lyrics": ", give me weed give me cheese\r\nI like cheddar of V-neck leather\r\nDiana gold, two boxes centuries, yeah", "Artist": "Raekwon", "Country": "USA", "Title": "Just a Toast", "Longitude": "-74.144839", "County": "Richmond", "State": "New York", "Latitude": "40.576281", "Type": "Solo M", "Release date": "2012-01-01"},{"Album": "No Ceilings", "City": "New Orleans", "Lyrics": "cheese: cheddar, mozzarella, provolone\r\nFuck her for an hour long\r\nLet her take a shower gone\r\nSorry", "Artist": "Lil Wayne", "Country": "USA", "Title": "Oh Let's Do It", "Longitude": "-90.077714", "County": "Orleans", "State": "Louisiana", "Latitude": "29.95369", "Type": "Solo M", "Release date": "2009-10-31"},{"Album": "Record Single", "City": "Crown Heights", "Lyrics": "spin it together\r\nShout to women in the strips, let's get in that cheddar\r\nCheese H, French full", "Artist": "Troy Ave", "Country": "USA", "Title": "All Birds (Keymix)", "Longitude": "-73.944722", "County": "Kings", "State": "New York", "Latitude": "40.663056", "Type": "Solo M", "Release date": null},{"Album": "Dirty Sprite", "City": "Atlanta", "Lyrics": "new ones on the way\r\n\r\nFuture: [Verse 2]\r\nGot bands, got racks, got cash, got stacks, got cheese, got", "Artist": "Future", "Country": "USA", "Title": "Old Hundreds", "Longitude": "-84.41918", "County": "Fulton", "State": "Georgia", "Latitude": "33.77155", "Type": "Solo M", "Release date": "2011-01-01"},{"Album": "Reasonable Doubt", "City": "Brooklyn", "Lyrics": "man I'll stock a few G's, now it's unstoppable cheese\r\nSaid we was garbage, so fuck college\r\nStreet", "Artist": "Jay Z", "Country": "USA", "Title": "Bring It On", "Longitude": "-73.989872", "County": "Kings", "State": "New York", "Latitude": "40.692385", "Type": "Solo M", "Release date": "1996-01-01"},{"Album": "Record Single", "City": "Detroit", "Lyrics": ", then the cheddar come\r\nYou\u00e2\u20ac\u2122ve neva won and ain\u00e2\u20ac\u2122t dreamed about ever winnin'\r\nSecond place the highest", "Artist": "Big Sean", "Country": "USA", "Title": "#1", "Longitude": "-83.045833", "County": "Wayne", "State": "Michigan", "Latitude": "42.331389", "Type": "Solo M", "Release date": null},{"Album": "Record Single", "City": "Detroit", "Lyrics": "take ya girl then ya pride, then the cheddar come\r\nYou\u00e2\u20ac\u2122ve neva won and ain\u00e2\u20ac\u2122t dreamed about ever", "Artist": "Big Sean", "Country": "USA", "Title": "#1 (Ro Spit) (Ft. Bun B & CurT@!n$)", "Longitude": "-83.045833", "County": "Wayne", "State": "Michigan", "Latitude": "42.331389", "Type": "Solo M", "Release date": null},{"Album": "Slam - Soundtrack", "City": "South Bronx", "Lyrics": "measures, we should all stick together\r\nFinal Call, we better heed instead of chasin after cheddar", "Artist": "KRS-ONE", "Country": "USA", "Title": "Brand NubianTime is Running Out", "Longitude": "-73.91735", "County": "The Bronx", "State": "New York", "Latitude": "40.81621", "Type": "Solo M", "Release date": "1998-10-13"},{"Album": "She Got Game", "City": "Wilson", "Lyrics": "with cheddar\r\nIt's that down south sweet tea, truth ya never\r\nEver heard, that's my word like groups", "Artist": "Rapsody", "Country": "USA", "Title": "One Time", "Longitude": "-77.923611", "County": "Wilson", "State": "North Carolina", "Latitude": "35.731111", "Type": "Solo F", "Release date": "2011-06-21"},{"Album": "Broken Silence", "City": "Brooklyn", "Lyrics": "bitches\r\n(Yo Fox what up?)\r\nIzl my nizl\r\n\r\n[Capone]\r\nYo niggas claim they high rollers, cheddar", "Artist": "Foxy Brown", "Country": "USA", "Title": "Run Yo Shit", "Longitude": "-73.989872", "County": "Kings", "State": "New York", "Latitude": "40.692385", "Type": "Solo F", "Release date": "2001-07-17"},{"Album": "Decade 1994 2004", "City": "Brooklyn", "Lyrics": "and Mega for whatever, and through this cheddar\r\nWe gon' stay family, 'til we fry though\r\nThe fam", "Artist": "Foxy Brown", "Country": "USA", "Title": "Affirmative Action II", "Longitude": "-73.989872", "County": "Kings", "State": "New York", "Latitude": "40.692385", "Type": "Solo F", "Release date": "2004-01-01"},{"Album": "Dedication 3", "City": "New Orleans", "Lyrics": "The Other Side\n[La the Darkman]\r\nYeahhh...\r\nL.A.D\r\nI'm all about that cheese, swiss, mozerella", "Artist": "Lil Wayne", "Country": "USA", "Title": "The Other Side", "Longitude": "-90.077714", "County": "Orleans", "State": "Louisiana", "Latitude": "29.95369", "Type": "Solo M", "Release date": "2008-11-14"},{"Album": "Escape From Monsta Island", "City": "Roosevelt", "Lyrics": "for murder, murder\r\nOut for murder, pull a squeezed then hurt her\r\nOut for Cheddar piece of cheese when", "Artist": "MF DOOM", "Country": "USA", "Title": "1,2 1,2", "Longitude": "-73.585556", "County": "Nassau", "State": "New York", "Latitude": "40.679167", "Type": "Solo M", "Release date": "2003-01-01"},{"Album": "Record Single", "City": "Brooklyn", "Lyrics": "at?\r\nI leave the boys alone, tell her you won't be back\r\nI got the cheese baby; my cheddar's better", "Artist": "MC Lyte", "Country": "USA", "Title": "Cold Rock a Party (Remix) (Ft. Diddy & Missy Elliott)", "Longitude": "-73.989872", "County": "Kings", "State": "New York", "Latitude": "40.692385", "Type": "Solo F", "Release date": null},{"Album": "Record Single", "City": "Brooklyn", "Lyrics": "this cheddar\r\nWe gon' stay family, 'til we fry though\r\nThe fam will never split even if one of us die though", "Artist": "Foxy Brown", "Country": "USA", "Title": "Affirmative Action II (AZ) (Ft. Cormega & Nas) prod. by Dave Atkinson & Trackmasters", "Longitude": "-73.989872", "County": "Kings", "State": "New York", "Latitude": "40.692385", "Type": "Solo F", "Release date": null},{"Album": "Record Single", "City": "Brooklyn", "Lyrics": "be straight cheddar, in K sweater\r\nThem pussies fuck dicks, raw dog shit\r\nBubblin mad chips, hard", "Artist": "Foxy Brown", "Country": "USA", "Title": "Fox Boogie (Ft. Kid Capri)", "Longitude": "-73.989872", "County": "Kings", "State": "New York", "Latitude": "40.692385", "Type": "Solo F", "Release date": null},{"Album": "All Eyez On Me", "City": "Marin City", "Lyrics": "feeling me\r\nA muthafuckin' fool, bout\r\nMy fuckin' cheddar cheese\r\nAnd it pleases, passion of mine\r\nThuggin", "Artist": "2Pac", "Country": "USA", "Title": "Thug Passion", "Longitude": "-122.516579", "County": "Marin", "State": "California", "Latitude": "37.87199", "Type": "Solo M", "Release date": "1996-01-01"},{"Album": "Bad As I Wanna B", "City": "Brooklyn", "Lyrics": ", tell her you won't be back\r\nI got the cheese baby; my cheddar's better\r\nI got that milk", "Artist": "MC Lyte", "Country": "USA", "Title": "Cold Rock a Party (Remix)", "Longitude": "-73.989872", "County": "Kings", "State": "New York", "Latitude": "40.692385", "Type": "Solo F", "Release date": "1996-01-01"},{"Album": "More Fish", "City": "Staten Island", "Lyrics": "the chauffeur\r\nTo get that cheddar cheese back we lost from earlier\r\nGet back the dices shaking, stretching my", "Artist": "Ghostface Killah", "Country": "USA", "Title": "Outta Town Shit", "Longitude": "-74.144839", "County": "Richmond", "State": "New York", "Latitude": "40.576281", "Type": "Solo M", "Release date": "2006-01-01"},{"Album": "Ill Na Na", "City": "Brooklyn", "Lyrics": "cheddar, in K sweater\r\nThem pussies fuck dicks, raw dog shit\r\nBubblin mad chips, hard in the six\r\nWhere", "Artist": "Foxy Brown", "Country": "USA", "Title": "Fox Boogie", "Longitude": "-73.989872", "County": "Kings", "State": "New York", "Latitude": "40.692385", "Type": "Solo F", "Release date": "1996-11-19"},{"Album": "Decade 1994 2004", "City": "Queensbridge", "Lyrics": "and Mega for whatever, and through this cheddar\r\nWe gon' stay family, 'til we fry though\r\nThe fam", "Artist": "Nas", "Country": "USA", "Title": "Affirmative Action II", "Longitude": "-73.937622", "County": "Queens", "State": "New York", "Latitude": "40.756279", "Type": "Solo M", "Release date": "2004-01-01"},{"Album": "Thank H.E.R Now", "City": "Wilson", "Lyrics": "with cheddar\r\nIt's that down south sweet tea, truth ya never\r\nEver heard, that's my word like groups", "Artist": "Rapsody", "Country": "USA", "Title": "One Time", "Longitude": "-77.923611", "County": "Wilson", "State": "North Carolina", "Latitude": "35.731111", "Type": "Solo F", "Release date": "2011-06-21"},{"Album": "Record Single", "City": "Queensbridge", "Lyrics": "this cheddar\r\nWe gon' stay family, 'til we fry though\r\nThe fam will never split even if one of us die", "Artist": "Nas", "Country": "USA", "Title": "Affirmative Action II (AZ) (Ft. Cormega & Foxy Brown) prod. by Dave Atkinson & Trackmasters", "Longitude": "-73.937622", "County": "Queens", "State": "New York", "Latitude": "40.756279", "Type": "Solo M", "Release date": null},{"Album": "Cold Rock a Party (Bad Boy Remix) CD-5", "City": "Brooklyn", "Lyrics": ", tell her you won't be back\r\nI got the cheese baby; my cheddar's better\r\nI got that milk", "Artist": "MC Lyte", "Country": "USA", "Title": "Cold Rock a Party (Remix)", "Longitude": "-73.989872", "County": "Kings", "State": "New York", "Latitude": "40.692385", "Type": "Solo F", "Release date": "1996-11-12"},{"Album": "Record Single", "City": "Bedford\u2013Stuyvesant", "Lyrics": "no evil just be Knievel\r\nYou can't be this good they just made me better\r\nThey told me cheese", "Artist": "Joey BADA$$", "Country": "USA", "Title": "BET Cypher 2012: Man With the Iron Fists (A$AP Rocky) (Ft. Angel Haze, Childish Gambino & Driiky Graham)", "Longitude": "-73.963796", "County": "Kings", "State": "New York", "Latitude": "40.692385", "Type": "Solo M", "Release date": null},{"Album": "Record Single", "City": "New Orleans", "Lyrics": "ready to leave\r\nThat's why even if it's petty I'll be ready to squeeze\r\nBut put a cheddar in cheese", "Artist": "Lil Wayne", "Country": "USA", "Title": "6 Minutes of Death (Cassidy) (Ft. Fabolous) prod. by Neo Da Matrix", "Longitude": "-90.077714", "County": "Orleans", "State": "Louisiana", "Latitude": "29.95369", "Type": "Solo M", "Release date": null},{"Album": "I M A Hustla", "City": "New Orleans", "Lyrics": "if it's petty, I'll be ready to squeeze\r\nBut put a cheddar in cheese, the guac-a-moola\r\nI pop the Ruger", "Artist": "Lil Wayne", "Country": "USA", "Title": "6 Minutes of Death", "Longitude": "-90.077714", "County": "Orleans", "State": "Louisiana", "Latitude": "29.95369", "Type": "Solo M", "Release date": "2005-01-01"},{"Album": "1999", "City": "Bedford\u2013Stuyvesant", "Lyrics": "better\r\nThey told me cheese at the cams and they made me cheddar\r\nAnd the green only made me clever", "Artist": "Joey BADA$$", "Country": "USA", "Title": "Suspect", "Longitude": "-73.963796", "County": "Kings", "State": "New York", "Latitude": "40.692385", "Type": "Solo M", "Release date": "2012-06-12"}]