[{"Album": "The College Dropout", "City": "Chicago", "Lyrics": "went to Cheesecake, he was a motherfucking waiter there\r\n\r\n[Hook]\r\n\r\n[Verse 2]\r\nI got a Jones like", "Artist": "Kanye West", "Country": "USA", "Title": "School Spirit", "Longitude": "-87.632409", "County": "Cook", "State": "Illinois", "Latitude": "41.88415", "Type": "Solo M", "Release date": "2004-02-10"},{"Album": "God Forgives, I Don't", "City": "Carol City", "Lyrics": "of cheesecake before my niggas all deceased\r\nThese boys snort lines, I'm fine just sipping wine\r\nAmsterdam", "Artist": "Rick Ross", "Country": "USA", "Title": "Amsterdam", "Longitude": "-80.269920", "County": "Miami-Dade", "State": "Florida", "Latitude": "25.942121", "Type": "Solo M", "Release date": "2012-07-30"},{"Album": "God Forgives, I Don't (French Version)", "City": "Carol City", "Lyrics": "I just wanted me a key\r\nSheesh! I just wanted me a piece\r\nSlice of cheesecake before my niggas all", "Artist": "Rick Ross", "Country": "USA", "Title": "Amsterdam (French Version)", "Longitude": "-80.269920", "County": "Miami-Dade", "State": "Florida", "Latitude": "25.942121", "Type": "Solo M", "Release date": "2012-07-30"},{"Album": "Record Single", "City": "Miami", "Lyrics": "Sweepstakes, for Pete sake\r\nLike Diddy bitch, I just want cheesecake\r\nWhy you treat fuck niggas like", "Artist": "Trina", "Country": "USA", "Title": "Actin Up (Remix)", "Longitude": "-80.237419", "County": "Miami-Dade", "State": "Florida", "Latitude": "25.728985", "Type": "Solo F", "Release date": null},{"Album": "My Beautiful Dark Twisted Fantasy", "City": "Chicago", "Lyrics": "but her pockets eating cheesecake\r\nAnd I'll say bride of Chucky is child's play\r\nJust killed another", "Artist": "Kanye West", "Country": "USA", "Title": "Monster", "Longitude": "-87.632409", "County": "Cook", "State": "Illinois", "Latitude": "41.88415", "Type": "Solo M", "Release date": "2010-11-22"},{"Album": "Record Single", "City": "Compton", "Lyrics": "Just so the lord could put the fork inside the cheesecake\r\nCuffed to my wrist I\u00e2\u20ac\u2122ve got", "Artist": "Kendrick Lamar", "Country": "USA", "Title": "1 Train (A$AP Rocky) (Ft. Action Bronson, Big KRIT, Danny Brown, Joey BADA$$ & Yelawolf) prod. by Hit-Boy", "Longitude": "-118.224329", "County": "Los Angeles", "State": "California", "Latitude": "33.895285", "Type": "Solo M", "Release date": null},{"Album": "Record Single", "City": "Jamaica", "Lyrics": "but her pockets eating cheesecake\r\nAnd I'll say bride of Chucky is child's play\r\nJust killed another", "Artist": "Nicki Minaj", "Country": "USA", "Title": "Monster (Kanye West) (Ft. Bon Iver, Jay Z & Rick Ross) prod. by Kanye West, Mike Dean & Plain Pat", "Longitude": "-73.80842", "County": "Queens", "State": "New York", "Latitude": "40.701782", "Type": "Solo F", "Release date": null},{"Album": "Record Single", "City": "Bedford\u2013Stuyvesant", "Lyrics": "state\r\nJust so the lord could put the fork inside the cheesecake\r\nCuffed to my wrist I\u00e2\u20ac\u2122ve got", "Artist": "Joey BADA$$", "Country": "USA", "Title": "1 Train (A$AP Rocky) (Ft. Action Bronson, Big KRIT, Danny Brown, Kendrick Lamar & Yelawolf) prod. by Hit-Boy", "Longitude": "-73.963796", "County": "Kings", "State": "New York", "Latitude": "40.692385", "Type": "Solo M", "Release date": null},{"Album": "Long Live A Ap", "City": "Compton", "Lyrics": "the cheesecake\r\nCuffed to my wrist, I\u00e2\u20ac\u2122ve got the briefcase\r\nThe gavel slam, I\u00e2\u20ac\u2122m a free man, try", "Artist": "Kendrick Lamar", "Country": "USA", "Title": "1 Train", "Longitude": "-118.224329", "County": "Los Angeles", "State": "California", "Latitude": "33.895285", "Type": "Solo M", "Release date": "2013-01-01"},{"Album": "Record Single", "City": "Compton", "Lyrics": "comin' through in each state\r\nJust so the lord could put the fork inside the cheesecake\r\nCuffed to my", "Artist": "Kendrick Lamar", "Country": "USA", "Title": "1 Train (French Version) (A$AP Rocky) (Ft. Action Bronson, Big KRIT, Danny Brown, Joey BADA$$ & Yelawolf)", "Longitude": "-118.224329", "County": "Los Angeles", "State": "California", "Latitude": "33.895285", "Type": "Solo M", "Release date": null},{"Album": "Long Live A Ap", "City": "Harlem", "Lyrics": "the cheesecake\r\nCuffed to my wrist, I\u00e2\u20ac\u2122ve got the briefcase\r\nThe gavel slam, I\u00e2\u20ac\u2122m a free man, try", "Artist": "A$AP Rocky", "Country": "USA", "Title": "1 Train", "Longitude": "-73.944862", "County": "Manhattan", "State": "New York", "Latitude": "40.806198", "Type": "Solo M", "Release date": "2013-01-01"},{"Album": "Long Live A Ap", "City": "Bedford\u2013Stuyvesant", "Lyrics": "the cheesecake\r\nCuffed to my wrist, I\u00e2\u20ac\u2122ve got the briefcase\r\nThe gavel slam, I\u00e2\u20ac\u2122m a free man, try", "Artist": "Joey BADA$$", "Country": "USA", "Title": "1 Train", "Longitude": "-73.963796", "County": "Kings", "State": "New York", "Latitude": "40.692385", "Type": "Solo M", "Release date": "2013-01-01"},{"Album": "Record Single", "City": "Bedford\u2013Stuyvesant", "Lyrics": "comin' through in each state\r\nJust so the lord could put the fork inside the cheesecake\r\nCuffed", "Artist": "Joey BADA$$", "Country": "USA", "Title": "1 Train (French Version) (A$AP Rocky) (Ft. Action Bronson, Big KRIT, Danny Brown, Kendrick Lamar & Yelawolf)", "Longitude": "-73.963796", "County": "Kings", "State": "New York", "Latitude": "40.692385", "Type": "Solo M", "Release date": null}]