[{"Album": "S.D.E. (Sports Drugs and Entertainment)", "City": "Harlem", "Lyrics": "All the Chickens\n[Chickens clucking in background]\r\n\r\nAll the chickens go cluck, cluck, cluck", "Artist": "Camron", "Country": "USA", "Title": "All the Chickens", "Longitude": "-73.944862", "County": "Manhattan", "State": "New York", "Latitude": "40.806198", "Type": "Solo M", "Release date": "2000-01-01"},{"Album": "S.D.E. (Sports Drugs and Entertainment)", "City": "Harlem", "Lyrics": "All the Chickens\n\r\n[Chickens clucking in background]\r\n\r\nAll the chickens go cluck, cluck, cluck", "Artist": "Camron", "Country": "USA", "Title": "All the Chickens", "Longitude": "-73.944862", "County": "Manhattan", "State": "New York", "Latitude": "40.806198", "Type": "Solo M", "Release date": "2000-01-01"},{"Album": "Stop Snitchin, Stop Lyin", "City": "Compton", "Lyrics": "We Are the Champions\n\r\n[Hook - Chicken Little]\r\nI am the champion my friend\r\nAnd I'll keep", "Artist": "Game", "Country": "USA", "Title": "We Are the Champions", "Longitude": "-118.224329", "County": "Los Angeles", "State": "California", "Latitude": "33.895285", "Type": "Solo M", "Release date": "2005-01-01"},{"Album": "Life", "City": "South Bronx", "Lyrics": "still livin in a corporate chicken coop\r\nWith a hundred other chickens yellin get that loot\r\nMakin", "Artist": "KRS-ONE", "Country": "USA", "Title": "Still Slippin'", "Longitude": "-73.91735", "County": "The Bronx", "State": "New York", "Latitude": "40.81621", "Type": "Solo M", "Release date": "2006-06-13"},{"Album": "Record Single", "City": "Bedford\u2013Stuyvesant", "Lyrics": "& Dyemond Lewis)\r\n12. Escape 120 (Ft. Raury)\r\n13. Black Beetles\r\n14. O.C.B\r\n15. Curry Chicken\r\n16. Run Up", "Artist": "Joey BADA$$", "Country": "USA", "Title": "B4.DA.$$ Artwork/Tracklist", "Longitude": "-73.963796", "County": "Kings", "State": "New York", "Latitude": "40.692385", "Type": "Solo M", "Release date": null},{"Album": "Ready to Die", "City": "Bedford\u2013Stuyvesant", "Lyrics": ", oooohh yeah!!! MMMMMM, Aaahhh\r\nOh fuck me you black Kentucky Fried Chicken eatin'\r\nOhhh, ooohhh", "Artist": "The Notorious B.I.G.", "Country": "USA", "Title": "Fuck Me (Interlude)", "Longitude": "-73.963796", "County": "Kings", "State": "New York", "Latitude": "40.692385", "Type": "Solo M", "Release date": "1994-09-13"},{"Album": "Untitled", "City": "Queensbridge", "Lyrics": "Fried Chicken\n[Intro: Nas]\r\nLord Lord y'all, what I'm gonna do?\r\nLord Lord y'all, Shit is all true", "Artist": "Nas", "Country": "USA", "Title": "Fried Chicken", "Longitude": "-73.937622", "County": "Queens", "State": "New York", "Latitude": "40.756279", "Type": "Solo M", "Release date": "2008-01-01"},{"Album": "Encore", "City": "Detroit", "Lyrics": "} wizardry\r\nWith these words - am I a jerk or just jerk chicken?\r\nOr {chiga chigga chig chig jer chig", "Artist": "Eminem", "Country": "USA", "Title": "My 1st Single", "Longitude": "-83.045833", "County": "Wayne", "State": "Michigan", "Latitude": "42.331389", "Type": "Solo M", "Release date": "2004-11-12"},{"Album": "F.B.G.: The Movie", "City": "Atlanta", "Lyrics": "Whip Game\n\r\n[Hook: Future]\r\nI whip the Lambo off the lot doing donuts\r\nI whip the chicken", "Artist": "Future", "Country": "USA", "Title": "Whip Game", "Longitude": "-84.41918", "County": "Fulton", "State": "Georgia", "Latitude": "33.77155", "Type": "Solo M", "Release date": "2013-01-15"},{"Album": "DS2", "City": "Atlanta", "Lyrics": "if they was real sisters\r\nFuck around with me, you tryna dodge bullets\r\nServing packs of chickens in a Dodge", "Artist": "Future", "Country": "USA", "Title": "Real Sisters", "Longitude": "-84.41918", "County": "Fulton", "State": "Georgia", "Latitude": "33.77155", "Type": "Solo M", "Release date": "2015-07-17"},{"Album": "Da Real World", "City": "Portsmouth", "Lyrics": "Stickin' Chickens\n[Missy (Aaliyah)]\r\nUh uh (yea yea)\r\nUh uh (yea yea)\r\n99 uh uh (yea yea) what you", "Artist": "Missy Elliott", "Country": "USA", "Title": "Stickin' Chickens", "Longitude": "-76.297715", "County": "Portsmouth", "State": "Virginia", "Latitude": "36.832642", "Type": "Solo F", "Release date": "1999-01-01"},{"Album": "The Pretty Toney Album", "City": "Staten Island", "Lyrics": "can go to store and get some flower\r\nAnd some vegetable oil so I can fry some god damn\r\nChicken (uh", "Artist": "Ghostface Killah", "Country": "USA", "Title": "Keisha's House", "Longitude": "-74.144839", "County": "Richmond", "State": "New York", "Latitude": "40.576281", "Type": "Solo M", "Release date": "2004-04-20"},{"Album": "The Drought Is Over 5 Mixtape", "City": "New Orleans", "Lyrics": "movin birds bitch (yeah)\r\n\r\n[Hook part one: Birdman]\r\nQuarters and halves,chick-chickens and bricks", "Artist": "Lil Wayne", "Country": "USA", "Title": "I Got Them", "Longitude": "-90.077714", "County": "Orleans", "State": "Louisiana", "Latitude": "29.95369", "Type": "Solo M", "Release date": "2007-01-01"},{"Album": "The Sneak Attack", "City": "South Bronx", "Lyrics": "of that chicken that you just fried.\"\r\n{*sound effect: food cooking*}\r\nShe replied, \"Chicken - fried", "Artist": "KRS-ONE", "Country": "USA", "Title": "False Pride", "Longitude": "-73.91735", "County": "The Bronx", "State": "New York", "Latitude": "40.81621", "Type": "Solo M", "Release date": "2001-01-01"},{"Album": "Record Single", "City": "Jamaica", "Lyrics": "curry chicken and my rice and peas?\r\nMy madda cunt Trinis\r\nMy Jamaican bod gal, all my Guyanese", "Artist": "Nicki Minaj", "Country": "USA", "Title": "Beam Me Up Scotty", "Longitude": "-73.80842", "County": "Queens", "State": "New York", "Latitude": "40.701782", "Type": "Solo F", "Release date": null},{"Album": "Beam Me Up Scotty (Mixtape)", "City": "Jamaica", "Lyrics": "curry chicken and my rice and peas?\r\nMy madda cunt Trinis\r\nMy Jamaican bod gal, all my Guyanese", "Artist": "Nicki Minaj", "Country": "USA", "Title": "Beam Me Up Scotty", "Longitude": "-73.80842", "County": "Queens", "State": "New York", "Latitude": "40.701782", "Type": "Solo F", "Release date": "2009-04-18"},{"Album": "Ill Na Na", "City": "Brooklyn", "Lyrics": "Intro... Chicken Coop\n\r\n[Rich Nice]\r\nThe following previews have been approved for all audiences", "Artist": "Foxy Brown", "Country": "USA", "Title": "Intro... Chicken Coop", "Longitude": "-73.989872", "County": "Kings", "State": "New York", "Latitude": "40.692385", "Type": "Solo F", "Release date": "1996-11-19"},{"Album": "The Blueprint 2 The Gift The Curse", "City": "Brooklyn", "Lyrics": "schooled me to shit you chickens do\r\nTricking fools, got a whole Robin Givens crew that I kick", "Artist": "Jay Z", "Country": "USA", "Title": "Bitches & Sisters", "Longitude": "-73.989872", "County": "Kings", "State": "New York", "Latitude": "40.692385", "Type": "Solo M", "Release date": "2002-01-01"},{"Album": "I Am Not a Human Being II (French Version)", "City": "New Orleans", "Lyrics": ", yeah\r\nBitchShake Junt\r\nBitchShake Junt\r\nBitchShake Junt, yeah\r\nChicken Bone Nowison, Nowison", "Artist": "Lil Wayne", "Country": "USA", "Title": "Hello (French Version)", "Longitude": "-90.077714", "County": "Orleans", "State": "Louisiana", "Latitude": "29.95369", "Type": "Solo M", "Release date": "2013-03-22"},{"Album": "Purple Haze", "City": "Harlem", "Lyrics": "chicken sandwiches they was a $1.50\r\nBudget seven dollars, nickel bag and White Owl\r\nI hope", "Artist": "Camron", "Country": "USA", "Title": "Get Down", "Longitude": "-73.944862", "County": "Manhattan", "State": "New York", "Latitude": "40.806198", "Type": "Solo M", "Release date": "2004-01-01"},{"Album": "Record Single", "City": "Harlem", "Lyrics": "-a-boo through a slit like blinds\r\nAnd seen his little meat like chicken pot pie\r\nHis chicken pox", "Artist": "Azelia Banks", "Country": "USA", "Title": "Can't Stop Me Now (Kicks Like A Mule Remix)", "Longitude": "-73.948372", "County": "Manhattan", "State": "New York", "Latitude": "40.809033", "Type": "Solo F", "Release date": null},{"Album": "Killa Season", "City": "Harlem", "Lyrics": "collect the chicken, call me Perdue\r\nHis ex-wife, a new sex life\r\nBut ch-ch-ch-ch-ch-ch-ch-check", "Artist": "Camron", "Country": "USA", "Title": "Wet Wipes", "Longitude": "-73.944862", "County": "Manhattan", "State": "New York", "Latitude": "40.806198", "Type": "Solo M", "Release date": "2006-05-16"},{"Album": "I Am Not a Human Being II", "City": "New Orleans", "Lyrics": "Bitch(Shake Junt)(x2)\r\nYeah,Chicken bone Nowison\r\nNowison\r\nDeath wish, bitch\r\n\r\n[Verse 1]\r\nCalifornia", "Artist": "Lil Wayne", "Country": "USA", "Title": "Hello", "Longitude": "-90.077714", "County": "Orleans", "State": "Louisiana", "Latitude": "29.95369", "Type": "Solo M", "Release date": "2013-03-22"},{"Album": "Da Real World", "City": "Portsmouth", "Lyrics": "in the blue like free hot lunch\r\nSo once its on, turn it up, chickens flockin in\r\nShoppin at birds", "Artist": "Missy Elliott", "Country": "USA", "Title": "Dangerous Mouths", "Longitude": "-76.297715", "County": "Portsmouth", "State": "Virginia", "Latitude": "36.832642", "Type": "Solo F", "Release date": "1999-01-01"},{"Album": "When Disaster Strikes...", "City": "Uniondale", "Lyrics": "Let me put it in your spirit like the holy Kyron\r\nGot the mega song\r\nSweet like honey chicken dijon", "Artist": "Busta Rhymes", "Country": "USA", "Title": "Turn It Up", "Longitude": "-73.593544", "County": "Nassau", "State": "New York", "Latitude": "40.717935", "Type": "Solo M", "Release date": "1997-09-16"},{"Album": "The Best Kept Secret", "City": "The Bronx", "Lyrics": "on my grip\r\nThere's so much lip on my tip, these chickens sip on my drip\r\nMilitia click in this bitch we", "Artist": "Cory Gunz", "Country": "USA", "Title": "Richer Than Richie", "Longitude": "-73.886", "County": "The Bronx", "State": "New York", "Latitude": " 40.8373", "Type": "Solo M", "Release date": "2008-09-21"},{"Album": "Tha Carter III", "City": "New Orleans", "Lyrics": "' like a city cop\r\nNow I ain't never been a chicken but my fitted cocked\r\nSay I ain't never been", "Artist": "Lil Wayne", "Country": "USA", "Title": "Got Money", "Longitude": "-90.077714", "County": "Orleans", "State": "Louisiana", "Latitude": "29.95369", "Type": "Solo M", "Release date": "2008-01-01"},{"Album": "Fly International Luxurious Art", "City": "Staten Island", "Lyrics": "Chicken in my lap, imagine that\r\nI'm groovin' down Sunset Boulevard\r\nNo harm, no foul, no body", "Artist": "Raekwon", "Country": "USA", "Title": "1,2 1,2", "Longitude": "-74.144839", "County": "Richmond", "State": "New York", "Latitude": "40.576281", "Type": "Solo M", "Release date": "2015-01-01"},{"Album": "The Eminem Show", "City": "Detroit", "Lyrics": "these bitches on our dicks\r\nFucking chickens with no ribs\r\nThat's why I ain't got no time\r\n\r\n[Verse 1: Obie]\r\nYo", "Artist": "Eminem", "Country": "USA", "Title": "Drips", "Longitude": "-83.045833", "County": "Wayne", "State": "Michigan", "Latitude": "42.331389", "Type": "Solo M", "Release date": "2002-05-21"},{"Album": "Record Single", "City": "Harlem", "Lyrics": "fiddle triggers\r\nHow you older than me and still a little nigga?\r\nOn the first, I hate these chickens", "Artist": "Camron", "Country": "USA", "Title": "1st of The Month", "Longitude": "-73.944862", "County": "Manhattan", "State": "New York", "Latitude": "40.806198", "Type": "Solo M", "Release date": null},{"Album": "Untold Story", "City": "Compton", "Lyrics": "for a witness\r\nOnly +Church's+ in the hood sell chicken (ba-KAW)\r\nEvery nigga in the hood sell chickens", "Artist": "Game", "Country": "USA", "Title": "Compton Compton", "Longitude": "-118.224329", "County": "Los Angeles", "State": "California", "Latitude": "33.895285", "Type": "Solo M", "Release date": "2004-10-05"},{"Album": "Record Single", "City": "Harlem", "Lyrics": "?\r\nOn the first, I hate these chickens\r\nGet their check, hair, nails done\r\nSteak and chicken for the fridge", "Artist": "Camron", "Country": "USA", "Title": "1st of The Month (Ft. Jim Jones & Juelz Santana)", "Longitude": "-73.944862", "County": "Manhattan", "State": "New York", "Latitude": "40.806198", "Type": "Solo M", "Release date": null},{"Album": "When Disaster Strikes...", "City": "Uniondale", "Lyrics": "the chickens be always serving us\r\nAll up in between they ass where they wanna carry us\r\nHit ya good then I", "Artist": "Busta Rhymes", "Country": "USA", "Title": "Put Your Hands Where My Eyes Could See", "Longitude": "-73.593544", "County": "Nassau", "State": "New York", "Latitude": "40.717935", "Type": "Solo M", "Release date": "1997-09-16"},{"Album": "Detroit", "City": "Detroit", "Lyrics": ", and man they had some good chicken wings, man some good, thick girls, and it was right. Anyway, I love", "Artist": "Big Sean", "Country": "USA", "Title": "Story by Common", "Longitude": "-83.045833", "County": "Wayne", "State": "Michigan", "Latitude": "42.331389", "Type": "Solo M", "Release date": "2012-01-01"},{"Album": "Rich Forever", "City": "Carol City", "Lyrics": "still speaking Ebonics\r\nIf she selling that pussy, bring it to baby, I got it\r\nPop a chicken", "Artist": "Rick Ross", "Country": "USA", "Title": "King Of Diamonds", "Longitude": "-80.269920", "County": "Miami-Dade", "State": "Florida", "Latitude": "25.942121", "Type": "Solo M", "Release date": "2012-01-06"},{"Album": "Barbie World: The Mixtape", "City": "Jamaica", "Lyrics": "is always shittin'\r\nMy clock be tik tik tikin\r\nThem chickens is finga lickin'\r\nAnd that's why, we do'em", "Artist": "Nicki Minaj", "Country": "USA", "Title": "Girlfriend", "Longitude": "-73.80842", "County": "Queens", "State": "New York", "Latitude": "40.701782", "Type": "Solo F", "Release date": "2010-01-17"},{"Album": "The Albert Anastasia EP", "City": "Carol City", "Lyrics": "Beamer, smelling like a winner\r\nFour piece chicken box Birdman dinner\r\nSwerving thorough", "Artist": "Rick Ross", "Country": "USA", "Title": "Knife Fight", "Longitude": "-80.269920", "County": "Miami-Dade", "State": "Florida", "Latitude": "25.942121", "Type": "Solo M", "Release date": "2010-05-27"},{"Album": "Ohnomite", "City": "Roosevelt", "Lyrics": "but a chicken wing\r\nIt's like the quickening, quit your sickening bickering\r\nThings kickin", "Artist": "MF DOOM", "Country": "USA", "Title": "3 Dollars", "Longitude": "-73.585556", "County": "Nassau", "State": "New York", "Latitude": "40.679167", "Type": "Solo M", "Release date": "2012-06-05"},{"Album": "Record Single", "City": "Roosevelt", "Lyrics": "wall\r\nAin't no thing but a chicken wing\r\nIt's like the quickening, quit your sickening bickering", "Artist": "MF DOOM", "Country": "USA", "Title": "3 Dollars (Oh No) prod. by Oh No", "Longitude": "-73.585556", "County": "Nassau", "State": "New York", "Latitude": "40.679167", "Type": "Solo M", "Release date": null},{"Album": "Supa Dupa Fly", "City": "Portsmouth", "Lyrics": "around Missy, don't act like a fuckin' sissy.\r\nNo chicken headz allowed here, no time for the kissy", "Artist": "Missy Elliott", "Country": "USA", "Title": "Busta's Intro", "Longitude": "-76.297715", "County": "Portsmouth", "State": "Virginia", "Latitude": "36.832642", "Type": "Solo F", "Release date": "1997-01-01"},{"Album": "Supreme Clientele", "City": "Staten Island", "Lyrics": "Saturday Nite\n\r\nSaturday night, Uptown\r\nRiding past Kansas Fried Chicken\r\nWhat's popping kid, we", "Artist": "Ghostface Killah", "Country": "USA", "Title": "Saturday Nite", "Longitude": "-74.144839", "County": "Richmond", "State": "New York", "Latitude": "40.576281", "Type": "Solo M", "Release date": "2000-02-08"},{"Album": "Meta-Historical", "City": "South Bronx", "Lyrics": "chicken\r\nYou turkeys need a tomato so let us start spitting\r\n\r\n\"Street Rhymer in superposition\" - 4X", "Artist": "KRS-ONE", "Country": "USA", "Title": "Street Rhymer", "Longitude": "-73.91735", "County": "The Bronx", "State": "New York", "Latitude": "40.81621", "Type": "Solo M", "Release date": "2010-08-31"},{"Album": "Ain T No Money Like Trap Money", "City": "Crown Heights", "Lyrics": "this chicken\r\nAll these dirty pots, man somebody do the dishes\r\nPeople looking for me, I\u00e2\u20ac\u2122m always", "Artist": "Troy Ave", "Country": "USA", "Title": "Always In The Kitchen", "Longitude": "-73.944722", "County": "Kings", "State": "New York", "Latitude": "40.663056", "Type": "Solo M", "Release date": "2015-01-01"},{"Album": "Astronaut Status", "City": "Atlanta", "Lyrics": "familia got peru\r\nAnd I plead not guilty until proved\r\nGot more birds than the zoo\r\nGot chickens", "Artist": "Future", "Country": "USA", "Title": "Itchin'", "Longitude": "-84.41918", "County": "Fulton", "State": "Georgia", "Latitude": "33.77155", "Type": "Solo M", "Release date": "2012-01-01"},{"Album": "Playtime is Over (Mixtape)", "City": "Jamaica", "Lyrics": "named Tiki Diamond\r\nYeah, chicken noodle bitches\r\nLike a pack of Ramen\r\nThey had it out for me", "Artist": "Nicki Minaj", "Country": "USA", "Title": "Hood Story", "Longitude": "-73.80842", "County": "Queens", "State": "New York", "Latitude": "40.701782", "Type": "Solo F", "Release date": "2007-01-01"},{"Album": "Record Single", "City": "Jamaica", "Lyrics": "of money just to impress others\r\n12. My father taught me how to make curry chicken\r\n13. I'm the best", "Artist": "Nicki Minaj", "Country": "USA", "Title": "25 Things You Don't Know About Me", "Longitude": "-73.80842", "County": "Queens", "State": "New York", "Latitude": "40.701782", "Type": "Solo F", "Release date": null},{"Album": "Record Single", "City": "Portsmouth", "Lyrics": "Rhymes and Missy,\r\nNiggas, when ya come around Missy, don't act like a fuckin' sissy.\r\nNo chicken headz", "Artist": "Missy Elliott", "Country": "USA", "Title": "Busta's Intro (Ft. Busta Rhymes) prod. by Timbaland", "Longitude": "-76.297715", "County": "Portsmouth", "State": "Virginia", "Latitude": "36.832642", "Type": "Solo F", "Release date": null},{"Album": "She Got Game", "City": "Wilson", "Lyrics": "chicken in me I\u00e2\u20ac\u2122m fearin\u00e2\u20ac\u2122 none of these robots\r\nI\u00e2\u20ac\u2122m in the class with these Big Willie niggas", "Artist": "Rapsody", "Country": "USA", "Title": "Facts Only", "Longitude": "-77.923611", "County": "Wilson", "State": "North Carolina", "Latitude": "35.731111", "Type": "Solo F", "Release date": "2013-01-01"},{"Album": "House of Wax: The Vatican Mixtape, Vol. 3", "City": "Staten Island", "Lyrics": "on, Drugs on niggas\r\nDressed in gates, All of us love niggas\r\nChickens love rims, Brims on wool", "Artist": "Raekwon", "Country": "USA", "Title": "Make You Pay", "Longitude": "-74.144839", "County": "Richmond", "State": "New York", "Latitude": "40.576281", "Type": "Solo M", "Release date": "2007-08-06"},{"Album": "Encore", "City": "Detroit", "Lyrics": "around the room like a balloon\r\nI grabbed the last can of chicken tuna out the trash can\r\nAnd zoom, I", "Artist": "Eminem", "Country": "USA", "Title": "Rain Man", "Longitude": "-83.045833", "County": "Wayne", "State": "Michigan", "Latitude": "42.331389", "Type": "Solo M", "Release date": "2004-11-12"},{"Album": "Stop Snitchin, Stop Lyin", "City": "Compton", "Lyrics": "beat out by Chicken Little\r\nSo that's your name: Chicken Little, bitch!\r\n\r\n[Hook]\r\nNigga you run", "Artist": "Game", "Country": "USA", "Title": "Stop talkin to the cops", "Longitude": "-118.224329", "County": "Los Angeles", "State": "California", "Latitude": "33.895285", "Type": "Solo M", "Release date": "2005-01-01"},{"Album": "Phenomenon", "City": "Queens", "Lyrics": "plus the clothes in the closet\r\nTake your current chickens then take your ex-chickens\r\nShake it down", "Artist": "LL Cool J", "Country": "USA", "Title": "Starsky & Hutch", "Longitude": "-73.829959", "County": "Queens", "State": "New York", "Latitude": "40.713985", "Type": "Solo M", "Release date": "1997-01-01"},{"Album": "E.L.E. (Extinction Level Event): The Final World Front", "City": "Uniondale", "Lyrics": "like you about something\r\nAnd you ain't about none\r\nCome on son\r\nThought the chicken head", "Artist": "Busta Rhymes", "Country": "USA", "Title": "Just Give It To Me Raw", "Longitude": "-73.593544", "County": "Nassau", "State": "New York", "Latitude": "40.717935", "Type": "Solo M", "Release date": "1998-01-01"},{"Album": "Encore", "City": "Detroit", "Lyrics": "the room like a balloon-aGrabbed the last can of chicken tunaOut the trash can and zoom-aHeaded", "Artist": "Eminem", "Country": "USA", "Title": "Rainman", "Longitude": "-83.045833", "County": "Wayne", "State": "Michigan", "Latitude": "42.331389", "Type": "Solo M", "Release date": "2004-11-12"},{"Album": "Snoop Dogg Presents... Doggy Style Allstars Welcome To Tha House Vol. 1", "City": "Long Beach", "Lyrics": "game\r\nI know hoochies, chickens\r\nHomies, snitches\r\nPimps, killas, big butt bitches\r\nFakas, cake", "Artist": "Snoop Dogg", "Country": "USA", "Title": "Don't Fight The Feelin'", "Longitude": "-118.195556", "County": "Los Angeles", "State": "California", "Latitude": "33.768333", "Type": "Solo M", "Release date": "2002-08-13"},{"Album": "King", "City": "Atlanta", "Lyrics": "[Mike Epps]\r\nYou had just came out the chicken place, you gat you a 6-piece wing wit a greenbean", "Artist": "T.I.", "Country": "USA", "Title": "The Breakup (Skit)", "Longitude": "-84.41918", "County": "Fulton", "State": "Georgia", "Latitude": "33.77155", "Type": "Solo M", "Release date": "2006-03-28"},{"Album": "Untold Story: Volume II", "City": "Compton", "Lyrics": "the South clickin\r\nCause ain't nuttin like niggas with gold teeth and them down South chickens\r\nSo", "Artist": "Game", "Country": "USA", "Title": "Business Never Personal", "Longitude": "-118.224329", "County": "Los Angeles", "State": "California", "Latitude": "33.895285", "Type": "Solo M", "Release date": "2005-07-26"},{"Album": "KRS-One", "City": "South Bronx", "Lyrics": "off course\r\nThe style that I am kicking is like chicken\r\nIt will be bitten, rewritten", "Artist": "KRS-ONE", "Country": "USA", "Title": "Rappaz R. N. Dainja", "Longitude": "-73.91735", "County": "The Bronx", "State": "New York", "Latitude": "40.81621", "Type": "Solo M", "Release date": "1995-01-01"},{"Album": "Record Single", "City": "Carol City", "Lyrics": "of chickens in the coupe; cock-a-doodle-doo\r\nI fucked the secretary, fuck the interview\r\nIf I was in the NBA", "Artist": "Rick Ross", "Country": "USA", "Title": "911 (Remix) (Ft. 2 Chainz) prod. by Young Shun", "Longitude": "-80.269920", "County": "Miami-Dade", "State": "Florida", "Latitude": "25.942121", "Type": "Solo M", "Release date": null},{"Album": "Record Single", "City": "Jamaica", "Lyrics": "white\r\nName one bitch in the game that I can't murder\r\nChicken noodle bitches on the side with a soda", "Artist": "Nicki Minaj", "Country": "USA", "Title": "40 Bars", "Longitude": "-73.80842", "County": "Queens", "State": "New York", "Latitude": "40.701782", "Type": "Solo F", "Release date": null},{"Album": "Sucka Free (Mixtape)", "City": "Jamaica", "Lyrics": "just give 'em wink\r\nWhat the fuck did you think\r\nNow he spending and tricking\r\nSo the chickens", "Artist": "Nicki Minaj", "Country": "USA", "Title": "Young Money Ballaz", "Longitude": "-73.80842", "County": "Queens", "State": "New York", "Latitude": "40.701782", "Type": "Solo F", "Release date": "2008-01-01"},{"Album": "Da Game is to be Sold, Not to be Told", "City": "Long Beach", "Lyrics": "Snoop DoggI'm in a club in New OrleansJust got finished eating a patch of chicken wings and some", "Artist": "Snoop Dogg", "Country": "USA", "Title": "Tru Tank Doggs", "Longitude": "-118.195556", "County": "Los Angeles", "State": "California", "Latitude": "33.768333", "Type": "Solo M", "Release date": "1998-08-04"},{"Album": "The Blueprint 2 The Gift The Curse", "City": "Brooklyn", "Lyrics": "don't drive X5's we give 'em to baby-mammasPush the big top that shake like the canvas, chickens", "Artist": "Jay Z", "Country": "USA", "Title": "Show You How (Bonus)", "Longitude": "-73.989872", "County": "Kings", "State": "New York", "Latitude": "40.692385", "Type": "Solo M", "Release date": "2002-01-01"},{"Album": "Freshman Adjustment", "City": "Chicago", "Lyrics": "if your nephew see K\r\nAnd if CL like UCK,thats how you know chickens C-L-U-C-K\r\nI'm tryna find", "Artist": "Kanye West", "Country": "USA", "Title": "Doing Fine", "Longitude": "-87.632409", "County": "Cook", "State": "Illinois", "Latitude": "41.88415", "Type": "Solo M", "Release date": "2005-03-21"},{"Album": "C4", "City": "Compton", "Lyrics": "in the dope business\r\nFirst you bargain shop\r\nLook for the priciest chickens\r\nI recommend that you", "Artist": "Kendrick Lamar", "Country": "USA", "Title": "Compton Chemistry", "Longitude": "-118.224329", "County": "Los Angeles", "State": "California", "Latitude": "33.895285", "Type": "Solo M", "Release date": "2009-01-01"},{"Album": "Fantasea", "City": "Harlem", "Lyrics": "you, dip you\r\nGet up out the way\r\nThe niggas is swank\r\nMy bitches is stank\r\nAll these chickens\r\nOut", "Artist": "Azelia Banks", "Country": "USA", "Title": "Aquababe", "Longitude": "-73.948372", "County": "Manhattan", "State": "New York", "Latitude": "40.809033", "Type": "Solo F", "Release date": "2012-07-11"},{"Album": "Brake Lights", "City": "Compton", "Lyrics": "' mouse\r\nThrow my black ski mask on, run up in your house\r\nThree and a half chickens, we", "Artist": "Game", "Country": "USA", "Title": "HaHaHaHaHa", "Longitude": "-118.224329", "County": "Los Angeles", "State": "California", "Latitude": "33.895285", "Type": "Solo M", "Release date": "2010-08-03"},{"Album": "Lil Weezy Ana", "City": "New Orleans", "Lyrics": ", they pop\r\nOutta my head\r\nWhen you show me the bread\r\nAnd I bet I could get a chicken\r\nIf you sold", "Artist": "Lil Wayne", "Country": "USA", "Title": "Off The Docks", "Longitude": "-90.077714", "County": "Orleans", "State": "Louisiana", "Latitude": "29.95369", "Type": "Solo M", "Release date": "2007-10-09"},{"Album": "Supa Dupa Fly", "City": "Portsmouth", "Lyrics": "chicken\r\nI don't give a cotton pick and\r\nShe can do her thing\r\nCause me and her don't hang\r\nThe ugly bitch", "Artist": "Missy Elliott", "Country": "USA", "Title": "Why You Hurt Me", "Longitude": "-76.297715", "County": "Portsmouth", "State": "Virginia", "Latitude": "36.832642", "Type": "Solo F", "Release date": "1997-01-01"},{"Album": "Port of Miami", "City": "Carol City", "Lyrics": "feed em steroids to strengthen up all my chickens\r\nThey flying over Pacific to be specific\r\nTriple", "Artist": "Rick Ross", "Country": "USA", "Title": "Hustlin'", "Longitude": "-80.269920", "County": "Miami-Dade", "State": "Florida", "Latitude": "25.942121", "Type": "Solo M", "Release date": "2006-08-08"},{"Album": "2001", "City": "Compton", "Lyrics": "it; damn bitches\r\nMan, this is what I'm talkin about\r\nChicken head, chicken fed, with a dick in yo mouth", "Artist": "Dr. Dre", "Country": "USA", "Title": "Fuck You", "Longitude": "-118.224329", "County": "Los Angeles", "State": "California", "Latitude": "33.895285", "Type": "Solo M", "Release date": "1999-01-01"},{"Album": "The Blueprint", "City": "Brooklyn", "Lyrics": "-a-Dough\"\r\nNow that's Spanish chick, French chick, Indian and black\r\nThat's fried chicken, curry chicken", "Artist": "Jay Z", "Country": "USA", "Title": "Girls, Girls, Girls", "Longitude": "-73.989872", "County": "Kings", "State": "New York", "Latitude": "40.692385", "Type": "Solo M", "Release date": "2001-09-11"},{"Album": "Record Single", "City": "The Bronx", "Lyrics": "can get it all for a real pretty penny\r\nNiggas in the hood cookin' chickens, eatin' Denny's\r\nHoody", "Artist": "Cory Gunz", "Country": "USA", "Title": "CivilTV Next Up Cypher", "Longitude": "-73.886", "County": "The Bronx", "State": "New York", "Latitude": " 40.8373", "Type": "Solo M", "Release date": null},{"Album": "Nothing Was The Same", "City": "Toronto", "Lyrics": "can focus with this twerkin' going on\r\nSomeone put a order in for a chicken\r\nTold my girl to order", "Artist": "Drake", "Country": "CAN", "Title": "Come Thru", "Longitude": "-79.4", "County": "", "State": "Ontario", "Latitude": "43.7", "Type": "Solo M", "Release date": "2013-01-01"},{"Album": "Live.Love.A$AP", "City": "Harlem", "Lyrics": "bald head rogaineCode red codeine, nose red cocainePimpin bitches since lemon chicken shrimp lo", "Artist": "A$AP Rocky", "Country": "USA", "Title": "Houston Old Head", "Longitude": "-73.944862", "County": "Manhattan", "State": "New York", "Latitude": "40.806198", "Type": "Solo M", "Release date": "2011-10-31"},{"Album": "Eardrum", "City": "Park Slope", "Lyrics": "they starvin, over here the food hurt you\r\nCows goin mad and the chickens crunk with bird flu\r\nIt's too", "Artist": "Talib Kweli", "Country": "USA", "Title": "Eat to Live", "Longitude": "-73.977063", "County": "Kings", "State": "New York", "Latitude": "40.672404", "Type": "Solo M", "Release date": "2007-08-21"},{"Album": "Port of Miami", "City": "Carol City", "Lyrics": "this chickens all insane\r\nLook at my stones tap dancing on the bezzle\r\nBad baby at the rollie, lap dancing", "Artist": "Rick Ross", "Country": "USA", "Title": "Boss", "Longitude": "-80.269920", "County": "Miami-Dade", "State": "Florida", "Latitude": "25.942121", "Type": "Solo M", "Release date": "2006-08-08"},{"Album": "Playtime is Over (Mixtape)", "City": "Jamaica", "Lyrics": "white\r\nName one bitch in the game that I can't murder\r\nChicken noodle bitches on the side with a soda", "Artist": "Nicki Minaj", "Country": "USA", "Title": "40 Bars", "Longitude": "-73.80842", "County": "Queens", "State": "New York", "Latitude": "40.701782", "Type": "Solo F", "Release date": "2007-01-01"},{"Album": "The Black Bar Mitzvah", "City": "Carol City", "Lyrics": "Chainz]\r\nWhen I climb on top, I say I'm into you\r\nA lot of chickens in the coupe; cock-a-doodle-doo", "Artist": "Rick Ross", "Country": "USA", "Title": "911 (Remix)", "Longitude": "-80.269920", "County": "Miami-Dade", "State": "Florida", "Latitude": "25.942121", "Type": "Solo M", "Release date": "2012-10-08"},{"Album": "The Chronic 2001", "City": "Compton", "Lyrics": "it; damn bitches\r\nMan, this is what I'm talkin about\r\nChicken head, chicken fed, with a dick in yo mouth", "Artist": "Dr. Dre", "Country": "USA", "Title": "Fuck You", "Longitude": "-118.224329", "County": "Los Angeles", "State": "California", "Latitude": "33.895285", "Type": "Solo M", "Release date": "1999-11-16"},{"Album": "Trilla", "City": "Carol City", "Lyrics": "it's hard to get down\r\nGot them chickens in the trap so I hardly sit down\r\nSome problem Alphabet Boys get", "Artist": "Rick Ross", "Country": "USA", "Title": "All I Have in This World", "Longitude": "-80.269920", "County": "Miami-Dade", "State": "Florida", "Latitude": "25.942121", "Type": "Solo M", "Release date": "2008-03-11"},{"Album": "Killa Season", "City": "Harlem", "Lyrics": "need a dollar, holla at the team\r\nChicken, cornbread, collared on your greens\r\nMansions, cars, Prada", "Artist": "Camron", "Country": "USA", "Title": "Do Ya Thing (Remix)", "Longitude": "-73.944862", "County": "Manhattan", "State": "New York", "Latitude": "40.806198", "Type": "Solo M", "Release date": "2006-05-16"},{"Album": "Record Single", "City": "Detroit", "Lyrics": "across the highway\r\nPlaying Chicken, while brains splatter all over the road like\r\n\"ricken, ricken", "Artist": "Eminem", "Country": "USA", "Title": "1999", "Longitude": "-83.045833", "County": "Wayne", "State": "Michigan", "Latitude": "42.331389", "Type": "Solo M", "Release date": null},{"Album": "Back to the L.A.B. (Lyrical Ass Beating)", "City": "South Bronx", "Lyrics": "kitchen\r\nI got that fish, wheat, bread and chicken, y'all leave limping\r\nI put out more cartoons than", "Artist": "KRS-ONE", "Country": "USA", "Title": "Omni Hood", "Longitude": "-73.91735", "County": "The Bronx", "State": "New York", "Latitude": "40.81621", "Type": "Solo M", "Release date": "2010-01-01"},{"Album": "Street's Disciple", "City": "Queensbridge", "Lyrics": "Won't pluck no chicken wing, don't fuck with just anything\r\nGotta come up, run up and get touched up", "Artist": "Nas", "Country": "USA", "Title": "You Know My Style", "Longitude": "-73.937622", "County": "Queens", "State": "New York", "Latitude": "40.756279", "Type": "Solo M", "Release date": "2005-01-01"},{"Album": "Pink Friday: Roman Reloaded", "City": "Jamaica", "Lyrics": "put the pressure to every thug I knew\r\nQuack quack to a duck and a chicken too\r\nPut the hyena", "Artist": "Nicki Minaj", "Country": "USA", "Title": "Roman Holiday", "Longitude": "-73.80842", "County": "Queens", "State": "New York", "Latitude": "40.701782", "Type": "Solo F", "Release date": "2012-01-01"},{"Album": "She Got Game", "City": "Wilson", "Lyrics": "chicken in me I\u00e2\u20ac\u2122m fearin\u00e2\u20ac\u2122 none of these robots\r\nI\u00e2\u20ac\u2122m in the class with these Big Willie niggas", "Artist": "Rapsody", "Country": "USA", "Title": "Facts Only", "Longitude": "-77.923611", "County": "Wilson", "State": "North Carolina", "Latitude": "35.731111", "Type": "Solo F", "Release date": "2013-09-17"},{"Album": "God Forgives, I Don't", "City": "Carol City", "Lyrics": "of diamonds, so I gotta stay tonight50 cash in the Louis for the chicken wingsStarted", "Artist": "Rick Ross", "Country": "USA", "Title": "I Love My Bitches", "Longitude": "-80.269920", "County": "Miami-Dade", "State": "Florida", "Latitude": "25.942121", "Type": "Solo M", "Release date": "2012-07-30"},{"Album": "Mr. Smith", "City": "Queens", "Lyrics": "when you're lyrical\r\nOff some LL shit, chickens get hysterical\r\nCos I..... form like Voltron\r\nLet's", "Artist": "LL Cool J", "Country": "USA", "Title": "God Bless", "Longitude": "-73.829959", "County": "Queens", "State": "New York", "Latitude": "40.713985", "Type": "Solo M", "Release date": "1995-11-21"},{"Album": "DJ Mustard - 4 Hunnid Degreez (Mixtape)", "City": "Compton", "Lyrics": "the homie bitch, nigga three no's\r\nNo [x5]\r\nOn the set I'm a need those\r\nMamma chicken good like", "Artist": "YG", "Country": "USA", "Title": "Keenon Jackson", "Longitude": "-118.224329", "County": "Los Angeles", "State": "California", "Latitude": "33.895285", "Type": "Solo M", "Release date": "1994-09-13"},{"Album": "Record Single", "City": "Bedford\u2013Stuyvesant", "Lyrics": "young brothers be broke\r\nI just be fixin' your wife\r\nFrench kissin' wicked linguistic chickens got my", "Artist": "Joey BADA$$", "Country": "USA", "Title": "Aim High", "Longitude": "-73.963796", "County": "Kings", "State": "New York", "Latitude": "40.692385", "Type": "Solo M", "Release date": null},{"Album": "Overly Dedicated", "City": "Compton", "Lyrics": "these chickens want that rooster, call it Big Cock\r\nCo-co-co-cock that, aim and shoot that sure shot\r\nU", "Artist": "Kendrick Lamar", "Country": "USA", "Title": "I Do This (Remix)", "Longitude": "-118.224329", "County": "Los Angeles", "State": "California", "Latitude": "33.895285", "Type": "Solo M", "Release date": "2010-01-01"},{"Album": "More Fish", "City": "Staten Island", "Lyrics": "chicken and mint tea\r\nRice wine had me wanting to pee\r\nSaid excuse me I'll be right back, pardon me", "Artist": "Ghostface Killah", "Country": "USA", "Title": "Alex (Stolen Script)", "Longitude": "-74.144839", "County": "Richmond", "State": "New York", "Latitude": "40.576281", "Type": "Solo M", "Release date": "2006-01-01"},{"Album": "Record Single", "City": "Staten Island", "Lyrics": "Just that the baby's kicking, I want some Popeye chicken\r\nAnd my back kinda hurt from the way I", "Artist": "Ghostface Killah", "Country": "USA", "Title": "Baby (Ft. Raheem DeVaughn) prod. by Austin Garrick & Rashad Smith", "Longitude": "-74.144839", "County": "Richmond", "State": "New York", "Latitude": "40.576281", "Type": "Solo M", "Release date": null},{"Album": "Supreme Clientele", "City": "Staten Island", "Lyrics": "flashed his badge\r\n\"License and registrations\"\r\nAt that moment\r\nHis fat partner started chasin'\r\nChicken", "Artist": "Ghostface Killah", "Country": "USA", "Title": "The Grain", "Longitude": "-74.144839", "County": "Richmond", "State": "New York", "Latitude": "40.576281", "Type": "Solo M", "Release date": "2000-02-08"},{"Album": "Tupac: Resurrection (soundtrack)", "City": "Marin City", "Lyrics": "chicken\r\nOops don't get the grease on your pantyhose\r\nI love ya Rover, move over, I gotta blow my nose", "Artist": "2Pac", "Country": "USA", "Title": "Digital UndergroundSame Song", "Longitude": "-122.516579", "County": "Marin", "State": "California", "Latitude": "37.87199", "Type": "Solo M", "Release date": "2003-11-11"},{"Album": "Young Head Nigga In Charge", "City": "Compton", "Lyrics": ", everything for cheap\r\nThese chickens tryin to plot on a boy\r\nSo a nigga gotta move kinda low\r\n(Low what", "Artist": "Kendrick Lamar", "Country": "USA", "Title": "Put That On Something", "Longitude": "-118.224329", "County": "Los Angeles", "State": "California", "Latitude": "33.895285", "Type": "Solo M", "Release date": "2003-01-01"},{"Album": "Trouble Man: Heavy Is the Head", "City": "Atlanta", "Lyrics": "in, chicken flipping, pistol gripping roll out\r\nMusic do that shit so good cause that's the shit I know", "Artist": "T.I.", "Country": "USA", "Title": "Like That", "Longitude": "-84.41918", "County": "Fulton", "State": "Georgia", "Latitude": "33.77155", "Type": "Solo M", "Release date": "2012-12-18"},{"Album": "Brake Lights", "City": "Compton", "Lyrics": "tell you what it costs\r\nHow the fuck you gon' get a chicken off\r\n\r\n[Hook]\r\nI keep three heats on me", "Artist": "Game", "Country": "USA", "Title": "MIA (3 Heats)", "Longitude": "-118.224329", "County": "Los Angeles", "State": "California", "Latitude": "33.895285", "Type": "Solo M", "Release date": "2010-08-03"},{"Album": "Doctor's Advocate", "City": "Compton", "Lyrics": "[Hook] - 2X\r\n\r\n[The Game]\r\nWelcome to the city of G's\r\nWhere we eat fried chicken, rice, and black", "Artist": "Game", "Country": "USA", "Title": "Compton", "Longitude": "-118.224329", "County": "Los Angeles", "State": "California", "Latitude": "33.895285", "Type": "Solo M", "Release date": "2006-11-14"},{"Album": "Dedication 3", "City": "New Orleans", "Lyrics": "with a slow leak bitch\r\nAnd then we eat some chicken, You get no piece bitch\r\nStunna man said kill", "Artist": "Lil Wayne", "Country": "USA", "Title": "I Put on For The Game", "Longitude": "-90.077714", "County": "Orleans", "State": "Louisiana", "Latitude": "29.95369", "Type": "Solo M", "Release date": "2008-11-14"},{"Album": "Self Made Vol.1", "City": "Carol City", "Lyrics": "Ground basing jumping over cars they Blake Griffin\r\nGot my chickens in the gym, Yup, they weight", "Artist": "Rick Ross", "Country": "USA", "Title": "PillPacman", "Longitude": "-80.269920", "County": "Miami-Dade", "State": "Florida", "Latitude": "25.942121", "Type": "Solo M", "Release date": "2011-05-23"},{"Album": "Malice N Wonderland", "City": "Long Beach", "Lyrics": "Cameras goin off all the chickens want hugs\r\nAnd when I'm on the bill I fa'sho' fill the club", "Artist": "Snoop Dogg", "Country": "USA", "Title": "1800", "Longitude": "-118.195556", "County": "Los Angeles", "State": "California", "Latitude": "33.768333", "Type": "Solo M", "Release date": "2009-12-08"},{"Album": "Playtime is Over (Mixtape)", "City": "Jamaica", "Lyrics": "with her charm my wings on my arm Now we flying over chicken heads shittin on ya farmLike sittin on ya", "Artist": "Nicki Minaj", "Country": "USA", "Title": "Sunshine", "Longitude": "-73.80842", "County": "Queens", "State": "New York", "Latitude": "40.701782", "Type": "Solo F", "Release date": "2007-01-01"},{"Album": "Playtime is Over (Mixtape)", "City": "Jamaica", "Lyrics": "York\r\nAnd I feed 'em curry chicken, I'm all about my green nahmean?\r\nGot some fat bitches", "Artist": "Nicki Minaj", "Country": "USA", "Title": "Warning", "Longitude": "-73.80842", "County": "Queens", "State": "New York", "Latitude": "40.701782", "Type": "Solo F", "Release date": "2007-01-01"},{"Album": "Record Single", "City": "Brooklyn", "Lyrics": "two chickens\r\nYou get it, you know, two chickens? But listen\r\n[Beans] What?\r\n[MDKHN] Just tell me", "Artist": "Jay Z", "Country": "USA", "Title": "1-900-Hustler (Ft. Beanie Sigel, Freeway & Memphis Bleek) prod. by Bink!", "Longitude": "-73.989872", "County": "Kings", "State": "New York", "Latitude": "40.692385", "Type": "Solo M", "Release date": null},{"Album": "Record Single", "City": "Wyandanch", "Lyrics": "in your areas\r\nYo its funny how all the chickens be always serving us\r\nAll up in between they ass", "Artist": "Rakim", "Country": "USA", "Title": "Brooklyn's Business", "Longitude": "-73.357999", "County": "Suffolk", "State": "New York", "Latitude": "40.75986", "Type": "Solo M", "Release date": null},{"Album": "The 48 Hunnid Project", "City": "Detroit", "Lyrics": "chickens, all white across the market\r\nShit, these niggas foul they would leave their kids\r\nJust to get", "Artist": "DeJ Loaf", "Country": "USA", "Title": "All Said And Done", "Longitude": "-83.045833", "County": "Wayne", "State": "Michigan", "Latitude": "42.331389", "Type": "Solo F", "Release date": "2015-09-07"},{"Album": "Crime Pays", "City": "Harlem", "Lyrics": "walt, walt who disseney\r\n\r\nYeah disseney, coke cakes, pot pies\r\nNo chicken in it cuco pollo be on fa", "Artist": "Camron", "Country": "USA", "Title": "Never Ever", "Longitude": "-73.944862", "County": "Manhattan", "State": "New York", "Latitude": "40.806198", "Type": "Solo M", "Release date": "2009-05-12"},{"Album": "Killa Season", "City": "Harlem", "Lyrics": "on tape, flipping a quarter chicken (not me!)\r\nNah...that Persian-white, murder-type fur was right", "Artist": "Camron", "Country": "USA", "Title": "Living A Lie", "Longitude": "-73.944862", "County": "Manhattan", "State": "New York", "Latitude": "40.806198", "Type": "Solo M", "Release date": "2006-05-16"},{"Album": "more gunz less butta", "City": "Harlem", "Lyrics": ", let's do it!\r\n\r\n[ALL Verses Cam'ron]\r\n\r\nI do what I do but boo won't get a chicken dinner\r\nUnless", "Artist": "Camron", "Country": "USA", "Title": "You know this", "Longitude": "-73.944862", "County": "Manhattan", "State": "New York", "Latitude": "40.806198", "Type": "Solo M", "Release date": "2012-06-05"},{"Album": "F.B.G.: The Movie (French Version)", "City": "Atlanta", "Lyrics": "' to feel contractions\r\nAnd my cousin went to jail for them chickens\r\nAnd he already home", "Artist": "Future", "Country": "USA", "Title": "Karate Chop (Remix) (French Version)", "Longitude": "-84.41918", "County": "Fulton", "State": "Georgia", "Latitude": "33.77155", "Type": "Solo M", "Release date": "2013-01-01"},{"Album": "Ghostdini: Wizard of Poetry in Emerald City", "City": "Staten Island", "Lyrics": "I'm OK, babe, how you? I'm alright\r\nJust that the baby's kicking, I want some Popeye chicken\r\nAnd my", "Artist": "Ghostface Killah", "Country": "USA", "Title": "Baby", "Longitude": "-74.144839", "County": "Richmond", "State": "New York", "Latitude": "40.576281", "Type": "Solo M", "Release date": "2009-09-29"},{"Album": "Attack of the Attacking Things", "City": "Brooklyn", "Lyrics": "Hustle on the side for chump change\r\nIt's not big time\r\nI only do it for fries, chicken and wine", "Artist": "Jean Grae", "Country": "USA", "Title": "No Doubt", "Longitude": "-73.989872", "County": "Kings", "State": "New York", "Latitude": "40.692385", "Type": "Solo F", "Release date": "2002-01-01"},{"Album": "Eardrum", "City": "Park Slope", "Lyrics": "always good\r\nI can get some chicken now, thinking couldn't when I could, son\r\nI live above the rim", "Artist": "Talib Kweli", "Country": "USA", "Title": "More or Less", "Longitude": "-73.977063", "County": "Kings", "State": "New York", "Latitude": "40.672404", "Type": "Solo M", "Release date": "2007-08-21"},{"Album": "Jesus Piece", "City": "Compton", "Lyrics": "full of sinners\r\nWith the sun ride service, now they back for the dinners\r\nYeah I know the chicken", "Artist": "Game", "Country": "USA", "Title": "Hallelujah", "Longitude": "-118.224329", "County": "Los Angeles", "State": "California", "Latitude": "33.895285", "Type": "Solo M", "Release date": "2012-12-11"},{"Album": "Married to the Game", "City": "East Oakland", "Lyrics": "these hoes want chicken feed\r\nAin't none of these hoes worth 50 cents, so break these ladies all you", "Artist": "Too Short", "Country": "USA", "Title": "Hobo Hoeing", "Longitude": "-122.2591", "County": "Oakland", "State": "California", "Latitude": "37.8039", "Type": "Solo M", "Release date": "2003-11-04"},{"Album": "Record Single", "City": "Compton", "Lyrics": ", next to that Church's Chicken\r\nAll you pussies is losers, all my niggas is winners, screaming", "Artist": "Kendrick Lamar", "Country": "USA", "Title": "Backseat Freestyle prod. by Hit-Boy", "Longitude": "-118.224329", "County": "Los Angeles", "State": "California", "Latitude": "33.895285", "Type": "Solo M", "Release date": null},{"Album": "Record Single", "City": "Carol City", "Lyrics": "to this shit and she could never be Nic\r\nNiggas be fallin' in love with this pussy\r\nMean stew chicken", "Artist": "Rick Ross", "Country": "USA", "Title": "I Wanna Be With You (DJ Khaled) (Ft. Future & Nicki Minaj) prod. by Lee On The Beats", "Longitude": "-80.269920", "County": "Miami-Dade", "State": "Florida", "Latitude": "25.942121", "Type": "Solo M", "Release date": null},{"Album": "Nastradamus", "City": "Queensbridge", "Lyrics": ", phonin lonely homey chickens\r\nAll the homies stick em, you think you own em man listen\r\nShe stab you", "Artist": "Nas", "Country": "USA", "Title": "Some of Us Have Angels", "Longitude": "-73.937622", "County": "Queens", "State": "New York", "Latitude": "40.756279", "Type": "Solo M", "Release date": "1999-11-23"},{"Album": "The Lost Tapes", "City": "Queensbridge", "Lyrics": "sniffing, tapping 13 year old chickens\r\nYou can't be a kingpin when you snitching\r\nRegardless, we still", "Artist": "Nas", "Country": "USA", "Title": "U Gotta Love It", "Longitude": "-73.937622", "County": "Queens", "State": "New York", "Latitude": "40.756279", "Type": "Solo M", "Release date": "2007-01-01"},{"Album": "Sucka Free (Mixtape)", "City": "Jamaica", "Lyrics": "got me with her charm my wings on my arms\r\nNow we flying over chicken heads shitting on ya farm\r\nLike", "Artist": "Nicki Minaj", "Country": "USA", "Title": "Sunshine", "Longitude": "-73.80842", "County": "Queens", "State": "New York", "Latitude": "40.701782", "Type": "Solo F", "Release date": "2008-01-01"},{"Album": "Tha Carter III", "City": "New Orleans", "Lyrics": "the roof, so the coupe don't melt\r\nMan, theflow so cold chicken soup won't help\r\nWe need fo' mo' hoes", "Artist": "Lil Wayne", "Country": "USA", "Title": "Lollipop (Remix)", "Longitude": "-90.077714", "County": "Orleans", "State": "Louisiana", "Latitude": "29.95369", "Type": "Solo M", "Release date": "2008-01-01"},{"Album": "Todd smith", "City": "Queens", "Lyrics": "finally\r\n(Ain't no moves to be made) Too many games get played\r\n(Too many chickens gettin laid", "Artist": "LL Cool J", "Country": "USA", "Title": "Preserve the Sexy", "Longitude": "-73.829959", "County": "Queens", "State": "New York", "Latitude": "40.713985", "Type": "Solo M", "Release date": "2006-01-01"},{"Album": "Record Single", "City": "Philadelphia", "Lyrics": "a little piece\r\nWith a drum on that bitch no chicken all beef\r\nFor you fuck ass rappers that be talking", "Artist": "Meek Mill", "Country": "USA", "Title": "0 to 100 Remix", "Longitude": "-75.166667", "County": "Philadelphia", "State": "Pennsylvania", "Latitude": "39.95", "Type": "Solo M", "Release date": null},{"Album": "MF Doom and MF Grimm", "City": "Roosevelt", "Lyrics": "And to the chickens only hoes who say \u00e2\u20ac\u0153let me hold em\"\r\nTake him in they mouth while he semi swollen", "Artist": "MF DOOM", "Country": "USA", "Title": "Impostas", "Longitude": "-73.585556", "County": "Nassau", "State": "New York", "Latitude": "40.679167", "Type": "Solo M", "Release date": "2000-11-28"},{"Album": "Miss E ...So Addictive", "City": "Portsmouth", "Lyrics": ", but they chicken ran\r\nOh Shit, It's gettin kinda hot in here\r\nOh Shit, Make niggas stop and stare", "Artist": "Missy Elliott", "Country": "USA", "Title": "Slap! Slap! Slap!", "Longitude": "-76.297715", "County": "Portsmouth", "State": "Virginia", "Latitude": "36.832642", "Type": "Solo F", "Release date": "2001-04-26"},{"Album": "Too $hort & Friends: I \u00c3\u00a2\u00e2\u201e\u00a2\u00c2\u00a5 the Bay", "City": "East Oakland", "Lyrics": "' (UHHH)\r\nDrugs, fetti and sex\r\nChicken one day, fed goods the next (UHHH~!)\r\nI got a cold", "Artist": "Too Short", "Country": "USA", "Title": "This My One", "Longitude": "-122.2591", "County": "Oakland", "State": "California", "Latitude": "37.8039", "Type": "Solo M", "Release date": "2007-07-10"},{"Album": "Diamond Princess", "City": "Miami", "Lyrics": "chickens don't know me well\r\nI'm not impressed witcha Findi purses and ponytails\r\nAlways surface with your", "Artist": "Trina", "Country": "USA", "Title": "100%", "Longitude": "-80.237419", "County": "Miami-Dade", "State": "Florida", "Latitude": "25.728985", "Type": "Solo F", "Release date": "2002-01-01"},{"Album": "Summer Knights", "City": "Bedford\u2013Stuyvesant", "Lyrics": "Ls, but lust don't count\r\nThese chickens don't love me, they love the account\r\nBut they will never", "Artist": "Joey BADA$$", "Country": "USA", "Title": "Word Is Bond", "Longitude": "-73.963796", "County": "Kings", "State": "New York", "Latitude": "40.692385", "Type": "Solo M", "Release date": "2013-01-01"},{"Album": "Late Registration", "City": "Chicago", "Lyrics": "You fixed me up something that was good for my soul\r\nFamous homemade chicken soup, can I have", "Artist": "Kanye West", "Country": "USA", "Title": "Hey Mama", "Longitude": "-87.632409", "County": "Cook", "State": "Illinois", "Latitude": "41.88415", "Type": "Solo M", "Release date": "2005-01-01"},{"Album": "good kid, m.A.A.d city", "City": "Compton", "Lyrics": "to that Church's Chicken\r\nAll you pussies is losers, all my niggas is winners, screaming\r\n\r\n[Hook]\r\n\r\n[Bridge", "Artist": "Kendrick Lamar", "Country": "USA", "Title": "Backseat Freestyle", "Longitude": "-118.224329", "County": "Los Angeles", "State": "California", "Latitude": "33.895285", "Type": "Solo M", "Release date": "2012-10-22"},{"Album": "Record Single", "City": "Atlanta", "Lyrics": "to this shit and she could never be Nic\r\nNiggas be fallin' in love with this pussy\r\nMean stew chicken", "Artist": "Future", "Country": "USA", "Title": "I Wanna Be With You (DJ Khaled) (Ft. Nicki Minaj & Rick Ross) prod. by Lee On The Beats", "Longitude": "-84.41918", "County": "Fulton", "State": "Georgia", "Latitude": "33.77155", "Type": "Solo M", "Release date": null},{"Album": "Record Single", "City": "Staten Island", "Lyrics": "the veggie rolls, sesame chicken and mint tea\r\nRice wine had me wanting to pee\r\nSaid excuse me I'll be right", "Artist": "Ghostface Killah", "Country": "USA", "Title": "Alex (Stolen Script) prod. by MF Doom", "Longitude": "-74.144839", "County": "Richmond", "State": "New York", "Latitude": "40.576281", "Type": "Solo M", "Release date": null},{"Album": "Record Single", "City": "Staten Island", "Lyrics": "in the corner not speakin'\r\nCrushed out heavenly, U.G. rock the sweet daddy long fox minks\r\nChicken", "Artist": "Ghostface Killah", "Country": "USA", "Title": "Apollo Kids (Ft. Raekwon) prod. by Hassan", "Longitude": "-74.144839", "County": "Richmond", "State": "New York", "Latitude": "40.576281", "Type": "Solo M", "Release date": null},{"Album": "The Dreamer, The Believer", "City": "Chicago", "Lyrics": "it\r\nBaby in one arm, the other is a skillet\r\nFried chicken, macaroni, raised on the back of Stony", "Artist": "Common", "Country": "USA", "Title": "Ghetto Dreams", "Longitude": "-87.632409", "County": "Cook", "State": "Illinois", "Latitude": "41.88415", "Type": "Solo M", "Release date": "2011-12-20"},{"Album": "Sell Sole", "City": "Detroit", "Lyrics": "to stop me, I go crazy, I get to clicking and dumping\r\nI probably leave a nigga boiling like chickens", "Artist": "DeJ Loaf", "Country": "USA", "Title": "I Got It", "Longitude": "-83.045833", "County": "Wayne", "State": "Michigan", "Latitude": "42.331389", "Type": "Solo F", "Release date": "2014-10-01"},{"Album": "500 Degreez", "City": "New Orleans", "Lyrics": "and shrimps\r\nKool-Aid and chicken\r\nFlashy things and women\r\nAll I need\r\nIs Remy and weed\r\nSomebody", "Artist": "Lil Wayne", "Country": "USA", "Title": "Gangstas and Pimps", "Longitude": "-90.077714", "County": "Orleans", "State": "Louisiana", "Latitude": "29.95369", "Type": "Solo M", "Release date": "2002-01-01"},{"Album": "Dedication 3", "City": "New Orleans", "Lyrics": "bitch\r\nMy goons is gone ride even with a slow leak bitch\r\nAnd thinkin we some chicken, You get", "Artist": "Lil Wayne", "Country": "USA", "Title": "Put on For the Game", "Longitude": "-90.077714", "County": "Orleans", "State": "Louisiana", "Latitude": "29.95369", "Type": "Solo M", "Release date": "2008-11-14"},{"Album": "DJ Rude Presents: Nas - The Found Tapes", "City": "Queensbridge", "Lyrics": "of chickens that claim we fucked 'em\r\n[N] Bet some badda hoes than them other funky rappers chose\r\n[N", "Artist": "Nas", "Country": "USA", "Title": "The Essence (Unreleased version)", "Longitude": "-73.937622", "County": "Queens", "State": "New York", "Latitude": "40.756279", "Type": "Solo M", "Release date": "2011-01-01"},{"Album": "Record Single", "City": "Staten Island", "Lyrics": "Chicken and broccoli, Wally's look stink\r\nHe with his man straight from Raleigh Durham, he recognized", "Artist": "Raekwon", "Country": "USA", "Title": "Apollo Kids (Ghostface Killah) prod. by Hassan", "Longitude": "-74.144839", "County": "Richmond", "State": "New York", "Latitude": "40.576281", "Type": "Solo M", "Release date": null},{"Album": "Ashes to Ashes", "City": "Carol City", "Lyrics": "\u20ac\u2122 thinking I'm trickin\u00e2\u20ac\u2122 chicken\r\nI\u00e2\u20ac\u2122m simply fUckin\u00e2\u20ac\u2122 with bitches that know they whole position", "Artist": "Rick Ross", "Country": "USA", "Title": "Play Your Part", "Longitude": "-80.269920", "County": "Miami-Dade", "State": "Florida", "Latitude": "25.942121", "Type": "Solo M", "Release date": "2010-12-24"},{"Album": "Deeper Than Rap", "City": "Carol City", "Lyrics": "Audemar\r\nSellin' dope ain't right, I put it on my life\r\nChickens put me in position to donate the rice\r\n\r\n[Hook]", "Artist": "Rick Ross", "Country": "USA", "Title": "Rich Off Cocaine", "Longitude": "-80.269920", "County": "Miami-Dade", "State": "Florida", "Latitude": "25.942121", "Type": "Solo M", "Release date": "2009-01-01"},{"Album": "Trilla", "City": "Carol City", "Lyrics": "standin up girl it's hard to get downGot them chickens in the trap so I hardly sit downSo now them", "Artist": "Rick Ross", "Country": "USA", "Title": "Way Mo", "Longitude": "-80.269920", "County": "Miami-Dade", "State": "Florida", "Latitude": "25.942121", "Type": "Solo M", "Release date": "2008-03-11"},{"Album": "Paid Tha Cost to be Da Bo$$", "City": "Long Beach", "Lyrics": "]\r\nMayre Gators, maylike boots\r\nSeven piece custom made suits\r\nHats to match, counting my chicken stratch", "Artist": "Snoop Dogg", "Country": "USA", "Title": "Suited N Booted", "Longitude": "-118.195556", "County": "Los Angeles", "State": "California", "Latitude": "33.768333", "Type": "Solo M", "Release date": "2002-11-26"},{"Album": "Todd smith", "City": "Queens", "Lyrics": ")\r\n{Who you hit?} (everything from the chickens to the stars)\r\n{Who you with?} (you rocking", "Artist": "LL Cool J", "Country": "USA", "Title": "What You Want", "Longitude": "-73.829959", "County": "Queens", "State": "New York", "Latitude": "40.713985", "Type": "Solo M", "Release date": "2006-01-01"},{"Album": "I Love the Bay (Compilation)", "City": "East Oakland", "Lyrics": "' (UHHH)\r\nDrugs, fetti and sex\r\nChicken one day, fed goods the next (UHHH~!)\r\nI got a cold", "Artist": "Too Short", "Country": "USA", "Title": "This My One", "Longitude": "-122.2591", "County": "Oakland", "State": "California", "Latitude": "37.8039", "Type": "Solo M", "Release date": "1997-07-17"},{"Album": "White Christmas", "City": "Crown Heights", "Lyrics": "for my chicken nigga\r\nGlitch buttered bitch, bacon split a kitchen with er\r\nI love me a chef, you just", "Artist": "Troy Ave", "Country": "USA", "Title": "All Birds (Keymix)", "Longitude": "-73.944722", "County": "Kings", "State": "New York", "Latitude": "40.663056", "Type": "Solo M", "Release date": "2012-12-25"},{"Album": "Diplomats Volume 5", "City": "Harlem", "Lyrics": "And standing on the stoop\r\n\r\nThis don't move me money\r\nThis chicken wing, new kick, cab fare and movie money", "Artist": "Camron", "Country": "USA", "Title": "To The Top", "Longitude": "-73.944862", "County": "Manhattan", "State": "New York", "Latitude": "40.806198", "Type": "Solo M", "Release date": "2003-01-01"},{"Album": "Son Of A Gun", "City": "The Bronx", "Lyrics": "call style\r\nCall pigs, you a chicken, put the Glock on the cow\r\nPaper describes, you ain't got", "Artist": "Cory Gunz", "Country": "USA", "Title": "Y'all Ain't Got Nothin On Me", "Longitude": "-73.886", "County": "The Bronx", "State": "New York", "Latitude": " 40.8373", "Type": "Solo M", "Release date": "2011-07-06"},{"Album": "The Dynasty: Roc La Familia", "City": "Brooklyn", "Lyrics": "gettin plucked in the truck from loose chickens, listen\r\n\r\n[Hook]\r\n\r\n[Memphis Bleek]\r\nYo, aiyyo I dip", "Artist": "Jay Z", "Country": "USA", "Title": "Parking Lot Pimpin'", "Longitude": "-73.989872", "County": "Kings", "State": "New York", "Latitude": "40.692385", "Type": "Solo M", "Release date": "2000-01-01"},{"Album": "Ghostdini: Wizard of Poetry in Emerald City", "City": "Staten Island", "Lyrics": "on them bitches, never ice they arm\r\nThat's a no-no, chicken heads looking for a come up\r\nIn the club", "Artist": "Ghostface Killah", "Country": "USA", "Title": "Not Your Average Girl", "Longitude": "-74.144839", "County": "Richmond", "State": "New York", "Latitude": "40.576281", "Type": "Solo M", "Release date": "2009-09-29"},{"Album": "Supreme Clientele", "City": "Staten Island", "Lyrics": "'\r\nCrushed out heavenly, U.G. rock the sweet daddy long fox minks\r\nChicken and broccoli, Wally's look stink", "Artist": "Ghostface Killah", "Country": "USA", "Title": "Apollo Kids", "Longitude": "-74.144839", "County": "Richmond", "State": "New York", "Latitude": "40.576281", "Type": "Solo M", "Release date": "2000-02-08"},{"Album": "Eardrum", "City": "Park Slope", "Lyrics": "The game is your Tender Viddlesto get the bruce to say the sky's fallin\r\nLike you Chicken Little, come on\r\n\r\n[Refrain]", "Artist": "Talib Kweli", "Country": "USA", "Title": "Soon the New Day", "Longitude": "-73.977063", "County": "Kings", "State": "New York", "Latitude": "40.672404", "Type": "Solo M", "Release date": "2007-08-21"},{"Album": "LAX", "City": "Compton", "Lyrics": "liquor\r\nCali chickens go to the Ada strip and come back a little thicker\r\nWith more ass than Delicious", "Artist": "Game", "Country": "USA", "Title": "Cali Sunshine", "Longitude": "-118.224329", "County": "Los Angeles", "State": "California", "Latitude": "33.895285", "Type": "Solo M", "Release date": "2008-01-01"},{"Album": "Stop Snitchin, Stop Lyin", "City": "Compton", "Lyrics": "]\r\n\r\n[Verse 2]\r\n50 what happened to ya movie, the soundtracks\r\nChicken Little killed you niggas", "Artist": "Game", "Country": "USA", "Title": "All I Need", "Longitude": "-118.224329", "County": "Los Angeles", "State": "California", "Latitude": "33.895285", "Type": "Solo M", "Release date": "2005-01-01"},{"Album": "Ashes to Ashes", "City": "Carol City", "Lyrics": "dudes\r\nI see my niggas scramble chickens by the twos\r\nHe talking like a ho and valeting the Benz\r\nShe", "Artist": "Rick Ross", "Country": "USA", "Title": "Even Deeper", "Longitude": "-80.269920", "County": "Miami-Dade", "State": "Florida", "Latitude": "25.942121", "Type": "Solo M", "Release date": "2010-12-24"},{"Album": "MM.. Food", "City": "Roosevelt", "Lyrics": "or copped chicken with its mumbo sauce\r\nTyson is a fowl holocaust\r\nHitler gassed your whole head upwith", "Artist": "MF DOOM", "Country": "USA", "Title": "Potholderz", "Longitude": "-73.585556", "County": "Nassau", "State": "New York", "Latitude": "40.679167", "Type": "Solo M", "Release date": "2004-11-16"},{"Album": "Operation: Doomsday", "City": "Roosevelt", "Lyrics": "gold telephone\r\nMany of my men went up in smoke\r\nWhile trickin with these chickens I ended up broke", "Artist": "MF DOOM", "Country": "USA", "Title": "The M.I.C.", "Longitude": "-73.585556", "County": "Nassau", "State": "New York", "Latitude": "40.679167", "Type": "Solo M", "Release date": "1999-01-01"},{"Album": "Record Single", "City": "Roosevelt", "Lyrics": "the veggie rolls, sesame chicken and mint tea\r\nRice wine had me wanting to pee\r\nSaid excuse me I'll", "Artist": "MF DOOM", "Country": "USA", "Title": "Alex (Stolen Script) (Ghostface Killah)", "Longitude": "-73.585556", "County": "Nassau", "State": "New York", "Latitude": "40.679167", "Type": "Solo M", "Release date": null},{"Album": "Any Given Sunday (Soundtrack)", "City": "Queens", "Lyrics": "yo, for the 85 that's in braille\r\nI keep Chanel on my hoes, crazy blowin the scale\r\nMad chickens", "Artist": "LL Cool J", "Country": "USA", "Title": "Capone N NoreagaReunion", "Longitude": "-73.829959", "County": "Queens", "State": "New York", "Latitude": "40.713985", "Type": "Solo M", "Release date": "2000-01-04"},{"Album": "R&G (Rhythm & Gangsta): The Masterpiece", "City": "Long Beach", "Lyrics": "off, yeah homie, I'm the Biz-oss\r\nI got them finger-lickin' chickens wit the siz-auce\r\nAnd one", "Artist": "Snoop Dogg", "Country": "USA", "Title": "Snoop D.O. Double G", "Longitude": "-118.195556", "County": "Los Angeles", "State": "California", "Latitude": "33.768333", "Type": "Solo M", "Release date": "2004-11-16"},{"Album": "Record Single", "City": "Long Beach", "Lyrics": "-dub', I'm higher than a mug\r\nCameras goin off all the chickens want hugs\r\nAnd when I'm on the bill", "Artist": "Snoop Dogg", "Country": "USA", "Title": "1800 (Ft. Lil Jon) prod. by Lil Jon", "Longitude": "-118.195556", "County": "Los Angeles", "State": "California", "Latitude": "33.768333", "Type": "Solo M", "Release date": null},{"Album": "Record Single", "City": "Bedford\u2013Stuyvesant", "Lyrics": "Billboard now, niggas pressed to hit it\r\nPlay me like a chicken\r\nThinkin' I'm pressed to get it\r\nRather", "Artist": "Lil Kim", "Country": "USA", "Title": "Get Money (The Notorious B.I.G.)", "Longitude": "-73.944444", "County": "Kings", "State": "New York", "Latitude": "40.688889", "Type": "Solo F", "Release date": null},{"Album": "Dedication 3", "City": "New Orleans", "Lyrics": "bitch\r\nMy goons is gone ride even with a slow leak bitch\r\nAnd then we eat some chicken, You get", "Artist": "Lil Wayne", "Country": "USA", "Title": "Put On (Remix)", "Longitude": "-90.077714", "County": "Orleans", "State": "Louisiana", "Latitude": "29.95369", "Type": "Solo M", "Release date": "2008-11-14"},{"Album": "Sorry 4 The Wait", "City": "New Orleans", "Lyrics": "got me trippin\u00e2\u20ac\u2122\r\nScoop your chicken up and let her lick me like a lizard\r\nI\u00e2\u20ac\u2122m on South Beach", "Artist": "Lil Wayne", "Country": "USA", "Title": "Throwed Off (Freestyle)", "Longitude": "-90.077714", "County": "Orleans", "State": "Louisiana", "Latitude": "29.95369", "Type": "Solo M", "Release date": "2011-07-13"},{"Album": "I Am", "City": "Compton", "Lyrics": "quarter million dollars off the blow\r\nHe want a nine piece chicken took that to-go\r\nI'mma tell ya like", "Artist": "YG", "Country": "USA", "Title": "Act Right", "Longitude": "-118.224329", "County": "Los Angeles", "State": "California", "Latitude": "33.895285", "Type": "Solo M", "Release date": "2013-01-01"},{"Album": "Killa Season", "City": "Harlem", "Lyrics": "the slut\r\nAm I poking or what? You got to figure, dogg\r\nThe game and a chicken wing, stupid \"figure four", "Artist": "Camron", "Country": "USA", "Title": "We Make Change", "Longitude": "-73.944862", "County": "Manhattan", "State": "New York", "Latitude": "40.806198", "Type": "Solo M", "Release date": "2006-05-16"},{"Album": "More Fish", "City": "Staten Island", "Lyrics": "chicken and mint tea\r\nRice wine had me wanting to pee\r\nSaid excuse me I'll be right back, pardon me", "Artist": "Ghostface Killah", "Country": "USA", "Title": "Alex (Stolen Script)", "Longitude": "-74.144839", "County": "Richmond", "State": "New York", "Latitude": "40.576281", "Type": "Solo M", "Release date": "2006-01-01"},{"Album": "The Come Up Mixtape Vol. 1", "City": "Fayetteville", "Lyrics": "'\r\nAnd just think I was raised on ramen -- chicken noodle soup\r\nNow I'm filet mignon-in'\r\nI promised my", "Artist": "J. Cole", "Country": "USA", "Title": "The Come Up", "Longitude": "-78.878056", "County": "Cumberland", "State": "North Carolina", "Latitude": "35.0525", "Type": "Solo M", "Release date": "2008-05-03"},{"Album": "In My Lifetime, Vol. 1", "City": "Brooklyn", "Lyrics": "]\r\nWas interrupted by this chicken that I used to cluck wit\r\nBack in the days when I was movin much shit", "Artist": "Jay Z", "Country": "USA", "Title": "Wishing on a Star", "Longitude": "-73.989872", "County": "Kings", "State": "New York", "Latitude": "40.692385", "Type": "Solo M", "Release date": "1997-11-04"},{"Album": "The Lost Tapes", "City": "Marin City", "Lyrics": "was catchin' wild things like the chicken pox\r\nI was \"J\" andknockin' boots right down the socks\r\nShe", "Artist": "2Pac", "Country": "USA", "Title": "Minnie the Moocher", "Longitude": "-122.516579", "County": "Marin", "State": "California", "Latitude": "37.87199", "Type": "Solo M", "Release date": "2007-01-01"},{"Album": "Record Single", "City": "Harlem", "Lyrics": "That's a chicken w/ her head off\r\nThat's that bitch that won't be with her\r\nOfficial with that with that whole", "Artist": "Azelia Banks", "Country": "USA", "Title": "ATM Jam", "Longitude": "-73.948372", "County": "Manhattan", "State": "New York", "Latitude": "40.809033", "Type": "Solo F", "Release date": null},{"Album": "Reflection Eternal (Train Of Thought)", "City": "Park Slope", "Lyrics": "Some Kind Of Wonderful\n\r\nWhat's next?These chicken neck MCs get me vexedMy rhymes be blowin' up", "Artist": "Talib Kweli", "Country": "USA", "Title": "Some Kind Of Wonderful", "Longitude": "-73.977063", "County": "Kings", "State": "New York", "Latitude": "40.672404", "Type": "Solo M", "Release date": "2000-10-17"},{"Album": "Watch the Throne", "City": "Chicago", "Lyrics": "]\r\nFuck y'all mad at me for? Y'all don't even know what I've been through\r\nI played chicken with a Mack", "Artist": "Kanye West", "Country": "USA", "Title": "HAM", "Longitude": "-87.632409", "County": "Cook", "State": "Illinois", "Latitude": "41.88415", "Type": "Solo M", "Release date": "2011-08-08"},{"Album": "Overly Dedicated", "City": "Compton", "Lyrics": "veins,take it in vain or itch till your eyeballs pop\r\nI'm cold on the cold turkey\r\nI hate chickens", "Artist": "Kendrick Lamar", "Country": "USA", "Title": "Night of The Living Junkies", "Longitude": "-118.224329", "County": "Los Angeles", "State": "California", "Latitude": "33.895285", "Type": "Solo M", "Release date": "2010-01-01"},{"Album": "Young Head Nigga In Charge", "City": "Compton", "Lyrics": "being tough, but even in them interviews\r\nEvery time you see me got a semi in the tuck\r\nChickens", "Artist": "Kendrick Lamar", "Country": "USA", "Title": "Ride Up", "Longitude": "-118.224329", "County": "Los Angeles", "State": "California", "Latitude": "33.895285", "Type": "Solo M", "Release date": "2003-01-01"},{"Album": "Hip Hop Lives", "City": "South Bronx", "Lyrics": "the lyrics I sing you\r\nI fly through the hood like chicken wings\r\nLike a chef Marley likes mixing things too", "Artist": "KRS-ONE", "Country": "USA", "Title": "House of Hits", "Longitude": "-73.91735", "County": "The Bronx", "State": "New York", "Latitude": "40.81621", "Type": "Solo M", "Release date": "2007-05-22"},{"Album": "Hip Hop is Dead", "City": "Queensbridge", "Lyrics": "Nas rap is compared to legitimized crap\r\nCause we love to talk on nasty chickens\r\nMost intellectuals", "Artist": "Nas", "Country": "USA", "Title": "Hip Hop is Dead", "Longitude": "-73.937622", "County": "Queens", "State": "New York", "Latitude": "40.756279", "Type": "Solo M", "Release date": "2006-12-15"},{"Album": "Record Single", "City": "Jamaica", "Lyrics": "to this shit and she could never be Nic\r\nNiggas be fallin' in love with this pussy\r\nMean stew chicken, and bake", "Artist": "Nicki Minaj", "Country": "USA", "Title": "I Wanna Be With You (DJ Khaled) (Ft. Future & Rick Ross) prod. by Lee On The Beats", "Longitude": "-73.80842", "County": "Queens", "State": "New York", "Latitude": "40.701782", "Type": "Solo F", "Release date": null},{"Album": "Unexpected Victory", "City": "Staten Island", "Lyrics": "Courvoisier exclusive\r\nKill off the snitches, fuck all fly bitches\r\nJump in the coupe, let your chicken", "Artist": "Raekwon", "Country": "USA", "Title": "Just a Toast", "Longitude": "-74.144839", "County": "Richmond", "State": "New York", "Latitude": "40.576281", "Type": "Solo M", "Release date": "2012-01-01"},{"Album": "Self Made Vol.1", "City": "Carol City", "Lyrics": "\u20ac\u2122 thinking I'm trickin\u00e2\u20ac\u2122 chicken\r\nI\u00e2\u20ac\u2122m simply fUckin\u00e2\u20ac\u2122 with bitches that know they whole position", "Artist": "Rick Ross", "Country": "USA", "Title": "Play Your Part", "Longitude": "-80.269920", "County": "Miami-Dade", "State": "Florida", "Latitude": "25.942121", "Type": "Solo M", "Release date": "2011-05-23"},{"Album": "Tha Carter", "City": "New Orleans", "Lyrics": "Middle class, upper class, high class all that\r\nCats, snakes, chickens, ducks, elderly people", "Artist": "Lil Wayne", "Country": "USA", "Title": "Bring It Back", "Longitude": "-90.077714", "County": "Orleans", "State": "Louisiana", "Latitude": "29.95369", "Type": "Solo M", "Release date": "2002-07-23"},{"Album": "Walking With a Panther", "City": "Queens", "Lyrics": "} and the money and the mic and I'm straight\r\nGo to a resteraunt, give me steak\r\nThen cook my chicken", "Artist": "LL Cool J", "Country": "USA", "Title": "1-900-LL Cool J", "Longitude": "-73.829959", "County": "Queens", "State": "New York", "Latitude": "40.713985", "Type": "Solo M", "Release date": "1989-01-01"},{"Album": "More Fish", "City": "Roosevelt", "Lyrics": "chicken and mint tea\r\nRice wine had me wanting to pee\r\nSaid excuse me I'll be right back, pardon me", "Artist": "MF DOOM", "Country": "USA", "Title": "Alex (Stolen Script)", "Longitude": "-73.585556", "County": "Nassau", "State": "New York", "Latitude": "40.679167", "Type": "Solo M", "Release date": "2006-01-01"},{"Album": "Diamond Princess", "City": "Miami", "Lyrics": "chickens don't know me well\r\nI'm not impressed witcha Findi purses and ponytails\r\nAlways surface", "Artist": "Trina", "Country": "USA", "Title": "100%", "Longitude": "-80.237419", "County": "Miami-Dade", "State": "Florida", "Latitude": "25.728985", "Type": "Solo F", "Release date": "2002-01-01"},{"Album": "Record Single", "City": "Crown Heights", "Lyrics": "for my chicken nigga\r\nGlitch buttered bitch, bacon split a kitchen with er\r\nI love me a chef, you just", "Artist": "Troy Ave", "Country": "USA", "Title": "All Birds (Keymix)", "Longitude": "-73.944722", "County": "Kings", "State": "New York", "Latitude": "40.663056", "Type": "Solo M", "Release date": null},{"Album": "Record Single", "City": "Atlanta", "Lyrics": "play dead, my nigga\r\nAnd if you lookin' for me I'll be on these bitches mind\r\nThese niggas chicken", "Artist": "T.I.", "Country": "USA", "Title": "Typa Way (Lil Wayne)", "Longitude": "-84.41918", "County": "Fulton", "State": "Georgia", "Latitude": "33.77155", "Type": "Solo M", "Release date": null},{"Album": "Record Single", "City": "Bedford\u2013Stuyvesant", "Lyrics": "the chickens be always serving us\r\nAll up in between they ass where they wanna carry us\r\nHitcha gonna hit em", "Artist": "The Notorious B.I.G.", "Country": "USA", "Title": "Brooklyn's Business (Wu-Tang Clan) (Ft. Busta Rhymes, Kool G. Rap, Rakim & Redman)", "Longitude": "-73.963796", "County": "Kings", "State": "New York", "Latitude": "40.692385", "Type": "Solo M", "Release date": null},{"Album": "The Dynasty: Roc La Familia", "City": "Brooklyn", "Lyrics": "bad\r\nI know I was talkin reckless earlier about them two chickens\r\nYou get it, you know, two chickens", "Artist": "Jay Z", "Country": "USA", "Title": "1-900-Hustler", "Longitude": "-73.989872", "County": "Kings", "State": "New York", "Latitude": "40.692385", "Type": "Solo M", "Release date": "2000-01-01"},{"Album": "Astronaut Status", "City": "Atlanta", "Lyrics": "They say you bought ten of them\r\nNobody help witness\r\nThey cash out on chickens\r\nThey cash out", "Artist": "Future", "Country": "USA", "Title": "Nunbout", "Longitude": "-84.41918", "County": "Fulton", "State": "Georgia", "Latitude": "33.77155", "Type": "Solo M", "Release date": "2012-01-01"},{"Album": "Trouble Man II: He Who Wears The Crown", "City": "Atlanta", "Lyrics": "a nigga would, I won\u00e2\u20ac\u2122t get a splinter\r\nJust bought a chicken, bout to break it down into chicken", "Artist": "T.I.", "Country": "USA", "Title": "Wit Me", "Longitude": "-84.41918", "County": "Fulton", "State": "Georgia", "Latitude": "33.77155", "Type": "Solo M", "Release date": "2012-12-01"},{"Album": "Record Single", "City": "Wyandanch", "Lyrics": "funny how all the chickens be always serving us\r\nAll up in between they ass where they wanna carry us", "Artist": "Rakim", "Country": "USA", "Title": "Brooklyn's Business (Wu-Tang Clan) (Ft. Busta Rhymes, Kool G. Rap, The Notorious B.I.G. & Redman)", "Longitude": "-73.357999", "County": "Suffolk", "State": "New York", "Latitude": "40.75986", "Type": "Solo M", "Release date": null},{"Album": "Unfinished Business", "City": "Brooklyn", "Lyrics": "mean and vicious\r\nBark bark farmer, this chicken layin platinum ex-farmer (preach!)\r\nSo go low mama", "Artist": "Jay Z", "Country": "USA", "Title": "Big Chips", "Longitude": "-73.989872", "County": "Kings", "State": "New York", "Latitude": "40.692385", "Type": "Solo M", "Release date": "2004-10-26"},{"Album": "Vol. 2... Hard Knock Life", "City": "Brooklyn", "Lyrics": ", models, chicken heads, hit that\r\nI get stacks and still I kick back\r\nAnd run up on niggas", "Artist": "Jay Z", "Country": "USA", "Title": "Ride or Die", "Longitude": "-73.989872", "County": "Kings", "State": "New York", "Latitude": "40.692385", "Type": "Solo M", "Release date": "1998-09-29"},{"Album": "good kid, m.A.A.d city", "City": "Compton", "Lyrics": "like a female chicken\r\nYou with it?(Soulo)\r\nSpread your wings, you probably won't get far\r\nI honestly", "Artist": "Kendrick Lamar", "Country": "USA", "Title": "Swimming Pools (Black Hippy Remix)", "Longitude": "-118.224329", "County": "Los Angeles", "State": "California", "Latitude": "33.895285", "Type": "Solo M", "Release date": "2012-10-22"},{"Album": "God Forgives, I Don't", "City": "Compton", "Lyrics": ", wet 'em and we gotta double back\r\nThe homie whippin' chickens in his momma kitchen\r\nOn the mission", "Artist": "Dr. Dre", "Country": "USA", "Title": "3 Kings", "Longitude": "-118.224329", "County": "Los Angeles", "State": "California", "Latitude": "33.895285", "Type": "Solo M", "Release date": "2012-07-30"},{"Album": "DS2", "City": "Atlanta", "Lyrics": "feel it\r\nI fuck with your ho, she can get it\r\nI stack up some chickens and get it\r\nGon' sell a bill", "Artist": "Future", "Country": "USA", "Title": "Slave Master", "Longitude": "-84.41918", "County": "Fulton", "State": "Georgia", "Latitude": "33.77155", "Type": "Solo M", "Release date": "2015-07-17"},{"Album": "Record Single", "City": "Uniondale", "Lyrics": "of chickens to let me get in they belly\r\nLittle sexy thug bitches who want me to fuck them", "Artist": "Busta Rhymes", "Country": "USA", "Title": "Bladow!! prod. by Scott Storch", "Longitude": "-73.593544", "County": "Nassau", "State": "New York", "Latitude": "40.717935", "Type": "Solo M", "Release date": null},{"Album": "When Disaster Strikes...", "City": "Uniondale", "Lyrics": ", has the tent froze frigid\r\nFraud as a gimmick, dick lickin chasin chickens\r\nI mash for the cash", "Artist": "Busta Rhymes", "Country": "USA", "Title": "There's Not a Problem My Squad Can't Fix", "Longitude": "-73.593544", "County": "Nassau", "State": "New York", "Latitude": "40.717935", "Type": "Solo M", "Release date": "1997-09-16"},{"Album": "Record Single", "City": "Harlem", "Lyrics": ". and J.R. -- pigeons know who they are\r\nNiggas gotta pay off\r\nSnitches know to say y'all\r\nIf chickens", "Artist": "Camron", "Country": "USA", "Title": "Bird Call", "Longitude": "-73.944862", "County": "Manhattan", "State": "New York", "Latitude": "40.806198", "Type": "Solo M", "Release date": null},{"Album": "Record Single", "City": "Harlem", "Lyrics": "jersey -- 65 for every chicken I plucked\r\nPass the purple stuff, whoadie, it's time to get swerk\r\nUp", "Artist": "Camron", "Country": "USA", "Title": "Bout It Bout It (Ft. Jim Jones & Master P)", "Longitude": "-73.944862", "County": "Manhattan", "State": "New York", "Latitude": "40.806198", "Type": "Solo M", "Release date": null},{"Album": "Eardrum", "City": "Park Slope", "Lyrics": "that got crooks who work in big ass granny kitchens\r\nThat we use to cook chickens\r\nAnd not the ones", "Artist": "Talib Kweli", "Country": "USA", "Title": "Go With Us", "Longitude": "-73.977063", "County": "Kings", "State": "New York", "Latitude": "40.672404", "Type": "Solo M", "Release date": "2007-08-21"},{"Album": "Jesus Piece", "City": "Compton", "Lyrics": "that chicken no lemon pepper, no sweet and sour\r\nFirst you get the power, then you get respect\r\nI\u00e2\u20ac\u2122m getting", "Artist": "Game", "Country": "USA", "Title": "Ali Bomaye", "Longitude": "-118.224329", "County": "Los Angeles", "State": "California", "Latitude": "33.895285", "Type": "Solo M", "Release date": "2012-12-11"},{"Album": "10", "City": "Queens", "Lyrics": "It took all your might, but you ain't quit on life\r\nWe took trips down South, biscuits and chicken\r\nMe you", "Artist": "LL Cool J", "Country": "USA", "Title": "Big Mama (Unconditional Love)", "Longitude": "-73.829959", "County": "Queens", "State": "New York", "Latitude": "40.713985", "Type": "Solo M", "Release date": "2003-01-01"},{"Album": "Record Single", "City": "Carol City", "Lyrics": "Fuck 'em all, wet 'em and we gotta double back\r\nThe homie whippin' chickens in his momma kitchen", "Artist": "Rick Ross", "Country": "USA", "Title": "3 Kings (Ft. Dr. Dre & Jay Z) prod. by Jake One", "Longitude": "-80.269920", "County": "Miami-Dade", "State": "Florida", "Latitude": "25.942121", "Type": "Solo M", "Release date": null},{"Album": "Mama Said Knock You Out", "City": "Queens", "Lyrics": "-socks\r\nHer father had a greedy disease, fried chicken pocks\r\nWe called him Hungry Jack\r\nHe talked like", "Artist": "LL Cool J", "Country": "USA", "Title": "Milky Cereal", "Longitude": "-73.829959", "County": "Queens", "State": "New York", "Latitude": "40.713985", "Type": "Solo M", "Release date": "1991-01-01"},{"Album": "Walking With a Panther", "City": "Queens", "Lyrics": "last year were just decoys\r\nI'm like a fox, you annoy me like chicken pox\r\nI'm back with a style", "Artist": "LL Cool J", "Country": "USA", "Title": "Droppin Em", "Longitude": "-73.829959", "County": "Queens", "State": "New York", "Latitude": "40.713985", "Type": "Solo M", "Release date": "1989-01-01"},{"Album": "Dreamchasers", "City": "Philadelphia", "Lyrics": "months fly by, Tony on the high rise\r\nStarted flippin now he got them chickens in like Popeye's", "Artist": "Meek Mill", "Country": "USA", "Title": "Tony Story", "Longitude": "-75.166667", "County": "Philadelphia", "State": "Pennsylvania", "Latitude": "39.95", "Type": "Solo M", "Release date": "2011-08-11"},{"Album": "Record Single", "City": "Compton", "Lyrics": "bag\r\nFuck 'em all, wet 'em and we gotta double back\r\nThe homie whippin' chickens in his momma kitchen", "Artist": "Dr. Dre", "Country": "USA", "Title": "3 kings (French Version) (Rick Ross) (Ft. Jay Z)", "Longitude": "-118.224329", "County": "Los Angeles", "State": "California", "Latitude": "33.895285", "Type": "Solo M", "Release date": null},{"Album": "Anarchy", "City": "Uniondale", "Lyrics": "to someone you know\r\nWhile I bag these bitches and take them to 24-hour tellys\r\nType of chickens to let me", "Artist": "Busta Rhymes", "Country": "USA", "Title": "Bladow!!", "Longitude": "-73.593544", "County": "Nassau", "State": "New York", "Latitude": "40.717935", "Type": "Solo M", "Release date": "2000-01-01"},{"Album": "Anarchy", "City": "Uniondale", "Lyrics": "tongue kiss the track like it was fried chicken\r\nSpicy seasoning was finger licking\r\nEverything looks", "Artist": "Busta Rhymes", "Country": "USA", "Title": "Live it Up", "Longitude": "-73.593544", "County": "Nassau", "State": "New York", "Latitude": "40.717935", "Type": "Solo M", "Release date": "2000-01-01"},{"Album": "When Disaster Strikes...", "City": "Uniondale", "Lyrics": "heards that scare herds\r\nNiggaaaaa, I'm from the wicked city\r\nWhen chickens twist trees and dick", "Artist": "Busta Rhymes", "Country": "USA", "Title": "Get Off My Block", "Longitude": "-73.593544", "County": "Nassau", "State": "New York", "Latitude": "40.717935", "Type": "Solo M", "Release date": "1997-09-16"},{"Album": "Record Single", "City": "Staten Island", "Lyrics": "it to me, big microphone hippie\r\nHit Poughkeepsie crispy chicken verbs throw up a stone richie\r\nChop", "Artist": "Ghostface Killah", "Country": "USA", "Title": "Nutmeg (Ft. RZA) prod. by Black Moes-Art", "Longitude": "-74.144839", "County": "Richmond", "State": "New York", "Latitude": "40.576281", "Type": "Solo M", "Release date": null},{"Album": "Supreme Clientele", "City": "Staten Island", "Lyrics": "Poughkeepsie crispy chicken verbs throw up a stone richie\r\nChop the O, sprinkle a little snow inside", "Artist": "Ghostface Killah", "Country": "USA", "Title": "Nutmeg", "Longitude": "-74.144839", "County": "Richmond", "State": "New York", "Latitude": "40.576281", "Type": "Solo M", "Release date": "2000-02-08"},{"Album": "I'm Good", "City": "Brooklyn", "Lyrics": "- twitchin'You can't rain dance on his picnicNo Haitian voodoo, no headless chickens can dead his sicknessNo", "Artist": "Jay Z", "Country": "USA", "Title": "Excuse Me Miss Again (Remix)", "Longitude": "-73.989872", "County": "Kings", "State": "New York", "Latitude": "40.692385", "Type": "Solo M", "Release date": "2007-09-11"},{"Album": "Record Single", "City": "Brooklyn", "Lyrics": "Fuck 'em all, wet 'em and we gotta double back\r\nThe homie whippin' chickens in his momma kitchen", "Artist": "Jay Z", "Country": "USA", "Title": "3 Kings (Rick Ross) (Ft. Dr. Dre) prod. by Jake One", "Longitude": "-73.989872", "County": "Kings", "State": "New York", "Latitude": "40.692385", "Type": "Solo M", "Release date": null},{"Album": "Bad Girls Remixes Ep", "City": "Harlem", "Lyrics": "Combined in one frame\r\nPart of my water, but this my wave\r\nYou take orders like a chicken saut\u00c3", "Artist": "Azelia Banks", "Country": "USA", "Title": "Bad Girls (N.A.R.S. Remix)", "Longitude": "-73.948372", "County": "Manhattan", "State": "New York", "Latitude": "40.809033", "Type": "Solo F", "Release date": "2012-07-03"},{"Album": "Record Single", "City": "South Bronx", "Lyrics": "in Queens\r\nI love eatin' chicken and cauligreens\r\nOther boroughs try to front and fuck on me\r\nBut nigga", "Artist": "Big Punisher", "Country": "USA", "Title": "Clap Your Hands", "Longitude": "-73.911789", "County": "Bronx", "State": "New York", "Latitude": "40.823318", "Type": "Solo M", "Release date": null},{"Album": "The Marshall Mathers LP", "City": "Detroit", "Lyrics": "motherfuckin' chickens ain't brave enough\r\nTo say the stuff I say, so just tape it shut\r\nShit, half", "Artist": "Eminem", "Country": "USA", "Title": "Criminal", "Longitude": "-83.045833", "County": "Wayne", "State": "Michigan", "Latitude": "42.331389", "Type": "Solo M", "Release date": "2000-05-23"},{"Album": "Record Single", "City": "Compton", "Lyrics": "houses, did it from the wee hours\r\nSelling that chicken no lemon pepper, no sweet and sour\r\nFirst you", "Artist": "Game", "Country": "USA", "Title": "Ali Bomaye (Ft. 2 Chainz & Rick Ross) prod. by Black Metaphor", "Longitude": "-118.224329", "County": "Los Angeles", "State": "California", "Latitude": "33.895285", "Type": "Solo M", "Release date": null},{"Album": "KRS-One", "City": "South Bronx", "Lyrics": ", Tuffy\r\n\r\nBuck buck! Buck buck buck!\r\nIt sound like gunshots but it could be the cluck\r\nOf a chicken", "Artist": "KRS-ONE", "Country": "USA", "Title": "Free Mumia", "Longitude": "-73.91735", "County": "The Bronx", "State": "New York", "Latitude": "40.81621", "Type": "Solo M", "Release date": "1995-01-01"},{"Album": "God Forgives, I Don't", "City": "Carol City", "Lyrics": "double back\r\nThe homie whippin' chickens in his momma kitchen\r\nOn the mission, said he get it for his", "Artist": "Rick Ross", "Country": "USA", "Title": "3 Kings", "Longitude": "-80.269920", "County": "Miami-Dade", "State": "Florida", "Latitude": "25.942121", "Type": "Solo M", "Release date": "2012-07-30"},{"Album": "It Was Written", "City": "Queensbridge", "Lyrics": "theBridgesay, shake dice and kiss it\r\nSip Crist' push the six with biscuit\r\nJeep full of chickens", "Artist": "Nas", "Country": "USA", "Title": "Is Coming", "Longitude": "-73.937622", "County": "Queens", "State": "New York", "Latitude": "40.756279", "Type": "Solo M", "Release date": "1996-01-01"},{"Album": "Walking With a Panther", "City": "Queens", "Lyrics": "A minute is needed to make a phony roni bleed\r\nAnd put him in a bucket like it's chicken feed\r\nCheck out", "Artist": "LL Cool J", "Country": "USA", "Title": "Jingling Baby", "Longitude": "-73.829959", "County": "Queens", "State": "New York", "Latitude": "40.713985", "Type": "Solo M", "Release date": "1989-01-01"},{"Album": "Paid Tha Cost to be Da Bo$$", "City": "Long Beach", "Lyrics": "at it\r\nRob you and jet\r\nSurprise you and flex\r\nFunk in the Cadillac truck with a chicken, bobbing her neck", "Artist": "Snoop Dogg", "Country": "USA", "Title": "From Long Beach 2 Brick City", "Longitude": "-118.195556", "County": "Los Angeles", "State": "California", "Latitude": "33.768333", "Type": "Solo M", "Release date": "2002-11-26"},{"Album": "Dreams and Nightmares", "City": "Philadelphia", "Lyrics": "I leave? Did I leave?\r\nMy new chicken got my speed\r\nI be getting ball player money like I\u00e2\u20ac\u2122m", "Artist": "Meek Mill", "Country": "USA", "Title": "Freak Show", "Longitude": "-75.166667", "County": "Philadelphia", "State": "Pennsylvania", "Latitude": "39.95", "Type": "Solo M", "Release date": "2012-10-30"},{"Album": "Record Single", "City": "Bedford\u2013Stuyvesant", "Lyrics": "HORNS BY THE SOUL REBELS\r\nADDITIONAL VOCALS BY HEIROWAYNE\r\n\r\n15. CURRY CHICKEN\r\n\r\nWritten by: Jo", "Artist": "Joey BADA$$", "Country": "USA", "Title": "B4.DA.$$ [Credits]", "Longitude": "-73.963796", "County": "Kings", "State": "New York", "Latitude": "40.692385", "Type": "Solo M", "Release date": null},{"Album": "To Pimp a Butterfly", "City": "Compton", "Lyrics": "to celebrate February like it's my B-Day\r\nOr eat watermelon, chicken, and Kool-Aid on weekdays\r\nOr jump high", "Artist": "Kendrick Lamar", "Country": "USA", "Title": "The Blacker the Berry", "Longitude": "-118.224329", "County": "Los Angeles", "State": "California", "Latitude": "33.895285", "Type": "Solo M", "Release date": "2015-01-01"},{"Album": "Apollo Kids", "City": "Staten Island", "Lyrics": "call her chicken McNugget\r\nCuz this Superbad nigga, she McLovin'\r\n\r\n[Method Man]\r\nFiends get killed", "Artist": "Ghostface Killah", "Country": "USA", "Title": "Troublemakers", "Longitude": "-74.144839", "County": "Richmond", "State": "New York", "Latitude": "40.576281", "Type": "Solo M", "Release date": "2010-01-01"},{"Album": "More Fish", "City": "Staten Island", "Lyrics": "bitches\r\nYa'll greasy, after the club, want the piece of chicken\r\nHotel rooms, you better not touch", "Artist": "Ghostface Killah", "Country": "USA", "Title": "Greedy Bitches", "Longitude": "-74.144839", "County": "Richmond", "State": "New York", "Latitude": "40.576281", "Type": "Solo M", "Release date": "2006-01-01"},{"Album": "Love Don't Cost a Thing Soundtrack", "City": "Uniondale", "Lyrics": "And baby girl, I only use my dough for trickin or chicken\r\nListen, cooked food shorty fatten my tummy", "Artist": "Busta Rhymes", "Country": "USA", "Title": "Shorty", "Longitude": "-73.593544", "County": "Nassau", "State": "New York", "Latitude": "40.717935", "Type": "Solo M", "Release date": "2003-12-09"},{"Album": "Cam'Ron Presents DukeDaGod - DipSet: The Movement Moves On", "City": "Harlem", "Lyrics": "chickens in a bag, you ain't fresh in my eyes\r\nI ain't doing nothing to her but she's letting me slide", "Artist": "Camron", "Country": "USA", "Title": "Grill Em (Remix)", "Longitude": "-73.944862", "County": "Manhattan", "State": "New York", "Latitude": "40.806198", "Type": "Solo M", "Release date": "2006-04-11"},{"Album": "Young Money Rise Of An Empire", "City": "The Bronx", "Lyrics": "may\r\nFucking killing unbook, come the coppers and spray\r\nTwizzie get the chicken, they plot him", "Artist": "Cory Gunz", "Country": "USA", "Title": "Bang", "Longitude": "-73.886", "County": "The Bronx", "State": "New York", "Latitude": " 40.8373", "Type": "Solo M", "Release date": "2014-01-01"},{"Album": "Record Single", "City": "Compton", "Lyrics": "bag\r\nFuck 'em all, wet 'em and we gotta double back\r\nThe homie whippin' chickens in his momma kitchen", "Artist": "Dr. Dre", "Country": "USA", "Title": "3 Kings (Rick Ross) (Ft. Jay Z) prod. by Jake One", "Longitude": "-118.224329", "County": "Los Angeles", "State": "California", "Latitude": "33.895285", "Type": "Solo M", "Release date": null},{"Album": "The Big Doe Rehab", "City": "Staten Island", "Lyrics": "...\r\n\r\n[Ghostface Killah]\r\nAiyo, G4 jets with like three and four pets\r\nSex, Beck's, chicken and hens, all the same", "Artist": "Ghostface Killah", "Country": "USA", "Title": "Supa GFK", "Longitude": "-74.144839", "County": "Richmond", "State": "New York", "Latitude": "40.576281", "Type": "Solo M", "Release date": "2007-12-04"},{"Album": "In My Lifetime, Vol. 1", "City": "Brooklyn", "Lyrics": "to Friday\r\nI be the richest, shitting on these bitches\r\nWhile chickens cluck giving up the butt\r\nI plays", "Artist": "Jay Z", "Country": "USA", "Title": "I Know What Girls Like", "Longitude": "-73.989872", "County": "Kings", "State": "New York", "Latitude": "40.692385", "Type": "Solo M", "Release date": "1997-11-04"},{"Album": "Reasonable Doubt", "City": "Brooklyn", "Lyrics": "chickens check\r\nI'm trying to step up to the next level,pushing Vettes through the 'jects\r\nDiamonds", "Artist": "Jay Z", "Country": "USA", "Title": "Coming of Age", "Longitude": "-73.989872", "County": "Kings", "State": "New York", "Latitude": "40.692385", "Type": "Solo M", "Release date": "1996-01-01"},{"Album": "Sunday Service", "City": "Compton", "Lyrics": ", we kill\r\nTurkeys, chickens, pigs, each other, fuck us, we will\r\nTake a life, lethal injection or free", "Artist": "Game", "Country": "USA", "Title": "Murder", "Longitude": "-118.224329", "County": "Los Angeles", "State": "California", "Latitude": "33.895285", "Type": "Solo M", "Release date": "2012-01-01"},{"Album": "Lights Out", "City": "New Orleans", "Lyrics": "I guarantee your mams be missin\r\nWith a note behind demandin three chickens or she gets it\r\nDo", "Artist": "Lil Wayne", "Country": "USA", "Title": "Get Off the Corner", "Longitude": "-90.077714", "County": "Orleans", "State": "Louisiana", "Latitude": "29.95369", "Type": "Solo M", "Release date": "2000-12-19"},{"Album": "Bad Girls Remixes Ep", "City": "Portsmouth", "Lyrics": "Combined in one frame\r\nPart of my water, but this my wave\r\nYou take orders like a chicken saut\u00c3", "Artist": "Missy Elliott", "Country": "USA", "Title": "Bad Girls (N.A.R.S. Remix)", "Longitude": "-76.297715", "County": "Portsmouth", "State": "Virginia", "Latitude": "36.832642", "Type": "Solo F", "Release date": "2012-07-03"},{"Album": "Efil4Zaggin", "City": "Compton", "Lyrics": "' to suck the meat off a chicken bone\r\nAnd then she won't let go\r\nBecause bitches suck nut out of a dick", "Artist": "N.W.A", "Country": "USA", "Title": "She Swallowed It", "Longitude": "-118.224329", "County": "Los Angeles", "State": "California", "Latitude": "33.895285", "Type": "Group M", "Release date": "1991-01-01"},{"Album": "Only Built 4 Cuban Linx...", "City": "Staten Island", "Lyrics": "with a bunch of chickens how you're clicking\r\nI kept shooting strong notes as we got close\r\nShe rocked", "Artist": "Raekwon", "Country": "USA", "Title": "Ice Cream", "Longitude": "-74.144839", "County": "Richmond", "State": "New York", "Latitude": "40.576281", "Type": "Solo M", "Release date": "1995-08-01"},{"Album": "Rich Forever", "City": "Carol City", "Lyrics": "Chickens jumping like checkers, but this game is chess\r\nWhat's at stake is your freedom, niggas paying", "Artist": "Rick Ross", "Country": "USA", "Title": "Last Breath", "Longitude": "-80.269920", "County": "Miami-Dade", "State": "Florida", "Latitude": "25.942121", "Type": "Solo M", "Release date": "2012-01-06"},{"Album": "The Black Bar Mitzvah", "City": "Carol City", "Lyrics": "God, but I could never work at a Church's\r\nI'm just buying chickens purses\r\nHangin' with the best", "Artist": "Rick Ross", "Country": "USA", "Title": "Presidential (Remix)", "Longitude": "-80.269920", "County": "Miami-Dade", "State": "Florida", "Latitude": "25.942121", "Type": "Solo M", "Release date": "2012-10-08"},{"Album": "Record Single", "City": "Long Beach", "Lyrics": "mix the purp with the budda\r\nLove Chicken and Beer like the homeboy Luda\r\nBig Snoopy D-O-Dub, I'mma", "Artist": "Snoop Dogg", "Country": "USA", "Title": "Anotha Killin' (Brotha Lynch Hung) (Ft. Tha Dogg Pound) prod. by Brotha Lynch Hung & Seven", "Longitude": "-118.195556", "County": "Los Angeles", "State": "California", "Latitude": "33.768333", "Type": "Solo M", "Release date": null},{"Album": "Mama Said Knock You Out", "City": "Queens", "Lyrics": "chicken feed\r\nCheck out the...pick of the litter, not a quitter, I'm nice (nice-nice);\r\nAnd I'm-a dust", "Artist": "LL Cool J", "Country": "USA", "Title": "Jinglin' Baby (remixed but still jinglin')", "Longitude": "-73.829959", "County": "Queens", "State": "New York", "Latitude": "40.713985", "Type": "Solo M", "Release date": "1991-01-01"},{"Album": "Phenomenon", "City": "Queens", "Lyrics": "and make the rubber pop\r\n5 baby mothers\r\n1 live on my block\r\nShinin' in the club\r\nChickens showin' love", "Artist": "LL Cool J", "Country": "USA", "Title": "Wanna Get Paid", "Longitude": "-73.829959", "County": "Queens", "State": "New York", "Latitude": "40.713985", "Type": "Solo M", "Release date": "1997-01-01"},{"Album": "Dreamchasers", "City": "Philadelphia", "Lyrics": "on the high riseStarted flippin now he got them chickens in like PopeyePauly still gettin", "Artist": "Meek Mill", "Country": "USA", "Title": "Tony Back", "Longitude": "-75.166667", "County": "Philadelphia", "State": "Pennsylvania", "Latitude": "39.95", "Type": "Solo M", "Release date": "2011-08-11"},{"Album": "Genesis", "City": "Uniondale", "Lyrics": ", cookin up a little brown stew chicken\r\nDr. Dre niggas, yea", "Artist": "Busta Rhymes", "Country": "USA", "Title": "Holla", "Longitude": "-73.593544", "County": "Nassau", "State": "New York", "Latitude": "40.717935", "Type": "Solo M", "Release date": "2001-01-01"},{"Album": "Killa Season", "City": "Harlem", "Lyrics": "to keep me happy\r\nFry some good chicken, when I hit it call me daddy\r\nI'm from Weeks Ave mama, I get cash", "Artist": "Camron", "Country": "USA", "Title": "Something New", "Longitude": "-73.944862", "County": "Manhattan", "State": "New York", "Latitude": "40.806198", "Type": "Solo M", "Release date": "2006-05-16"},{"Album": "Record Single", "City": "Harlem", "Lyrics": "y'all\r\nIf chickens on the radar, I\u00e2\u20ac\u2122m at it\r\nCause I get it on my day off,ain't nothing like", "Artist": "Camron", "Country": "USA", "Title": "Bird Call (J.R. Writer) (Ft. Lil Wayne)", "Longitude": "-73.944862", "County": "Manhattan", "State": "New York", "Latitude": "40.806198", "Type": "Solo M", "Release date": null},{"Album": "Record Single", "City": "Chicago", "Lyrics": "to me, now see how the scenery rock?\r\n\r\n[Hook]\r\n\r\n[Verse 2: Common]\r\nI was born by a lake, chicken", "Artist": "Common", "Country": "USA", "Title": "The Morning (Raekwon) (Ft. 2 Chainz, CyHi The Prynce, D'Banj, Kid Cudi & Pusha T) prod. by Illmind, Jeff Bhasker, Kanye West & Travis Scott", "Longitude": "-87.632409", "County": "Cook", "State": "Illinois", "Latitude": "41.88415", "Type": "Solo M", "Release date": null},{"Album": "Kanye West Presents Good Music Cruel Summer", "City": "Chicago", "Lyrics": "the scenery rock?\r\n\r\n[Hook]\r\n\r\n[Verse 2: Common]\r\nI was born by a lake, chicken shack, and a church", "Artist": "Kanye West", "Country": "USA", "Title": "RaekwonThe Morning", "Longitude": "-87.632409", "County": "Cook", "State": "Illinois", "Latitude": "41.88415", "Type": "Solo M", "Release date": "2012-09-14"},{"Album": "Hidden Darts: Special Edition", "City": "Staten Island", "Lyrics": "in stones\r\nChunky and I ain't talkin chicken noodle soup\r\nGot a V for Vendetta this year and need", "Artist": "Ghostface Killah", "Country": "USA", "Title": "Return of Theodore Unit", "Longitude": "-74.144839", "County": "Richmond", "State": "New York", "Latitude": "40.576281", "Type": "Solo M", "Release date": "2007-03-13"},{"Album": "Record Single", "City": "Staten Island", "Lyrics": ", summertime fine, jewelry dripping\r\nSeen you on Pickens with a bunch of chickens how you're clicking\r\nI", "Artist": "Ghostface Killah", "Country": "USA", "Title": "Ice Cream (Raekwon) (Ft. Cappadonna & Method Man) prod. by RZA", "Longitude": "-74.144839", "County": "Richmond", "State": "New York", "Latitude": "40.576281", "Type": "Solo M", "Release date": null},{"Album": "God Forgives, I Don't", "City": "Brooklyn", "Lyrics": ", wet 'em and we gotta double back\r\nThe homie whippin' chickens in his momma kitchen\r\nOn the mission", "Artist": "Jay Z", "Country": "USA", "Title": "3 Kings", "Longitude": "-73.989872", "County": "Kings", "State": "New York", "Latitude": "40.692385", "Type": "Solo M", "Release date": "2012-07-30"},{"Album": "Record Single", "City": "Marin City", "Lyrics": "that cooked the bird (?) in the kitchen\r\nMoms itchin' had the whole gang unwrappin' chickens\r\nNigga", "Artist": "2Pac", "Country": "USA", "Title": "187 On A Hook (Ft. C-Bo & Tech N9ne)", "Longitude": "-122.516579", "County": "Marin", "State": "California", "Latitude": "37.87199", "Type": "Solo M", "Release date": null},{"Album": "E.L.E. (Extinction Level Event): The Final World Front", "City": "Uniondale", "Lyrics": ", ya hear it?\r\nMe and my nigga Richie was itchy to meet some women\r\nMet some chickens, they was actin", "Artist": "Busta Rhymes", "Country": "USA", "Title": "Do It to Death", "Longitude": "-73.593544", "County": "Nassau", "State": "New York", "Latitude": "40.717935", "Type": "Solo M", "Release date": "1998-01-01"},{"Album": "Train of Thought (Reflection Eternal album)", "City": "Park Slope", "Lyrics": "thicker than quicksandSupply and demand the hand is quicker than the eyeFind some chickens to fry", "Artist": "Talib Kweli", "Country": "USA", "Title": "Down for the Count", "Longitude": "-73.977063", "County": "Kings", "State": "New York", "Latitude": "40.672404", "Type": "Solo M", "Release date": "2000-10-17"},{"Album": "Jesus Piece (French Version)", "City": "Compton", "Lyrics": "hours\r\nSelling that chicken no lemon pepper, no sweet and sour\r\nFirst you get the power, then you get", "Artist": "Game", "Country": "USA", "Title": "Ali Bomaye (French Version)", "Longitude": "-118.224329", "County": "Los Angeles", "State": "California", "Latitude": "33.895285", "Type": "Solo M", "Release date": "2012-12-11"},{"Album": "good kid, m.A.A.d city", "City": "Compton", "Lyrics": "at the Days Inn\r\nWe was living out a hotel at the time\r\nBreakfast, lunch and dinner chicken from", "Artist": "Kendrick Lamar", "Country": "USA", "Title": "County Building Blues", "Longitude": "-118.224329", "County": "Los Angeles", "State": "California", "Latitude": "33.895285", "Type": "Solo M", "Release date": "2012-10-22"},{"Album": "Hip Hop Lives", "City": "South Bronx", "Lyrics": "Chicken DJ's promotin breast and thighs\r\nMarley Marl test these guys\r\nIt takes real eyes to realize", "Artist": "KRS-ONE", "Country": "USA", "Title": "Musika", "Longitude": "-73.91735", "County": "The Bronx", "State": "New York", "Latitude": "40.81621", "Type": "Solo M", "Release date": "2007-05-22"},{"Album": "Port of Miami", "City": "Carol City", "Lyrics": "it off (off)\r\nLet me break it down (down)\r\nI see Fifty off a chicken everytime I break it down (down", "Artist": "Rick Ross", "Country": "USA", "Title": "Where My Money (I Need That)", "Longitude": "-80.269920", "County": "Miami-Dade", "State": "Florida", "Latitude": "25.942121", "Type": "Solo M", "Release date": "2006-08-08"},{"Album": "Record Single", "City": "Carol City", "Lyrics": "Fuck 'em all, wet 'em and we gotta double back\r\nThe homie whippin' chickens in his momma kitchen", "Artist": "Rick Ross", "Country": "USA", "Title": "3 kings (French Version) (Ft. Dr. Dre & Jay Z)", "Longitude": "-80.269920", "County": "Miami-Dade", "State": "Florida", "Latitude": "25.942121", "Type": "Solo M", "Release date": null},{"Album": "Record Single", "City": "Carol City", "Lyrics": ", did it from the wee hours\r\nSelling that chicken no lemon pepper, no sweet and sour\r\nFirst you get", "Artist": "Rick Ross", "Country": "USA", "Title": "Ali Bomaye (Game) (Ft. 2 Chainz) prod. by Black Metaphor", "Longitude": "-80.269920", "County": "Miami-Dade", "State": "Florida", "Latitude": "25.942121", "Type": "Solo M", "Release date": null},{"Album": "Born Like This", "City": "Roosevelt", "Lyrics": "of chicken chest S\r\nYes ya'll the dub will get ya trickles\r\nThe best ballers pitch in to rub together", "Artist": "MF DOOM", "Country": "USA", "Title": "Gazzillion Ear", "Longitude": "-73.585556", "County": "Nassau", "State": "New York", "Latitude": "40.679167", "Type": "Solo M", "Release date": "2009-01-01"},{"Album": "Gossip Folks (CD-S)", "City": "Portsmouth", "Lyrics": "like a bird\r\nChicken heads on the prowl\r\nWho you trying fuck now\r\nNaw you ain't getting loud", "Artist": "Missy Elliott", "Country": "USA", "Title": "Gossip Folks (Fatboy Slim Radio Remix)", "Longitude": "-76.297715", "County": "Portsmouth", "State": "Virginia", "Latitude": "36.832642", "Type": "Solo F", "Release date": "2002-11-11"},{"Album": "Record Single", "City": "Portsmouth", "Lyrics": ", did ya heard?\r\nI love em, my feathers, my furs\r\nI fly like a bird\r\nChicken heads on the prowl\r\nWho you", "Artist": "Missy Elliott", "Country": "USA", "Title": "Gossip Folks (Ft. Ludacris)", "Longitude": "-76.297715", "County": "Portsmouth", "State": "Virginia", "Latitude": "36.832642", "Type": "Solo F", "Release date": null},{"Album": "Under Construction", "City": "Portsmouth", "Lyrics": "love em, my feathers, my furs\r\nI fly like a bird\r\nChicken heads on the prowl\r\nWho you trying fuck", "Artist": "Missy Elliott", "Country": "USA", "Title": "Gossip Folks", "Longitude": "-76.297715", "County": "Portsmouth", "State": "Virginia", "Latitude": "36.832642", "Type": "Solo F", "Release date": "2002-01-01"},{"Album": "Straight Outta Compton - 10th Anniversary Tribute", "City": "Compton", "Lyrics": ", nothin' less than a twenty\r\nYo, you wanna whole chicken, Mack 10's got plenty\r\nTo be a dopeman, boy", "Artist": "N.W.A", "Country": "USA", "Title": "Mack 10Dopeman", "Longitude": "-118.224329", "County": "Los Angeles", "State": "California", "Latitude": "33.895285", "Type": "Group M", "Release date": "1998-11-03"},{"Album": "Tha Block is Hot", "City": "New Orleans", "Lyrics": "made you go sideshow, turn jive whore\r\nKickin', trifling, dirty, and low\r\nWe use ta split chicken", "Artist": "Lil Wayne", "Country": "USA", "Title": "Not Like Me", "Longitude": "-90.077714", "County": "Orleans", "State": "Louisiana", "Latitude": "29.95369", "Type": "Solo M", "Release date": "1999-11-02"},{"Album": "Record Single", "City": "Queens", "Lyrics": "Air freshener is kickin', drive through for chicken\r\nI know you need a good stickin'\r\nThat's when", "Artist": "LL Cool J", "Country": "USA", "Title": "Back Seat", "Longitude": "-73.829959", "County": "Queens", "State": "New York", "Latitude": "40.713985", "Type": "Solo M", "Release date": null},{"Album": "Mister Cee's Best of B.I.G.", "City": "Bedford\u2013Stuyvesant", "Lyrics": "an arcade\r\nMad games: pool tables and candy\r\nA little extra chicken loot be comin in handy\r\nCheck", "Artist": "The Notorious B.I.G.", "Country": "USA", "Title": "Real Niggas", "Longitude": "-73.963796", "County": "Kings", "State": "New York", "Latitude": "40.692385", "Type": "Solo M", "Release date": "1995-01-01"},{"Album": "Cocktails", "City": "East Oakland", "Lyrics": "to the beat\r\nAin't no thang but a chicken wing\r\nWe gonna do it like this one mo' time\r\n\r\n[Verse 1]\r\nStraight", "Artist": "Too Short", "Country": "USA", "Title": "Sample The Funk", "Longitude": "-122.2591", "County": "Oakland", "State": "California", "Latitude": "37.8039", "Type": "Solo M", "Release date": "1995-01-01"},{"Album": "Supreme Clientele", "City": "Staten Island", "Lyrics": "starts to sing \"we made it\"*\r\nChicken ass mothafuckas, envious bitches\r\nYo, you know what y'all", "Artist": "Ghostface Killah", "Country": "USA", "Title": "We Made It", "Longitude": "-74.144839", "County": "Richmond", "State": "New York", "Latitude": "40.576281", "Type": "Solo M", "Release date": "2000-02-08"},{"Album": "American Gangster", "City": "Brooklyn", "Lyrics": "dealer or victim, I beg\r\nWhat came first?\r\nMoving chickens or the egg?\r\nThis I why I be so fresh\r\nI'm", "Artist": "Jay Z", "Country": "USA", "Title": "Pray", "Longitude": "-73.989872", "County": "Kings", "State": "New York", "Latitude": "40.692385", "Type": "Solo M", "Release date": "2007-11-06"},{"Album": "Recovery", "City": "Detroit", "Lyrics": "can count every motherfuckin\u00e2\u20ac\u2122 chicken fore it hatches\r\nCause you can bet your ass we gonna get", "Artist": "Eminem", "Country": "USA", "Title": "Untitled", "Longitude": "-83.045833", "County": "Wayne", "State": "Michigan", "Latitude": "42.331389", "Type": "Solo M", "Release date": "2010-01-01"},{"Album": "Dr. Dolittle 2 Soundtrack", "City": "Uniondale", "Lyrics": "right now\r\nShit we lookin for bitches to fuck right now\r\nChickens and Peacocks and ducks right now", "Artist": "Busta Rhymes", "Country": "USA", "Title": "What It Is Right Now Pt. 2", "Longitude": "-73.593544", "County": "Nassau", "State": "New York", "Latitude": "40.717935", "Type": "Solo M", "Release date": "2001-06-05"},{"Album": "Urban Legend", "City": "Atlanta", "Lyrics": "earth I shall not hurt\r\nFor money food shelter or work\r\nLouie, Henny, Remy, or Urp\r\nChicken, dimes", "Artist": "T.I.", "Country": "USA", "Title": "Limelight", "Longitude": "-84.41918", "County": "Fulton", "State": "Georgia", "Latitude": "33.77155", "Type": "Solo M", "Release date": "2004-11-30"},{"Album": "Jesus Piece", "City": "Compton", "Lyrics": "Church\n\r\n[Hook: Game]\r\nI'm tryin' to go to church\r\nGet some chicken wings, after that hit the strip", "Artist": "Game", "Country": "USA", "Title": "Church", "Longitude": "-118.224329", "County": "Los Angeles", "State": "California", "Latitude": "33.895285", "Type": "Solo M", "Release date": "2012-12-11"},{"Album": "Oke Operation Kill Everything", "City": "Compton", "Lyrics": "big room\r\nStuff six grams in one big blunt\r\nLoad six shells in one big pump\r\nStuff six chickens in one", "Artist": "Game", "Country": "USA", "Title": "Super Throwed", "Longitude": "-118.224329", "County": "Los Angeles", "State": "California", "Latitude": "33.895285", "Type": "Solo M", "Release date": "2013-01-01"},{"Album": "Record Single", "City": "Compton", "Lyrics": ", did it from the weak hours\r\nSelling that chicken no lemon pepper, no sweet and sour\r\nFirst you get", "Artist": "Game", "Country": "USA", "Title": "Ali Bomaye (French Version) (Ft. 2 Chainz & Rick Ross)", "Longitude": "-118.224329", "County": "Los Angeles", "State": "California", "Latitude": "33.895285", "Type": "Solo M", "Release date": null},{"Album": "Record Single", "City": "Brooklyn", "Lyrics": "bag\r\nFuck 'em all, wet 'em and we gotta double back\r\nThe homie whippin' chickens in his momma kitchen", "Artist": "Jay Z", "Country": "USA", "Title": "3 kings (French Version) (Rick Ross) (Ft. Dr. Dre)", "Longitude": "-73.989872", "County": "Kings", "State": "New York", "Latitude": "40.692385", "Type": "Solo M", "Release date": null},{"Album": "I'm Good", "City": "Chicago", "Lyrics": "chickens can dead his sickness\r\nNo Ouija board, you can't see me dog, nigga you CB-4\r\nThis ain't Chris", "Artist": "Kanye West", "Country": "USA", "Title": "Excuse Me Miss Again (Remix)", "Longitude": "-87.632409", "County": "Cook", "State": "Illinois", "Latitude": "41.88415", "Type": "Solo M", "Release date": "2007-09-11"},{"Album": "Queensbridge: The Album", "City": "Queensbridge", "Lyrics": "shattering glass\r\nHad the chicken pox\r\nOn that toy horse that rocks\r\nMy moms grabbed me down", "Artist": "Nas", "Country": "USA", "Title": "Kids in Da P.J.'s", "Longitude": "-73.937622", "County": "Queens", "State": "New York", "Latitude": "40.756279", "Type": "Solo M", "Release date": "2000-11-21"},{"Album": "Immobilarity", "City": "Staten Island", "Lyrics": "Curry, chicken, and bitches crime on my right\r\nI'm marvelous extra large\r\nThrew y'all faggot niggas", "Artist": "Raekwon", "Country": "USA", "Title": "Heart to Heart", "Longitude": "-74.144839", "County": "Richmond", "State": "New York", "Latitude": "40.576281", "Type": "Solo M", "Release date": "1999-01-01"},{"Album": "Record Single", "City": "Staten Island", "Lyrics": "dip, summertime fine, jewelry dripping\r\nSeen you on Pickens with a bunch of chickens how you're", "Artist": "Raekwon", "Country": "USA", "Title": "Ice Cream (Ft. Cappadonna, Ghostface Killah & Method Man) prod. by RZA", "Longitude": "-74.144839", "County": "Richmond", "State": "New York", "Latitude": "40.576281", "Type": "Solo M", "Release date": null},{"Album": "Record Single", "City": "Staten Island", "Lyrics": "to me, now see how the scenery rock?\r\n\r\n[Hook]\r\n\r\n[Verse 2: Common]\r\nI was born by a lake, chicken", "Artist": "Raekwon", "Country": "USA", "Title": "The Morning (Ft. 2 Chainz, Common, CyHi The Prynce, D'Banj, Kid Cudi & Pusha T) prod. by Illmind, Jeff Bhasker, Kanye West & Travis Scott", "Longitude": "-74.144839", "County": "Richmond", "State": "New York", "Latitude": "40.576281", "Type": "Solo M", "Release date": null},{"Album": "God Forgives, I Don't (French Version)", "City": "Carol City", "Lyrics": "'em and we gotta double back\r\nThe homie whippin' chickens in his momma kitchen\r\nOn the mission, said", "Artist": "Rick Ross", "Country": "USA", "Title": "3 kings (French Version)", "Longitude": "-80.269920", "County": "Miami-Dade", "State": "Florida", "Latitude": "25.942121", "Type": "Solo M", "Release date": "2012-07-30"},{"Album": "Port of Miami", "City": "Carol City", "Lyrics": "and boochie copin gucci\r\nBoochie that's my road dawg\r\nFlippin chickens for the sushi\r\nMusta been", "Artist": "Rick Ross", "Country": "USA", "Title": "Hit U From the Back", "Longitude": "-80.269920", "County": "Miami-Dade", "State": "Florida", "Latitude": "25.942121", "Type": "Solo M", "Release date": "2006-08-08"},{"Album": "Teflon Don", "City": "Carol City", "Lyrics": "-top chicken box\r\nMr. KFC, VVS's in the watch\r\nLiving fast where it's all about that money bag", "Artist": "Rick Ross", "Country": "USA", "Title": "Aston Martin Music", "Longitude": "-80.269920", "County": "Miami-Dade", "State": "Florida", "Latitude": "25.942121", "Type": "Solo M", "Release date": "2010-07-20"},{"Album": "Doggumentary", "City": "Long Beach", "Lyrics": "?\r\nNot from Atlanta but I got heart\r\nChickens, birdies, quails, baking soda scales\r\nHeavy weights", "Artist": "Snoop Dogg", "Country": "USA", "Title": "My Fuckin' House", "Longitude": "-118.195556", "County": "Los Angeles", "State": "California", "Latitude": "33.768333", "Type": "Solo M", "Release date": "2011-03-29"},{"Album": "Fuck Da City Up", "City": "Atlanta", "Lyrics": "for fucking with the wrong one\r\nYa I got a short temper but I got a long gun\r\nCall the mac the chicken", "Artist": "T.I.", "Country": "USA", "Title": "Who What When", "Longitude": "-84.41918", "County": "Fulton", "State": "Georgia", "Latitude": "33.77155", "Type": "Solo M", "Release date": null},{"Album": "King", "City": "Atlanta", "Lyrics": "the chickens at\r\nRide wit me nigga, lemme show you where we kick it at\r\nWhere ho niggas be snitchin", "Artist": "T.I.", "Country": "USA", "Title": "Ride Wit Me", "Longitude": "-84.41918", "County": "Fulton", "State": "Georgia", "Latitude": "33.77155", "Type": "Solo M", "Release date": "2006-03-28"},{"Album": "10", "City": "Queens", "Lyrics": "It took all your might, but you ain't quit on life\r\nWe took trips down South, biscuits and chicken\r\nMe you", "Artist": "LL Cool J", "Country": "USA", "Title": "Big Mama (Unconditional Love)", "Longitude": "-73.829959", "County": "Queens", "State": "New York", "Latitude": "40.713985", "Type": "Solo M", "Release date": "2003-01-01"},{"Album": "14 Shots to the Dome", "City": "Queens", "Lyrics": "Air freshener is kickin', drive through for chicken\r\nI know you need a good stickin'\r\nThat's when", "Artist": "LL Cool J", "Country": "USA", "Title": "Back Seat", "Longitude": "-73.829959", "County": "Queens", "State": "New York", "Latitude": "40.713985", "Type": "Solo M", "Release date": "1993-01-01"},{"Album": "Any Given Sunday (Soundtrack)", "City": "Queens", "Lyrics": "Park and we got some chicken on the grill\r\nGet a beer, nigga chill, roll a joint, pop a peal\r\nCop", "Artist": "LL Cool J", "Country": "USA", "Title": "OutkastSole Sunday", "Longitude": "-73.829959", "County": "Queens", "State": "New York", "Latitude": "40.713985", "Type": "Solo M", "Release date": "2000-01-04"},{"Album": "Dedication 3", "City": "New Orleans", "Lyrics": "And 18 G's is why the chicken crossed the street\r\nWhatcha know 'bout it? my niggas so bout", "Artist": "Lil Wayne", "Country": "USA", "Title": "Stuntin'", "Longitude": "-90.077714", "County": "Orleans", "State": "Louisiana", "Latitude": "29.95369", "Type": "Solo M", "Release date": "2008-11-14"},{"Album": "I Can't Feel My Face Mixtape", "City": "New Orleans", "Lyrics": "steady cookin' chicken\r\nIf I'm living life wrong, I don't wanna be right\r\nSend me blessings to the cloud", "Artist": "Lil Wayne", "Country": "USA", "Title": "Let Us Pray", "Longitude": "-90.077714", "County": "Orleans", "State": "Louisiana", "Latitude": "29.95369", "Type": "Solo M", "Release date": "2006-01-01"},{"Album": "Record Single", "City": "Portsmouth", "Lyrics": "like a chicken saut\u00c3\u00a9\r\nTartar sauce on the fried fish I ate\r\nBitches tried to shimmy my shake\r\nBitches", "Artist": "Missy Elliott", "Country": "USA", "Title": "Bad Girls (N.A.R.S. Remix) (M.I.A.) (Ft. Azealia Banks)", "Longitude": "-76.297715", "County": "Portsmouth", "State": "Virginia", "Latitude": "36.832642", "Type": "Solo F", "Release date": null},{"Album": "Straight Outta Compton - 10th Anniversary Tribute", "City": "Compton", "Lyrics": "And if you fail to see, read it in braile\r\nI'll be still dumpin' chickens\r\nNow, what's next is the flex", "Artist": "N.W.A", "Country": "USA", "Title": "AllFrumTha IParental Discretion Iz Advised", "Longitude": "-118.224329", "County": "Los Angeles", "State": "California", "Latitude": "33.895285", "Type": "Group M", "Release date": "1998-11-03"},{"Album": "The R.E.D. Album", "City": "Compton", "Lyrics": ", and turn em back around)\r\nLook, if I give you half a chicken, can you break that bitch down?\r\nTell", "Artist": "Game", "Country": "USA", "Title": "Paramedics", "Longitude": "-118.224329", "County": "Los Angeles", "State": "California", "Latitude": "33.895285", "Type": "Solo M", "Release date": "2011-08-19"},{"Album": "Record Single", "City": "Bedford\u2013Stuyvesant", "Lyrics": "chicken strip tease us\r\nThighs leg and the breast part is the cleavage\r\nShe even lick it down to the bone", "Artist": "Joey BADA$$", "Country": "USA", "Title": "2013 XXL Freshman Cyphers - Episode 1 (Ft. Ab-Soul, Action Bronson & Travis Scott) prod. by Jahlil Beats", "Longitude": "-73.963796", "County": "Kings", "State": "New York", "Latitude": "40.692385", "Type": "Solo M", "Release date": null},{"Album": "Train of Thought (Reflection Eternal album)", "City": "Park Slope", "Lyrics": "it could be\r\nLove {*different language*} it ain't nuttin but a word\r\nA chicken ain't nuttin but a bird", "Artist": "Talib Kweli", "Country": "USA", "Title": "Love Language", "Longitude": "-73.977063", "County": "Kings", "State": "New York", "Latitude": "40.672404", "Type": "Solo M", "Release date": "2000-10-17"},{"Album": "You Know What it Is Volume 3", "City": "Compton", "Lyrics": "the truth\r\nThey bet visa's\r\nI'm gettn bread\r\nFuck chicken heads\r\nI sex divas\r\nAnd ma camp see ya\r\nGot", "Artist": "Game", "Country": "USA", "Title": "Lyrical Exercise", "Longitude": "-118.224329", "County": "Los Angeles", "State": "California", "Latitude": "33.895285", "Type": "Solo M", "Release date": "2006-01-01"},{"Album": "G.D.O.D.", "City": "Atlanta", "Lyrics": "to fuck\r\nSee your chicken' my pimpin as soon as I walked in\r\nShe just asked me one question, she said do", "Artist": "T.I.", "Country": "USA", "Title": "Hustle GangYeap!", "Longitude": "-84.41918", "County": "Fulton", "State": "Georgia", "Latitude": "33.77155", "Type": "Solo M", "Release date": "2013-05-07"},{"Album": "Short Dog's in the House", "City": "East Oakland", "Lyrics": "like a chicken wing\r\nIf could rap like me, they say you're so great\r\nBut when they talk about you", "Artist": "Too Short", "Country": "USA", "Title": "Rap Like Me", "Longitude": "-122.2591", "County": "Oakland", "State": "California", "Latitude": "37.8039", "Type": "Solo M", "Release date": "1990-01-01"},{"Album": "Record Single", "City": "Uniondale", "Lyrics": "in the cleaners\r\nChickenhead, give me some of your chicken fajitas\r\nYo I beg your pardon, I write my rhymes way", "Artist": "Busta Rhymes", "Country": "USA", "Title": "Abandon Ship (Ft. Rampage the Last Boy Scout)", "Longitude": "-73.593544", "County": "Nassau", "State": "New York", "Latitude": "40.717935", "Type": "Solo M", "Release date": null},{"Album": "The Coming", "City": "Uniondale", "Lyrics": "of your chicken fajitas\r\nYo I beg your pardon, I write my rhymes way past the margins\r\nSqueeze", "Artist": "Busta Rhymes", "Country": "USA", "Title": "Abandon Ship", "Longitude": "-73.593544", "County": "Nassau", "State": "New York", "Latitude": "40.717935", "Type": "Solo M", "Release date": "1996-01-01"},{"Album": "The Blueprint 2 The Gift The Curse", "City": "Brooklyn", "Lyrics": "of FEO Schwartz for the chill'uns\r\nSpent a few shillings\r\nSip a few chickens, lick a few kittens, just", "Artist": "Jay Z", "Country": "USA", "Title": "Poppin' Tags", "Longitude": "-73.989872", "County": "Kings", "State": "New York", "Latitude": "40.692385", "Type": "Solo M", "Release date": "2002-01-01"},{"Album": "Southernplayalisticadillacmuzik", "City": "Atlanta", "Lyrics": "up nigga, if you want some\r\n\r\n[Hook] (x2)\r\nAin't no thang but a chicken wang\r\nWe having a smoke out", "Artist": "Andre 3000", "Country": "USA", "Title": "Ain't No Thang", "Longitude": "-84.296548", "County": "DeKalb", "State": "Georgia", "Latitude": "33.775746", "Type": "Solo M", "Release date": "1994-01-01"},{"Album": "The Pinkprint", "City": "Jamaica", "Lyrics": "with, mad bitches we don't fuck with\r\nI don't fuck with them chickens unless they last name is Cutlet", "Artist": "Nicki Minaj", "Country": "USA", "Title": "Only", "Longitude": "-73.80842", "County": "Queens", "State": "New York", "Latitude": "40.701782", "Type": "Solo F", "Release date": "2014-01-01"},{"Album": "Tha Blue Carpet Treatment", "City": "Long Beach", "Lyrics": "Love\"\r\nOff some jerk chicken, I got mo' bitches\r\nNow I'm fuckin her sister it's gettin real", "Artist": "Snoop Dogg", "Country": "USA", "Title": "A Bitch I Knew", "Longitude": "-118.195556", "County": "Los Angeles", "State": "California", "Latitude": "33.768333", "Type": "Solo M", "Release date": "2006-11-21"},{"Album": "Kanye West Presents Good Music Cruel Summer", "City": "Chicago", "Lyrics": "after seven\r\nWe feed the nigga like forty chickens\r\nHis tail wag when I send him a bag with just one", "Artist": "Kanye West", "Country": "USA", "Title": "New God Flow", "Longitude": "-87.632409", "County": "Cook", "State": "Illinois", "Latitude": "41.88415", "Type": "Solo M", "Release date": "2012-09-14"},{"Album": "The Coming", "City": "Uniondale", "Lyrics": "like a blessin\r\nBlinkin, kickin, better back up chickens\r\nThe guns stun split, I keep it real, front", "Artist": "Busta Rhymes", "Country": "USA", "Title": "Keep It Movin'", "Longitude": "-73.593544", "County": "Nassau", "State": "New York", "Latitude": "40.717935", "Type": "Solo M", "Release date": "1996-01-01"},{"Album": "Stop Snitchin, Stop Lyin", "City": "Compton", "Lyrics": "' Mase\r\nYou niggas is pawns\r\n50, or Boo Boo, or Curtis, or Chicken Little, hahaha\r\nStop Snitchin\u00e2", "Artist": "Game", "Country": "USA", "Title": "120 Bars", "Longitude": "-118.224329", "County": "Los Angeles", "State": "California", "Latitude": "33.895285", "Type": "Solo M", "Release date": "2005-01-01"},{"Album": "Dedication 2", "City": "New Orleans", "Lyrics": "I toss em in the wok like chicken\r\nGeneral Tso, uh-oh!\r\n\r\n[Verse 3: Willie the Kid]\r\nI make it hard", "Artist": "Lil Wayne", "Country": "USA", "Title": "Cannon", "Longitude": "-90.077714", "County": "Orleans", "State": "Louisiana", "Latitude": "29.95369", "Type": "Solo M", "Release date": "2006-05-01"},{"Album": "Record Single", "City": "Long Beach", "Lyrics": "me beat it up, listenin to \"One Love\"\r\nOff some jerk chicken, I got mo' bitches\r\nNow I'm fuckin her", "Artist": "Snoop Dogg", "Country": "USA", "Title": "A Bitch I Knew prod. by DJ Battlecat & Rhythm D", "Longitude": "-118.195556", "County": "Los Angeles", "State": "California", "Latitude": "33.768333", "Type": "Solo M", "Release date": null},{"Album": "Beam Me Up Scotty (Mixtape)", "City": "Jamaica", "Lyrics": "These birds all fly south in the winter\r\nFuck I look like? Chomping on a chicken dinner?\r\nYou can hate me", "Artist": "Nicki Minaj", "Country": "USA", "Title": "Go Hard", "Longitude": "-73.80842", "County": "Queens", "State": "New York", "Latitude": "40.701782", "Type": "Solo F", "Release date": "2009-04-18"},{"Album": "Record Single", "City": "Bedford\u2013Stuyvesant", "Lyrics": "getting blown like the breezes\r\nYour chicken strip tease us, thighs leg and the breast part", "Artist": "Joey BADA$$", "Country": "USA", "Title": "2013 XXL Freshman Cyphers - Episode 1", "Longitude": "-73.963796", "County": "Kings", "State": "New York", "Latitude": "40.692385", "Type": "Solo M", "Release date": null},{"Album": "Record Single", "City": "Staten Island", "Lyrics": "chickens\r\nHis tail wag when I send him a bag with just one victim\r\nUh-huh, now let me show you what my", "Artist": "Ghostface Killah", "Country": "USA", "Title": "New God Flow (Kanye West) (Ft. Pusha T) prod. by Anthony Kilhoffer, Boogz N Tapes, Kanye West & Tapez", "Longitude": "-74.144839", "County": "Richmond", "State": "New York", "Latitude": "40.576281", "Type": "Solo M", "Release date": null},{"Album": "Chyna Doll", "City": "Brooklyn", "Lyrics": ", poppin' Dom P\r\nWhile you chicken when you chasin' your high with hot tea\r\nNiggas flashin' back", "Artist": "Foxy Brown", "Country": "USA", "Title": "4-5-6", "Longitude": "-73.989872", "County": "Kings", "State": "New York", "Latitude": "40.692385", "Type": "Solo F", "Release date": "1999-01-01"},{"Album": "Record Single", "City": "Brooklyn", "Lyrics": "Or the Shark Bar, grilled salmon, poppin' Dom P\r\nWhile you chicken when you chasin' your high", "Artist": "Foxy Brown", "Country": "USA", "Title": "4-5-6 (Ft. Beanie Sigel & Memphis Bleek)", "Longitude": "-73.989872", "County": "Kings", "State": "New York", "Latitude": "40.692385", "Type": "Solo F", "Release date": null},{"Album": "Record Single", "City": "Compton", "Lyrics": "' Mase\r\nYou niggas is pawns\r\n50, or Boo Boo, or Curtis, or Chicken Little, hahaha\r\nStop Snitchin\u00e2", "Artist": "Game", "Country": "USA", "Title": "120 Bars", "Longitude": "-118.224329", "County": "Los Angeles", "State": "California", "Latitude": "33.895285", "Type": "Solo M", "Release date": null},{"Album": "G.O.A.T. (Greatest Of All Time)", "City": "Queens", "Lyrics": "to say hello\r\nNot hear all that bullshit, bout, \"Nigga where you go?\"\r\nFried chicken ready, t-shirt", "Artist": "LL Cool J", "Country": "USA", "Title": "This is Us", "Longitude": "-73.829959", "County": "Queens", "State": "New York", "Latitude": "40.713985", "Type": "Solo M", "Release date": "2000-01-01"},{"Album": "Straight Outta Compton - 10th Anniversary Tribute", "City": "Compton", "Lyrics": "the date, I'mma want to do the wild thing\r\nYou want lobster huh? I'm thinkin' Chicken wing\r\nAnd when I", "Artist": "N.W.A", "Country": "USA", "Title": "Mr. MikeI Ain't tha 1", "Longitude": "-118.224329", "County": "Los Angeles", "State": "California", "Latitude": "33.895285", "Type": "Group M", "Release date": "1998-11-03"},{"Album": "Stop Snitchin, Stop Lyin", "City": "Compton", "Lyrics": "movies suck!\r\nChicken Little killed you nigga\r\nHahahaha *echos*\r\nHow you like it nigga\r\nI took your", "Artist": "Game", "Country": "USA", "Title": "Outro (Red Bandana)", "Longitude": "-118.224329", "County": "Los Angeles", "State": "California", "Latitude": "33.895285", "Type": "Solo M", "Release date": "2005-01-01"},{"Album": "Record Single", "City": "Detroit", "Lyrics": "in a while\r\nSo I wanna make sure somewhere in this chicken scratch I scribble and doodle\r\nEnough", "Artist": "Eminem", "Country": "USA", "Title": "Rap God prod. by DVLP", "Longitude": "-83.045833", "County": "Wayne", "State": "Michigan", "Latitude": "42.331389", "Type": "Solo M", "Release date": null},{"Album": "The Marshall Mathers LP 2", "City": "Detroit", "Lyrics": "I wanna make sure somewhere in this chicken scratch I scribble and doodle\r\nEnough rhymes to maybe", "Artist": "Eminem", "Country": "USA", "Title": "Rap God", "Longitude": "-83.045833", "County": "Wayne", "State": "Michigan", "Latitude": "42.331389", "Type": "Solo M", "Release date": "2013-11-05"},{"Album": "Da Real World", "City": "Portsmouth", "Lyrics": "/Undeas/Atlantic Recording Corporation\r\n\r\nStickin' Chickens\r\n\r\nWritten by: M. Elliott, T. Mosley, S", "Artist": "Missy Elliott", "Country": "USA", "Title": "Da Real World [Credits]", "Longitude": "-76.297715", "County": "Portsmouth", "State": "Virginia", "Latitude": "36.832642", "Type": "Solo F", "Release date": "1999-01-01"},{"Album": "Record Single", "City": "New Orleans", "Lyrics": ", down baby\"\r\nI used to dog chickens, cluck 'em, fuck 'em, and duck 'em\r\nBut now I'm more mature, I", "Artist": "Lil Wayne", "Country": "USA", "Title": "10,000 Bars", "Longitude": "-90.077714", "County": "Orleans", "State": "Louisiana", "Latitude": "29.95369", "Type": "Solo M", "Release date": null}]