[{"Album": "Gunz N' Butta", "City": "Harlem", "Lyrics": "chocolate dimes\r\nWasting your watches time(stop it 5)\r\n\r\n[Verse 2: Cam'ron]\r\nHe said he be coping", "Artist": "Camron", "Country": "USA", "Title": "Stop It 5", "Longitude": "-73.944862", "County": "Manhattan", "State": "New York", "Latitude": "40.806198", "Type": "Solo M", "Release date": "2011-01-01"},{"Album": "The Lex Diamond Story", "City": "Staten Island", "Lyrics": "your body twirl\r\nFrench vanilla cream, body work is mean\r\nChocolate fudge make a nigga wanna fall", "Artist": "Raekwon", "Country": "USA", "Title": "Ice Cream Pt. 2", "Longitude": "-74.144839", "County": "Richmond", "State": "New York", "Latitude": "40.576281", "Type": "Solo M", "Release date": "2003-01-01"},{"Album": "MM.. Food", "City": "Roosevelt", "Lyrics": "of his peoples can hook him with a tri-pack\r\nThat's three different flavors\r\nChocolate, vanilla", "Artist": "MF DOOM", "Country": "USA", "Title": "Kookies", "Longitude": "-73.585556", "County": "Nassau", "State": "New York", "Latitude": "40.679167", "Type": "Solo M", "Release date": "2004-11-16"},{"Album": "Before the Expensive Taste", "City": "Harlem", "Lyrics": "of piff by the boobies\r\nI got the bud like rudy\r\nEven white fellows wanna jump in the hot chocolate like", "Artist": "Azelia Banks", "Country": "USA", "Title": "Gimme a Chance (Mixtape Version)", "Longitude": "-73.948372", "County": "Manhattan", "State": "New York", "Latitude": "40.809033", "Type": "Solo F", "Release date": "2012-01-01"},{"Album": "Record Single", "City": "Staten Island", "Lyrics": "up in your guts\r\nFrench-vanilla, butter-pecan, chocolate-deluxe\r\nEven caramel sundaes is getting", "Artist": "Ghostface Killah", "Country": "USA", "Title": "Ice Cream (Raekwon) (Ft. Cappadonna & Method Man) prod. by RZA", "Longitude": "-74.144839", "County": "Richmond", "State": "New York", "Latitude": "40.576281", "Type": "Solo M", "Release date": null},{"Album": "Record Single", "City": "Staten Island", "Lyrics": "get all up in your guts\r\nFrench-vanilla, butter-pecan, chocolate-deluxe\r\nEven caramel sundaes", "Artist": "Raekwon", "Country": "USA", "Title": "Ice Cream (Ft. Cappadonna, Ghostface Killah & Method Man) prod. by RZA", "Longitude": "-74.144839", "County": "Richmond", "State": "New York", "Latitude": "40.576281", "Type": "Solo M", "Release date": null},{"Album": "Only Built 4 Cuban Linx...", "City": "Staten Island", "Lyrics": ", chocolate-deluxe\r\nEven caramel sundaes is getting touched\r\nAnd scooped in my ice cream truck, who tears", "Artist": "Raekwon", "Country": "USA", "Title": "Ice Cream", "Longitude": "-74.144839", "County": "Richmond", "State": "New York", "Latitude": "40.576281", "Type": "Solo M", "Release date": "1995-08-01"},{"Album": "2001", "City": "Compton", "Lyrics": "Hydro, doja, chocolate thai weed\r\nOr we might be sippin on gin or Hennessey\r\nFuck that, where", "Artist": "Dr. Dre", "Country": "USA", "Title": "Light Speed", "Longitude": "-118.224329", "County": "Los Angeles", "State": "California", "Latitude": "33.895285", "Type": "Solo M", "Release date": "1999-01-01"},{"Album": "R U Still Down? Remember Me", "City": "Marin City", "Lyrics": "on in the ghetto still struggle and strive\r\nI still roll with the heater smokin' chocolate thai\r\nIn 94", "Artist": "2Pac", "Country": "USA", "Title": "Fuck All Yall", "Longitude": "-122.516579", "County": "Marin", "State": "California", "Latitude": "37.87199", "Type": "Solo M", "Release date": "1997-01-01"},{"Album": "The Naked Truth", "City": "Bedford\u2013Stuyvesant", "Lyrics": "runway walk\r\nI got a sweet tooth for the chocolate guy\r\nSee him lickin on his lips with his chocolate", "Artist": "Lil Kim", "Country": "USA", "Title": "Kronik", "Longitude": "-73.944444", "County": "Kings", "State": "New York", "Latitude": "40.688889", "Type": "Solo F", "Release date": "2005-01-01"},{"Album": "The Chronic 2001", "City": "Compton", "Lyrics": "Hydro, doja, chocolate thai weed\r\nOr we might be sippin on gin or Hennessey\r\nFuck that, where", "Artist": "Dr. Dre", "Country": "USA", "Title": "Light Speed", "Longitude": "-118.224329", "County": "Los Angeles", "State": "California", "Latitude": "33.895285", "Type": "Solo M", "Release date": "1999-11-16"},{"Album": "Todd smith", "City": "Queens", "Lyrics": "lemondrops with chocolate kisses\r\nEvery bite is more delicious\r\nMy favorite flavor\r\n(Mix me and you", "Artist": "LL Cool J", "Country": "USA", "Title": "Favorite Flavor", "Longitude": "-73.829959", "County": "Queens", "State": "New York", "Latitude": "40.713985", "Type": "Solo M", "Release date": "2006-01-01"},{"Album": "Yeezus", "City": "Chicago", "Lyrics": "on your couch again\r\nBlack dick all in your spouse again\r\nAnd I know she like chocolate men\r\nShe got more", "Artist": "Kanye West", "Country": "USA", "Title": "On Sight", "Longitude": "-87.632409", "County": "Cook", "State": "Illinois", "Latitude": "41.88415", "Type": "Solo M", "Release date": "2013-06-18"},{"Album": "Detroit", "City": "Detroit", "Lyrics": "and stuff, and then uh, they'd go to Chocolate City, to the strip club.And I wasn't all into the strip", "Artist": "Big Sean", "Country": "USA", "Title": "Story by Common", "Longitude": "-83.045833", "County": "Wayne", "State": "Michigan", "Latitude": "42.331389", "Type": "Solo M", "Release date": "2012-01-01"},{"Album": "Ready to Die", "City": "Bedford\u2013Stuyvesant", "Lyrics": "Glocks,it's\r\nNatural to eat you niggas like chocolates\r\nThe funk, baby\r\n\r\n[Hook]\r\n\"I live", "Artist": "The Notorious B.I.G.", "Country": "USA", "Title": "Machine Gun Funk", "Longitude": "-73.963796", "County": "Kings", "State": "New York", "Latitude": "40.692385", "Type": "Solo M", "Release date": "1994-09-13"},{"Album": "Fuck Da City Up", "City": "Atlanta", "Lyrics": "between ya ass and I'll blow it\r\nI'm talkin' Cool Whip, apple pie, chocolate cake or ice cream\r\nSpread", "Artist": "T.I.", "Country": "USA", "Title": "This Time Of Night", "Longitude": "-84.41918", "County": "Fulton", "State": "Georgia", "Latitude": "33.77155", "Type": "Solo M", "Release date": null},{"Album": "Baking Soda Single", "City": "Harlem", "Lyrics": "call it chocolate\r\nTrim yellow Porsche is you can call it cautious\r\nGo down \u00e2\u20ac\u00a6\r\nHaters get coasted", "Artist": "A$AP Rocky", "Country": "USA", "Title": "Baking Soda", "Longitude": "-73.944862", "County": "Manhattan", "State": "New York", "Latitude": "40.806198", "Type": "Solo M", "Release date": null},{"Album": "Dedication 4", "City": "New Orleans", "Lyrics": "And this also dedicated to the bad bitches\r\nFirst off, them chocolate women\r\nI know I talk about", "Artist": "Lil Wayne", "Country": "USA", "Title": "Dedication", "Longitude": "-90.077714", "County": "Orleans", "State": "Louisiana", "Latitude": "29.95369", "Type": "Solo M", "Release date": "2012-09-03"},{"Album": "Urban Legend", "City": "Atlanta", "Lyrics": "[Hook]\r\n\r\nPeanut butter, Royal Chocolate\r\nCaramel Jazzebell\r\nI offer dick you offer ass for sell\r\nNow", "Artist": "T.I.", "Country": "USA", "Title": "Limelight", "Longitude": "-84.41918", "County": "Fulton", "State": "Georgia", "Latitude": "33.77155", "Type": "Solo M", "Release date": "2004-11-30"},{"Album": "Unexpected Victory", "City": "Staten Island", "Lyrics": "]\r\nChocolate Scaglietti heavy\r\nRoaming in funeral homes, coughing niggas up when I'm ready\r\nFirst base", "Artist": "Raekwon", "Country": "USA", "Title": "That Good Good", "Longitude": "-74.144839", "County": "Richmond", "State": "New York", "Latitude": "40.576281", "Type": "Solo M", "Release date": "2012-01-01"},{"Album": "Sucka Free (Mixtape)", "City": "Jamaica", "Lyrics": "you want them B cups or them C cups?\r\nFor your ice cream, chocolate or butter P cups\r\nFrench", "Artist": "Nicki Minaj", "Country": "USA", "Title": "Cuchi Shop", "Longitude": "-73.80842", "County": "Queens", "State": "New York", "Latitude": "40.701782", "Type": "Solo F", "Release date": "2008-01-01"},{"Album": "When Disaster Strikes...", "City": "Uniondale", "Lyrics": "the bomb chocolate from off Lynden and Utica\r\nMy real live niggas in the place and no queen\r\nWave your", "Artist": "Busta Rhymes", "Country": "USA", "Title": "Get High Tonight", "Longitude": "-73.593544", "County": "Nassau", "State": "New York", "Latitude": "40.717935", "Type": "Solo M", "Release date": "1997-09-16"},{"Album": "GhostDeini the Great", "City": "Staten Island", "Lyrics": "and chestnuts, rosting like marshmellows\r\nGoodfellas, chocolate pudding pops and Jell-O's", "Artist": "Ghostface Killah", "Country": "USA", "Title": "Ghostface X-Mas", "Longitude": "-74.144839", "County": "Richmond", "State": "New York", "Latitude": "40.576281", "Type": "Solo M", "Release date": "2008-12-16"},{"Album": "Year Of The Dragon", "City": "Uniondale", "Lyrics": "if you did, you'd probably get your fucking hand off me\r\nIt's Damier leather chocolate darker than coffee", "Artist": "Busta Rhymes", "Country": "USA", "Title": "Make It Look Easy", "Longitude": "-73.593544", "County": "Nassau", "State": "New York", "Latitude": "40.717935", "Type": "Solo M", "Release date": "2012-08-21"},{"Album": "I'm Good", "City": "Chicago", "Lyrics": "the game, 'til we all can eat\r\n\r\n[Consequence]\r\nNow the Chocolate Factory is what I bump in my jeep", "Artist": "Kanye West", "Country": "USA", "Title": "Electric Relaxation 2003", "Longitude": "-87.632409", "County": "Cook", "State": "Illinois", "Latitude": "41.88415", "Type": "Solo M", "Release date": "2007-09-11"},{"Album": "Fantasea", "City": "Harlem", "Lyrics": "it slow, that chocolate body, that tootsie roll\r\nThat flirty Hershey, lawd' a mercy, do it to me, don't", "Artist": "Azelia Banks", "Country": "USA", "Title": "Chips", "Longitude": "-73.948372", "County": "Manhattan", "State": "New York", "Latitude": "40.809033", "Type": "Solo F", "Release date": "2012-07-11"},{"Album": "Record Single", "City": "South Bronx", "Lyrics": "is like a Nabisco\r\nChocolate chip cookie, don't fuck with me rookie\r\nI'm rocking beats and with death", "Artist": "KRS-ONE", "Country": "USA", "Title": "Hip Hop Vs. Rap", "Longitude": "-73.91735", "County": "The Bronx", "State": "New York", "Latitude": "40.81621", "Type": "Solo M", "Release date": null},{"Album": "California Republic", "City": "Compton", "Lyrics": "I'll be piggin' out\r\nNever take her out to crustaceans, it be In-N-Out\r\nJust like that Chocolate", "Artist": "Game", "Country": "USA", "Title": "Hit The J", "Longitude": "-118.224329", "County": "Los Angeles", "State": "California", "Latitude": "33.895285", "Type": "Solo M", "Release date": "2012-04-05"},{"Album": "The Cookbook", "City": "Portsmouth", "Lyrics": "play, position more than 40 ways\r\nLike a chocolate glaze, I'm hotter than a summer day\r\nStingray", "Artist": "Missy Elliott", "Country": "USA", "Title": "Click Clack", "Longitude": "-76.297715", "County": "Portsmouth", "State": "Virginia", "Latitude": "36.832642", "Type": "Solo F", "Release date": "2005-01-01"},{"Album": "Purple Haze", "City": "Harlem", "Lyrics": "chocolate Airs\r\nYou ain't gotta stare, go cop a pair\r\nStill the scrutiny, nothing they can do to me", "Artist": "Camron", "Country": "USA", "Title": "Harlem Streets", "Longitude": "-73.944862", "County": "Manhattan", "State": "New York", "Latitude": "40.806198", "Type": "Solo M", "Release date": "2004-01-01"},{"Album": "She Got Game", "City": "Wilson", "Lyrics": "for chocolate\r\nRiding high with my dawgs, man, y'all tried to top it\r\nI kept the soul in the game", "Artist": "Rapsody", "Country": "USA", "Title": "Never Know", "Longitude": "-77.923611", "County": "Wilson", "State": "North Carolina", "Latitude": "35.731111", "Type": "Solo F", "Release date": "2013-01-01"},{"Album": "She Got Game", "City": "Wilson", "Lyrics": "for chocolate\r\nRiding high with my dawgs, man, y'all tried to top it\r\nI kept the soul in the game", "Artist": "Rapsody", "Country": "USA", "Title": "Never Know", "Longitude": "-77.923611", "County": "Wilson", "State": "North Carolina", "Latitude": "35.731111", "Type": "Solo F", "Release date": "2013-09-17"},{"Album": "Record Single", "City": "Queensbridge", "Lyrics": "and stunning, light and delicious\r\nChocolate colored strawberry kisses and cherry lipstick\r\nVery mystic", "Artist": "Nas", "Country": "USA", "Title": "Another Black Girl Lost", "Longitude": "-73.937622", "County": "Queens", "State": "New York", "Latitude": "40.756279", "Type": "Solo M", "Release date": null},{"Album": "The Pinkprint", "City": "Jamaica", "Lyrics": "became a vacuum, put it on my dick like carpet\r\nSuck the white off white chocolate\r\nI'm so heartless", "Artist": "Nicki Minaj", "Country": "USA", "Title": "Truffle Butter", "Longitude": "-73.80842", "County": "Queens", "State": "New York", "Latitude": "40.701782", "Type": "Solo F", "Release date": "2014-01-01"},{"Album": "Record Single", "City": "Brooklyn", "Lyrics": "sexual chocolate bar and I got to keep it strong for tha\r\nCause and you got to keep me strong", "Artist": "MC Lyte", "Country": "USA", "Title": "I Wanna Be Down (Remix) (Brandy) (Ft. Queen Latifah & Yo-Yo)", "Longitude": "-73.989872", "County": "Kings", "State": "New York", "Latitude": "40.692385", "Type": "Solo F", "Release date": null},{"Album": "Blow the Whistle", "City": "East Oakland", "Lyrics": "and I start to wonder\r\nIs there any mo' stuck up hoes out yonder\r\nSexy brown chocolate vanilla", "Artist": "Too Short", "Country": "USA", "Title": "Sadity", "Longitude": "-122.2591", "County": "Oakland", "State": "California", "Latitude": "37.8039", "Type": "Solo M", "Release date": "2006-01-01"},{"Album": "How to Be a Player soundtrack", "City": "Brooklyn", "Lyrics": "For the best effect you got to use your tongue\r\nFind my G-Spot get me hot I'm ill\r\nFoxy, chocolate", "Artist": "Foxy Brown", "Country": "USA", "Title": "Big Bad Mamma", "Longitude": "-73.989872", "County": "Kings", "State": "New York", "Latitude": "40.692385", "Type": "Solo F", "Release date": "1997-08-05"},{"Album": "Fantasea", "City": "Harlem", "Lyrics": "but she's a deuce\r\nWanna see the little Bambi in the nude\r\nChocolate candy, liqourice too\r\n\r\nWanna", "Artist": "Azelia Banks", "Country": "USA", "Title": "Esta Noche", "Longitude": "-73.948372", "County": "Manhattan", "State": "New York", "Latitude": "40.809033", "Type": "Solo F", "Release date": "2012-07-11"},{"Album": "The Vatican Mixtape, Vol. 1", "City": "Staten Island", "Lyrics": "bitches, most got extorted\r\n\r\n[Doo Wop]\r\nYo, aqua swiss iceberg wrist, the chocolate swiss miss", "Artist": "Raekwon", "Country": "USA", "Title": "You Might Die", "Longitude": "-74.144839", "County": "Richmond", "State": "New York", "Latitude": "40.576281", "Type": "Solo M", "Release date": "2007-02-27"},{"Album": "The Definition", "City": "Queens", "Lyrics": "and slow\r\nI love to take my time, love to give you a show\r\nGet the warm chocolate syrup to travel", "Artist": "LL Cool J", "Country": "USA", "Title": "Can't Explain It", "Longitude": "-73.829959", "County": "Queens", "State": "New York", "Latitude": "40.713985", "Type": "Solo M", "Release date": "2004-08-31"},{"Album": "Life After Death", "City": "Bedford\u2013Stuyvesant", "Lyrics": "with them\r\nI mean loyalty, niggas bought me milks at lunch\r\nThe milks was chocolate, the cookies", "Artist": "The Notorious B.I.G.", "Country": "USA", "Title": "Sky's The Limit", "Longitude": "-73.963796", "County": "Kings", "State": "New York", "Latitude": "40.692385", "Type": "Solo M", "Release date": "1997-01-01"},{"Album": "You Nasty", "City": "East Oakland", "Lyrics": "I told you \"look around, who you wanna fuck?\"\r\nYou picked thick chocolate, big booty, big tits\r\nI", "Artist": "Too Short", "Country": "USA", "Title": "2 Bitches", "Longitude": "-122.2591", "County": "Oakland", "State": "California", "Latitude": "37.8039", "Type": "Solo M", "Release date": "2000-01-01"},{"Album": "Late Registration", "City": "Chicago", "Lyrics": "]\r\n\r\n[Verse 2]\r\nForrest Gump mama said, life is like a box of chocolates\r\nMy mama told me go to school", "Artist": "Kanye West", "Country": "USA", "Title": "Hey Mama", "Longitude": "-87.632409", "County": "Cook", "State": "Illinois", "Latitude": "41.88415", "Type": "Solo M", "Release date": "2005-01-01"},{"Album": "Def Jam S How To Be A Player Soundtrack", "City": "Brooklyn", "Lyrics": "For the best effect you got to use your tongue\r\nFind my G-Spot get me hot I'm ill\r\nFoxy, chocolate", "Artist": "Foxy Brown", "Country": "USA", "Title": "Big Bad Mamma", "Longitude": "-73.989872", "County": "Kings", "State": "New York", "Latitude": "40.692385", "Type": "Solo F", "Release date": "1997-08-05"},{"Album": "Ghostdini: Wizard of Poetry in Emerald City", "City": "Staten Island", "Lyrics": "chocolate\r\nAnd you mad cause you played yourself, it's your fault, trick\r\n\r\n[Hook]\r\n\r\n[Ne-Yo]\r\nShot", "Artist": "Ghostface Killah", "Country": "USA", "Title": "Back Like That (Remix)", "Longitude": "-74.144839", "County": "Richmond", "State": "New York", "Latitude": "40.576281", "Type": "Solo M", "Release date": "2009-09-29"},{"Album": "Put it on the Line", "City": "Staten Island", "Lyrics": "words in the streets\r\nRoll sheets to the icky, chocolate Wonka\r\nI'm like the ice cream man, I make", "Artist": "Ghostface Killah", "Country": "USA", "Title": "Outta the Way", "Longitude": "-74.144839", "County": "Richmond", "State": "New York", "Latitude": "40.576281", "Type": "Solo M", "Release date": "2005-11-18"},{"Album": "5 (Murder By Numbers)", "City": "Queens", "Lyrics": "not for me but you can get your ass whiped\r\nLimited time, skip the foreplay\r\nI be a chocolate", "Artist": "50 Cent", "Country": "USA", "Title": "Turn The Lights On", "Longitude": "-73.829959", "County": "Queens", "State": "New York", "Latitude": "40.713985", "Type": "Solo M", "Release date": "2012-07-06"},{"Album": "The Lost Tape", "City": "Queens", "Lyrics": "When your emotions start to shift\r\nI\u00e2\u20ac\u2122ma just shoot that over your brown eyes\r\nTo chocolate thighs", "Artist": "50 Cent", "Country": "USA", "Title": "Planet 50", "Longitude": "-73.829959", "County": "Queens", "State": "New York", "Latitude": "40.713985", "Type": "Solo M", "Release date": "2012-05-22"},{"Album": "Broke With Expensive Taste", "City": "Harlem", "Lyrics": "]\r\nOh, l\u00c3\u00a0 l\u00c3\u00a0 l\u00c3\u00a0\r\nFlirting with a cool French dude named Antoine\r\nWanna taste the pastry chocolate", "Artist": "Azelia Banks", "Country": "USA", "Title": "1991", "Longitude": "-73.948372", "County": "Manhattan", "State": "New York", "Latitude": "40.809033", "Type": "Solo F", "Release date": "2014-01-01"},{"Album": "Broke With Expensive Taste", "City": "Harlem", "Lyrics": "on for her city, I pop in Metropolis\r\nHold this- chocolate and focused. know this- vocal and chosen", "Artist": "Azelia Banks", "Country": "USA", "Title": "Gimme a Chance", "Longitude": "-73.948372", "County": "Manhattan", "State": "New York", "Latitude": "40.809033", "Type": "Solo F", "Release date": "2014-01-01"},{"Album": "Oke Operation Kill Everything", "City": "Compton", "Lyrics": "it out like a box of free stussy\r\nWith two chocolate treats and roses no tootsie\r\nBed with both of em", "Artist": "Game", "Country": "USA", "Title": "TD", "Longitude": "-118.224329", "County": "Los Angeles", "State": "California", "Latitude": "33.895285", "Type": "Solo M", "Release date": "2013-01-01"},{"Album": "Last Real Nigga Alive (The Lost Album Vol. 1)", "City": "Queensbridge", "Lyrics": "it\r\nOnly in the club one minute guess who I slip with\r\nA chocolate dike ghetto thing sweet\r\nWe going", "Artist": "Nas", "Country": "USA", "Title": "I Already Know", "Longitude": "-73.937622", "County": "Queens", "State": "New York", "Latitude": "40.756279", "Type": "Solo M", "Release date": "2011-01-01"},{"Album": "G.O.A.T. (Greatest Of All Time)", "City": "Queens", "Lyrics": "fuckin with the Hoyas\r\nLookin for a darkskin chocolate chick\r\nBowlegged with a perm and the ass was thick", "Artist": "LL Cool J", "Country": "USA", "Title": "M.I.S.S.I.", "Longitude": "-73.829959", "County": "Queens", "State": "New York", "Latitude": "40.713985", "Type": "Solo M", "Release date": "2000-01-01"},{"Album": "Record Single", "City": "East Oakland", "Lyrics": "to the strip club\r\nI told you \"look around, who you wanna fuck?\"\r\nYou picked thick chocolate, big", "Artist": "Too Short", "Country": "USA", "Title": "2 Bitches prod. by Jazze Pha", "Longitude": "-122.2591", "County": "Oakland", "State": "California", "Latitude": "37.8039", "Type": "Solo M", "Release date": null},{"Album": "Record Single", "City": "Brooklyn", "Lyrics": "Foxy, chocolate baby, Got Milk?\r\nShake that ass like you just don't care\r\nCause y'all just rookies", "Artist": "Foxy Brown", "Country": "USA", "Title": "Big Bad Mamma (Ft. Dru Hill)", "Longitude": "-73.989872", "County": "Kings", "State": "New York", "Latitude": "40.692385", "Type": "Solo F", "Release date": null},{"Album": "More Fish", "City": "Staten Island", "Lyrics": "chocolate\r\nAnd you mad cause you played yourself, it's your fault, trick\r\n\r\n[Hook]\r\n\r\n[Ne-Yo]\r\nShot", "Artist": "Ghostface Killah", "Country": "USA", "Title": "Back Like That (Remix)", "Longitude": "-74.144839", "County": "Richmond", "State": "New York", "Latitude": "40.576281", "Type": "Solo M", "Release date": "2006-01-01"},{"Album": "Cookies or Comas", "City": "Brooklyn", "Lyrics": "to lock it down\r\nGot green in the black sacks of chocolate\r\nStop it, before you say something that's out", "Artist": "Jean Grae", "Country": "USA", "Title": "RIP", "Longitude": "-73.989872", "County": "Kings", "State": "New York", "Latitude": "40.692385", "Type": "Solo F", "Release date": "2011-01-01"},{"Album": "Broke With Expensive Taste", "City": "Harlem", "Lyrics": "but she's a deuce\r\nWanna see the little Bambi in the nude\r\nChocolate candy, liqourice too\r\n\r\nWanna", "Artist": "Azelia Banks", "Country": "USA", "Title": "Esta Noche", "Longitude": "-73.948372", "County": "Manhattan", "State": "New York", "Latitude": "40.809033", "Type": "Solo F", "Release date": "2014-01-01"},{"Album": "Duets: The Final Chapter", "City": "Bedford\u2013Stuyvesant", "Lyrics": "prover, the chocolate tah smoker (huh?)\r\nI like to mack in Maximas and Acuras\r\nYour girl butt cheeks", "Artist": "The Notorious B.I.G.", "Country": "USA", "Title": "Living the Life", "Longitude": "-73.963796", "County": "Kings", "State": "New York", "Latitude": "40.692385", "Type": "Solo M", "Release date": "2005-01-01"},{"Album": "Life After Death", "City": "Bedford\u2013Stuyvesant", "Lyrics": "I'm tastin at the tip of my lips\r\nI can't wait to feel my clip in his hips\r\n\"Pass the chocolate Thai", "Artist": "The Notorious B.I.G.", "Country": "USA", "Title": "Somebody Gotta Die", "Longitude": "-73.963796", "County": "Kings", "State": "New York", "Latitude": "40.692385", "Type": "Solo M", "Release date": "1997-01-01"},{"Album": "Kendrick Lamar - The Vault Vol 1", "City": "Compton", "Lyrics": "making love for the slowpokes\r\nHere we go though -- Soul got a blunt rolled up\r\nChocolate Thai got me", "Artist": "Kendrick Lamar", "Country": "USA", "Title": "Ab-SoulMurder You Rappers", "Longitude": "-118.224329", "County": "Los Angeles", "State": "California", "Latitude": "33.895285", "Type": "Solo M", "Release date": "2010-01-01"},{"Album": "Death Row Greatest Hits", "City": "Compton", "Lyrics": ", 225: pure chocolate\r\nYour chances of jacking me are slim G\r\nCause I rock from summer until Santa", "Artist": "Dr. Dre", "Country": "USA", "Title": "Keep Their Heads Ringin'", "Longitude": "-118.224329", "County": "Los Angeles", "State": "California", "Latitude": "33.895285", "Type": "Solo M", "Release date": "1996-11-26"},{"Album": "Supreme Clientele", "City": "Staten Island", "Lyrics": ", buy a little chocolate, a little shake or something, youknowhatImean\r\nA little buttercrunch joints", "Artist": "Ghostface Killah", "Country": "USA", "Title": "Child's Play", "Longitude": "-74.144839", "County": "Richmond", "State": "New York", "Latitude": "40.576281", "Type": "Solo M", "Release date": "2000-02-08"},{"Album": "Relapse", "City": "Detroit", "Lyrics": ", shit\r\nLure the little boy with the chocolate chips ahoy! chip-\r\nCookie lookie even took me", "Artist": "Eminem", "Country": "USA", "Title": "Bagpipes from Baghdad", "Longitude": "-83.045833", "County": "Wayne", "State": "Michigan", "Latitude": "42.331389", "Type": "Solo M", "Release date": "2009-05-19"},{"Album": "GhostDeini the Great", "City": "Staten Island", "Lyrics": "movement, Glock holding kids\r\nWith the chocolate boomers, aiyo fuck those rumors\r\nLeave your chick around", "Artist": "Ghostface Killah", "Country": "USA", "Title": "The Champ (Remix)", "Longitude": "-74.144839", "County": "Richmond", "State": "New York", "Latitude": "40.576281", "Type": "Solo M", "Release date": "2008-12-16"},{"Album": "Get In Where You Fit In", "City": "East Oakland", "Lyrics": "Chocolate Cityfor the black folks\r\nSay it loud in ya hot pants\r\nMan child in the promised land\r\nI take", "Artist": "Too Short", "Country": "USA", "Title": "Money in the Ghetto", "Longitude": "-122.2591", "County": "Oakland", "State": "California", "Latitude": "37.8039", "Type": "Solo M", "Release date": "1994-01-01"},{"Album": "Record Single", "City": "Wilson", "Lyrics": ", know it adds up, staying positive\r\nThat's common sense, like water for chocolate\r\nRiding high with my", "Artist": "Rapsody", "Country": "USA", "Title": "Never Know (Ft. Ab-Soul, Nipsey Hu$$le & Terrace Martin) prod. by 9th Wonder", "Longitude": "-77.923611", "County": "Wilson", "State": "North Carolina", "Latitude": "35.731111", "Type": "Solo F", "Release date": null},{"Album": "Trilla", "City": "Carol City", "Lyrics": "with that?\r\nGot a deadbeat dad, but he far from dead\r\nHe never knew chocolate milk make you fart real bad", "Artist": "Rick Ross", "Country": "USA", "Title": "I'm Only Human", "Longitude": "-80.269920", "County": "Miami-Dade", "State": "Florida", "Latitude": "25.942121", "Type": "Solo M", "Release date": "2008-03-11"},{"Album": "Tha Last Meal", "City": "Long Beach", "Lyrics": "call it stress, some of y'all call it chocolate\r\nReturn of the Top Dogg, and ain't no stopping", "Artist": "Snoop Dogg", "Country": "USA", "Title": "Lay Low", "Longitude": "-118.195556", "County": "Los Angeles", "State": "California", "Latitude": "33.768333", "Type": "Solo M", "Release date": "2000-12-19"},{"Album": "2001", "City": "Compton", "Lyrics": "afternoon\r\nNigga Bathed & got groomed, grabbed the gat for misbehavors\r\nAnd the chocolate flavored boom", "Artist": "Dr. Dre", "Country": "USA", "Title": "Ackrite", "Longitude": "-118.224329", "County": "Los Angeles", "State": "California", "Latitude": "33.895285", "Type": "Solo M", "Release date": "1999-01-01"},{"Album": "Record Single", "City": "Compton", "Lyrics": "a Sunday afternoon\r\nMy nigga Babe got room, grab the gat for misbehavors\r\nAnd the chocolate faded boom", "Artist": "Dr. Dre", "Country": "USA", "Title": "Ackrite (Ft. Hittman)", "Longitude": "-118.224329", "County": "Los Angeles", "State": "California", "Latitude": "33.895285", "Type": "Solo M", "Release date": null},{"Album": "The Don Killuminati: The 7 Day Theory", "City": "Marin City", "Lyrics": "a ounce to the head\r\nChocolate tye, indo, Hawaiian, lambsbread, buddha, all that shit\r\nI'm fucked up", "Artist": "2Pac", "Country": "USA", "Title": "Krazy", "Longitude": "-122.516579", "County": "Marin", "State": "California", "Latitude": "37.87199", "Type": "Solo M", "Release date": "1996-01-01"},{"Album": "Eminem Presents: The Re-Up", "City": "Detroit", "Lyrics": ", nothin is more iller\r\nNo discrimination, you could be chocolate or vanilla\r\nAnd find yourself", "Artist": "Eminem", "Country": "USA", "Title": "Stat QuoBy My Side", "Longitude": "-83.045833", "County": "Wayne", "State": "Michigan", "Latitude": "42.331389", "Type": "Solo M", "Release date": "2006-12-05"},{"Album": "Record Single", "City": "Long Beach", "Lyrics": "... I'm servin em like two scoops of chocolate\r\nCheck it how I rock it\r\nI'm the one that's throwin", "Artist": "Snoop Dogg", "Country": "USA", "Title": "Afro Puffs (The Lady of Rage) prod. by Daz Dillinger & Dr. Dre", "Longitude": "-118.195556", "County": "Los Angeles", "State": "California", "Latitude": "33.768333", "Type": "Solo M", "Release date": null},{"Album": "Above The Rim The Soundtrack", "City": "Compton", "Lyrics": "with the speed of a cheetah, meet a\r\nLyrical murderer... I'm servin em like two scoops of chocolate\r\nCheck", "Artist": "Dr. Dre", "Country": "USA", "Title": "Afro Puffs", "Longitude": "-118.224329", "County": "Los Angeles", "State": "California", "Latitude": "33.895285", "Type": "Solo M", "Release date": "1994-01-01"},{"Album": "Death Row Greatest Hits", "City": "Compton", "Lyrics": "your bedtime\r\nFeel the blast of the chocolate bomber\r\nInfra red aimed at your head like your name", "Artist": "Dr. Dre", "Country": "USA", "Title": "Natural Born Killaz", "Longitude": "-118.224329", "County": "Los Angeles", "State": "California", "Latitude": "33.895285", "Type": "Solo M", "Release date": "1996-11-26"},{"Album": "Death Row Greatest Hits", "City": "Compton", "Lyrics": "of chocolate\r\nCheck it how I rock it\r\nI'm the one that's throwin bolos, ya better roll a Rolo\r\nTo find", "Artist": "Dr. Dre", "Country": "USA", "Title": "The Lady of RageAfro Puffs", "Longitude": "-118.224329", "County": "Los Angeles", "State": "California", "Latitude": "33.895285", "Type": "Solo M", "Release date": "1996-11-26"},{"Album": "Record Single", "City": "Compton", "Lyrics": "murderer... I'm servin em like two scoops of chocolate\r\nCheck it how I rock it\r\nI'm the one", "Artist": "Dr. Dre", "Country": "USA", "Title": "Afro Puffs (The Lady of Rage) (Ft. Snoop Dogg) prod. by Daz Dillinger", "Longitude": "-118.224329", "County": "Los Angeles", "State": "California", "Latitude": "33.895285", "Type": "Solo M", "Release date": null},{"Album": "Anarchy", "City": "Uniondale", "Lyrics": "Dufflebag swollen, we holdin\r\nDrink chocolate milk before we roll in\r\nIt's like that ya'll, we", "Artist": "Busta Rhymes", "Country": "USA", "Title": "The Heist", "Longitude": "-73.593544", "County": "Nassau", "State": "New York", "Latitude": "40.717935", "Type": "Solo M", "Release date": "2000-01-01"},{"Album": "To Pimp a Butterfly", "City": "Compton", "Lyrics": "of chocolate\r\nQuid pro quo, somethin' for somethin', that's the obvious\r\nOh shit, flow's so sick", "Artist": "Kendrick Lamar", "Country": "USA", "Title": "Institutionalized", "Longitude": "-118.224329", "County": "Los Angeles", "State": "California", "Latitude": "33.895285", "Type": "Solo M", "Release date": "2015-01-01"},{"Album": "Life Is Good", "City": "Queensbridge", "Lyrics": "the baldy\r\nUsed to ride with him to Brooklyn, Lewis and Halsey\r\nCop chocolate Thai, Vernon style", "Artist": "Nas", "Country": "USA", "Title": "You Wouldn't Understand", "Longitude": "-73.937622", "County": "Queens", "State": "New York", "Latitude": "40.756279", "Type": "Solo M", "Release date": "2012-01-01"},{"Album": "Queensbridge: The Album", "City": "Queensbridge", "Lyrics": "size\r\nA bully to little guys\r\nWith chocolate miks and apple pies\r\nThe playground was mine\r\nI stayed", "Artist": "Nas", "Country": "USA", "Title": "Kids in Da P.J.'s", "Longitude": "-73.937622", "County": "Queens", "State": "New York", "Latitude": "40.756279", "Type": "Solo M", "Release date": "2000-11-21"},{"Album": "Record Single", "City": "Portsmouth", "Lyrics": "is en casa\r\nBeen in Bahamas\r\nEating all this chocolate\r\nTell me Willy Wonka-Wonga\r\nI'm a Mac Truck", "Artist": "Missy Elliott", "Country": "USA", "Title": "Bad Girls (N.A.R.S. Remix) (M.I.A.) (Ft. Azealia Banks)", "Longitude": "-76.297715", "County": "Portsmouth", "State": "Virginia", "Latitude": "36.832642", "Type": "Solo F", "Release date": null},{"Album": "The Dynasty: Roc La Familia", "City": "Brooklyn", "Lyrics": ")\r\nYak in my pocket,smokin the sticky chocolate(OO-WEE!)\r\nHolla if you want drama with\r\n\r\n[Jay-Z", "Artist": "Jay Z", "Country": "USA", "Title": "Change the Game", "Longitude": "-73.989872", "County": "Kings", "State": "New York", "Latitude": "40.692385", "Type": "Solo M", "Release date": "2000-01-01"},{"Album": "The Slim Shady LP", "City": "Detroit", "Lyrics": "This is for every time you took my orange juice\r\nOr stole my seat in the lunchroom and drank my chocolate milk", "Artist": "Eminem", "Country": "USA", "Title": "Brain Damage", "Longitude": "-83.045833", "County": "Wayne", "State": "Michigan", "Latitude": "42.331389", "Type": "Solo M", "Release date": "1999-02-23"},{"Album": "The Big Doe Rehab", "City": "Staten Island", "Lyrics": "the deal?\r\nChocolate, light skin, meet Mr. Excitement\r\nGot my D.D.L. on me, that's my Dick 'em Down", "Artist": "Ghostface Killah", "Country": "USA", "Title": "Supa GFK", "Longitude": "-74.144839", "County": "Richmond", "State": "New York", "Latitude": "40.576281", "Type": "Solo M", "Release date": "2007-12-04"},{"Album": "The Pretty Toney Album", "City": "Staten Island", "Lyrics": "Biscuits\n\r\n[Intro: Ghostface Killah]\r\nYo... who the fuck brought me this chocolate shit, man?\r\nI", "Artist": "Ghostface Killah", "Country": "USA", "Title": "Biscuits", "Longitude": "-74.144839", "County": "Richmond", "State": "New York", "Latitude": "40.576281", "Type": "Solo M", "Release date": "2004-04-20"},{"Album": "Bad Girls Remixes Ep", "City": "Portsmouth", "Lyrics": "in Bahamas\r\nEating all this chocolate\r\nTell me Willy Wonka-Wonga\r\nI'm a Mac Truck\r\nAnd you niggas are Tonkas", "Artist": "Missy Elliott", "Country": "USA", "Title": "Bad Girls (N.A.R.S. Remix)", "Longitude": "-76.297715", "County": "Portsmouth", "State": "Virginia", "Latitude": "36.832642", "Type": "Solo F", "Release date": "2012-07-03"},{"Album": "The Chronic 2001", "City": "Compton", "Lyrics": "My nigga Babe got room, grab the gat for misbehavors\r\nAnd the chocolate faded boom, flossin hip", "Artist": "Dr. Dre", "Country": "USA", "Title": "Ackrite", "Longitude": "-118.224329", "County": "Los Angeles", "State": "California", "Latitude": "33.895285", "Type": "Solo M", "Release date": "1999-11-16"},{"Album": "Cam'Ron Presents DukeDaGod - DipSet: The Movement Moves On", "City": "Harlem", "Lyrics": "with Mr. Mohammed (what up Rell!)\r\nChocolate Maybach with Baurties (rims), these bitches could vomit", "Artist": "Camron", "Country": "USA", "Title": "I'm Laughin", "Longitude": "-73.944862", "County": "Manhattan", "State": "New York", "Latitude": "40.806198", "Type": "Solo M", "Release date": "2006-04-11"},{"Album": "GhostDeini the Great", "City": "Staten Island", "Lyrics": "like a pile of hot chocolate\r\nBefore I eat her, I belong on a bitch cartridge\r\nNiggas kill me", "Artist": "Ghostface Killah", "Country": "USA", "Title": "Be Easy (Remix)", "Longitude": "-74.144839", "County": "Richmond", "State": "New York", "Latitude": "40.576281", "Type": "Solo M", "Release date": "2008-12-16"},{"Album": "In My Lifetime, Vol. 1", "City": "Brooklyn", "Lyrics": "But my time is money,at twenty-five, I can't afford it\r\nBeef assorted like Godiva chocolates\r\nNiggas you", "Artist": "Jay Z", "Country": "USA", "Title": "Streets Is Watching", "Longitude": "-73.989872", "County": "Kings", "State": "New York", "Latitude": "40.692385", "Type": "Solo M", "Release date": "1997-11-04"},{"Album": "Bad Girls Remixes Ep", "City": "Harlem", "Lyrics": "in Bahamas\r\nEating all this chocolate\r\nTell me Willy Wonka-Wonga\r\nI'm a Mac Truck\r\nAnd you niggas are Tonkas", "Artist": "Azelia Banks", "Country": "USA", "Title": "Bad Girls (N.A.R.S. Remix)", "Longitude": "-73.948372", "County": "Manhattan", "State": "New York", "Latitude": "40.809033", "Type": "Solo F", "Release date": "2012-07-03"},{"Album": "Get Rich or Die Tryin'", "City": "Queens", "Lyrics": "me some dro, purple haze and some chocolate\r\nGive me a dutch and a lighter, I'll spark shit", "Artist": "50 Cent", "Country": "USA", "Title": "High all the Time", "Longitude": "-73.829959", "County": "Queens", "State": "New York", "Latitude": "40.713985", "Type": "Solo M", "Release date": "2003-02-06"},{"Album": "Endangered Species", "City": "South Bronx", "Lyrics": "brain\r\nI'm slippin' through customs in my hydro plane\r\nSkunk and the one chocolate ty bud\r\nNiggas lets", "Artist": "Big Punisher", "Country": "USA", "Title": "Wishful Thinking", "Longitude": "-73.911789", "County": "Bronx", "State": "New York", "Latitude": "40.823318", "Type": "Solo M", "Release date": "2001-01-01"},{"Album": "It Was Written", "City": "Queensbridge", "Lyrics": "] Niggas is up in here hittin' some of this chronic nigga\r\n[Nas] Yeah and this chocolate over here", "Artist": "Nas", "Country": "USA", "Title": "Is Coming", "Longitude": "-73.937622", "County": "Queens", "State": "New York", "Latitude": "40.756279", "Type": "Solo M", "Release date": "1996-01-01"},{"Album": "Life Is Good", "City": "Queensbridge", "Lyrics": ", them M3\u00e2\u20ac\u2122s out\r\nPumping bringing them D's out\r\nRastas selling chocolate weed inside of a weed house", "Artist": "Nas", "Country": "USA", "Title": "A Queens Story", "Longitude": "-73.937622", "County": "Queens", "State": "New York", "Latitude": "40.756279", "Type": "Solo M", "Release date": "2012-01-01"},{"Album": "Bigger and Deffer", "City": "Queens", "Lyrics": "lamp shade in half because I don't use a light\r\nMan, she's juicy like a berry, chocolate", "Artist": "LL Cool J", "Country": "USA", "Title": "Kanday", "Longitude": "-73.829959", "County": "Queens", "State": "New York", "Latitude": "40.713985", "Type": "Solo M", "Release date": "1987-01-01"},{"Album": "The Notorious K.I.M.", "City": "Bedford\u2013Stuyvesant", "Lyrics": "on their grocery lists\r\nRight next to the whip cream and box of chocolates\r\nDesigner pussy, my shit", "Artist": "Lil Kim", "Country": "USA", "Title": "How Many Licks", "Longitude": "-73.944444", "County": "Kings", "State": "New York", "Latitude": "40.688889", "Type": "Solo F", "Release date": "2000-01-01"},{"Album": "Efil4Zaggin", "City": "Compton", "Lyrics": "a Slinky\r\nSo put your lips on my big chocolate twinkie\r\nAnd you swallow all the nut if you bitches", "Artist": "N.W.A", "Country": "USA", "Title": "Findum Fuckum & Flee", "Longitude": "-118.224329", "County": "Los Angeles", "State": "California", "Latitude": "33.895285", "Type": "Group M", "Release date": "1991-01-01"},{"Album": "Record Single", "City": "Compton", "Lyrics": "a Slinky\r\nSo put your lips on my big chocolate twinkie\r\nAnd you swallow all the nut if you bitches", "Artist": "N.W.A", "Country": "USA", "Title": "Findum Fuckum & Flee", "Longitude": "-118.224329", "County": "Los Angeles", "State": "California", "Latitude": "33.895285", "Type": "Group M", "Release date": null},{"Album": "Record Single", "City": "Compton", "Lyrics": "Lyrical murderer\r\nI'm serving em like two scoops of chocolate\r\nCheck out how I rock it\r\nI'm the one", "Artist": "Dr. Dre", "Country": "USA", "Title": "Afro Puffs (Extended Remix) (The Lady of Rage) (Ft. Snoop Dogg) prod. by Daz Dillinger", "Longitude": "-118.224329", "County": "Los Angeles", "State": "California", "Latitude": "33.895285", "Type": "Solo M", "Release date": null},{"Album": "My Beautiful Dark Twisted Fantasy", "City": "Chicago", "Lyrics": "more chocolately\r\nWhat\u00e2\u20ac\u2122s up with who? That\u00e2\u20ac\u2122s old news\r\nI\u00e2\u20ac\u2122m in a speedboat in my boat shoes\r\nHah", "Artist": "Kanye West", "Country": "USA", "Title": "See Me Now", "Longitude": "-87.632409", "County": "Cook", "State": "Illinois", "Latitude": "41.88415", "Type": "Solo M", "Release date": "2010-11-22"},{"Album": "Bigger and Deffer", "City": "Queens", "Lyrics": "Went up to White Castle for a chocolate shake\r\nThinkin 'bout a 100'000 that I'd soon make\r\nFinished", "Artist": "LL Cool J", "Country": "USA", "Title": "The Do Wop", "Longitude": "-73.829959", "County": "Queens", "State": "New York", "Latitude": "40.713985", "Type": "Solo M", "Release date": "1987-01-01"},{"Album": "1 Player", "City": "Bedford\u2013Stuyvesant", "Lyrics": "Brooklyn, hey good looking\r\nDo you like your hot chocolate after dark - uh\r\nI'm scared to get you hooked", "Artist": "The Notorious B.I.G.", "Country": "USA", "Title": "4 My Niggaz (4 My Peeps)", "Longitude": "-73.963796", "County": "Kings", "State": "New York", "Latitude": "40.692385", "Type": "Solo M", "Release date": "1995-01-01"},{"Album": "Record Single", "City": "Long Beach", "Lyrics": "Lyrical murderer\r\nI'm serving em like two scoops of chocolate\r\nCheck out how I rock it\r\nI'm the one", "Artist": "Snoop Dogg", "Country": "USA", "Title": "Afro Puffs (Extended Remix) (The Lady of Rage) prod. by Daz Dillinger & Dr. Dre", "Longitude": "-118.195556", "County": "Los Angeles", "State": "California", "Latitude": "33.768333", "Type": "Solo M", "Release date": null},{"Album": "Short Dog's in the House", "City": "East Oakland", "Lyrics": "she's rich and thick and chocolate\r\nWouldn't hesitate to lick my dick\r\nAll my parters say \"$hort what's", "Artist": "Too Short", "Country": "USA", "Title": "Hard on the Boulevard", "Longitude": "-122.2591", "County": "Oakland", "State": "California", "Latitude": "37.8039", "Type": "Solo M", "Release date": "1990-01-01"},{"Album": "Record Single", "City": "Bedford\u2013Stuyvesant", "Lyrics": "another\r\nPlanet called Brooklyn,hey good looking\r\nDo you like your hot chocolate after dark- uh\r\nI'm", "Artist": "The Notorious B.I.G.", "Country": "USA", "Title": "4 My Peeps (Red Hot Lover Tone) (Ft. M.O.P. & Prince Po)", "Longitude": "-73.963796", "County": "Kings", "State": "New York", "Latitude": "40.692385", "Type": "Solo M", "Release date": null},{"Album": "Zane Lowe Bbc Radio Interviews", "City": "Chicago", "Lyrics": "we changed them from white to chocolate brown, you know what the architect suggested, he is just", "Artist": "Kanye West", "Country": "USA", "Title": "2015 Zane Lowe BBC Radio Interview", "Longitude": "-87.632409", "County": "Cook", "State": "Illinois", "Latitude": "41.88415", "Type": "Solo M", "Release date": "2015-01-01"},{"Album": "Record Single", "City": "New Orleans", "Lyrics": "and bobbers\r\nPassing green and brown chocolate like John Stocktan\r\nWho stopping these lil\u00e2\u20ac\u2122 niggas? Nobody", "Artist": "Lil Wayne", "Country": "USA", "Title": "10,000 Bars", "Longitude": "-90.077714", "County": "Orleans", "State": "Louisiana", "Latitude": "29.95369", "Type": "Solo M", "Release date": null}]