[{"Album": "Crime Pays", "City": "Harlem", "Lyrics": "Cookies-n-Apple Juice\n[Verse 1: Cam'ron]\r\nKilla!\r\nYo\r\nI won't kiss her, maybe hug her but I don't", "Artist": "Camron", "Country": "USA", "Title": "Cookies-n-Apple Juice", "Longitude": "-73.944862", "County": "Manhattan", "State": "New York", "Latitude": "40.806198", "Type": "Solo M", "Release date": "2009-05-12"},{"Album": "Beam Me Up Scotty (Mixtape)", "City": "Jamaica", "Lyrics": "!\r\nMommy you bad but Nicki is badder\r\nStep your cookies up, go get you a ladder\r\nWe do it early like", "Artist": "Nicki Minaj", "Country": "USA", "Title": "I Feel Free", "Longitude": "-73.80842", "County": "Queens", "State": "New York", "Latitude": "40.701782", "Type": "Solo F", "Release date": "2009-04-18"},{"Album": "Purple Haze", "City": "Harlem", "Lyrics": "couldn't break dance ya'll, or electric boogie\r\nI was obsessed with Cookie, I wanna sex her cookie", "Artist": "Camron", "Country": "USA", "Title": "More Reasons", "Longitude": "-73.944862", "County": "Manhattan", "State": "New York", "Latitude": "40.806198", "Type": "Solo M", "Release date": "2004-01-01"},{"Album": "Ready to Die", "City": "Bedford\u2013Stuyvesant", "Lyrics": "You chronic smokin', Oreo cookie eatin', pickle juice drinkin'\r\nChicken gristle eatin', biscuit", "Artist": "The Notorious B.I.G.", "Country": "USA", "Title": "Fuck Me (Interlude)", "Longitude": "-73.963796", "County": "Kings", "State": "New York", "Latitude": "40.692385", "Type": "Solo M", "Release date": "1994-09-13"},{"Album": "14 Shots to the Dome", "City": "Queens", "Lyrics": "Pink Cookies in a Plastic Bag\n\r\nThe act of makin' love...is...\r\n\r\n[REFRAIN]\r\nPink cookies", "Artist": "LL Cool J", "Country": "USA", "Title": "Pink Cookies in a Plastic Bag", "Longitude": "-73.829959", "County": "Queens", "State": "New York", "Latitude": "40.713985", "Type": "Solo M", "Release date": "1993-01-01"},{"Album": "Kingdom Come", "City": "Brooklyn", "Lyrics": "nothing wrong with me\r\nIf my hand's in the cookie jar, know one thing\r\nI'mma take the cookie", "Artist": "Jay Z", "Country": "USA", "Title": "Trouble", "Longitude": "-73.989872", "County": "Kings", "State": "New York", "Latitude": "40.692385", "Type": "Solo M", "Release date": "2006-01-01"},{"Album": "Any Given Sunday", "City": "Fayetteville", "Lyrics": "- J Cole]\r\nCheck my fortune cookie, it say Cole World\r\nCould that mean it's meant to be?\r\nSo much", "Artist": "J. Cole", "Country": "USA", "Title": "Neverland", "Longitude": "-78.878056", "County": "Cumberland", "State": "North Carolina", "Latitude": "35.0525", "Type": "Solo M", "Release date": null},{"Album": "No Mercy, No Fear", "City": "Queens", "Lyrics": "Them cookies got your ass gettin' fat fat\r\nThat paint got your ass gettin' fat fat\r\nBitch you", "Artist": "50 Cent", "Country": "USA", "Title": "Fat Bitch", "Longitude": "-73.829959", "County": "Queens", "State": "New York", "Latitude": "40.713985", "Type": "Solo M", "Release date": "2002-01-01"},{"Album": "C4", "City": "Compton", "Lyrics": "drop\r\nSnatch the cookie out the jar,grab a razor from the cabinet\r\nPlace it on the cardboard", "Artist": "Kendrick Lamar", "Country": "USA", "Title": "Compton Chemistry", "Longitude": "-118.224329", "County": "Los Angeles", "State": "California", "Latitude": "33.895285", "Type": "Solo M", "Release date": "2009-01-01"},{"Album": "GhostDeini the Great", "City": "Staten Island", "Lyrics": "It's the gift, the cookies and milk on the mantle\r\nThe mistletoe, that scent from that peppermint candles", "Artist": "Ghostface Killah", "Country": "USA", "Title": "Ghostface X-Mas", "Longitude": "-74.144839", "County": "Richmond", "State": "New York", "Latitude": "40.576281", "Type": "Solo M", "Release date": "2008-12-16"},{"Album": "Record Single", "City": "Portsmouth", "Lyrics": "themswitches\r\nIf you wana roll wit them sissy, you can't roll wit Missy\r\nI'mam kiss ya on ya cookie", "Artist": "Missy Elliott", "Country": "USA", "Title": "Bye Bye (Mya)", "Longitude": "-76.297715", "County": "Portsmouth", "State": "Virginia", "Latitude": "36.832642", "Type": "Solo F", "Release date": null},{"Album": "Mama Said Knock You Out", "City": "Queens", "Lyrics": "with your gangster talk\r\nWant to eat you like a cookie when I see you walk\r\nWith your rayon, silk", "Artist": "LL Cool J", "Country": "USA", "Title": "Around the Way Girl", "Longitude": "-73.829959", "County": "Queens", "State": "New York", "Latitude": "40.713985", "Type": "Solo M", "Release date": "1991-01-01"},{"Album": "Cole World: The Sideline Story", "City": "Fayetteville", "Lyrics": "this is God\u00e2\u20ac\u2122s gift\r\n\r\n[Verse 2: J. Cole]\r\nPussy my passion\r\nMan I just can\u00e2\u20ac\u2122t help it I see a cookie", "Artist": "J. Cole", "Country": "USA", "Title": "God's Gift", "Longitude": "-78.878056", "County": "Cumberland", "State": "North Carolina", "Latitude": "35.0525", "Type": "Solo M", "Release date": "2011-09-27"},{"Album": "Record Single", "City": "Queens", "Lyrics": "with your gangster talk\r\nWant to eat you like a cookie when I see you walk\r\nWith your rayon, silk", "Artist": "LL Cool J", "Country": "USA", "Title": "Around the Way Girl", "Longitude": "-73.829959", "County": "Queens", "State": "New York", "Latitude": "40.713985", "Type": "Solo M", "Release date": null},{"Album": "The Definition", "City": "Queens", "Lyrics": "-hucca gets this up\r\nShake that cookie like what like what\r\nToss me a drop it's like lightning struck", "Artist": "LL Cool J", "Country": "USA", "Title": "Apple Cobbler", "Longitude": "-73.829959", "County": "Queens", "State": "New York", "Latitude": "40.713985", "Type": "Solo M", "Release date": "2004-08-31"},{"Album": "AndSeeThatsTheThing", "City": "Detroit", "Lyrics": "a fortune cookie\r\nLike a choice pussy, wet you all with like\r\nLike moist pussy\r\nMy young niggas look", "Artist": "DeJ Loaf", "Country": "USA", "Title": "Desire", "Longitude": "-83.045833", "County": "Wayne", "State": "Michigan", "Latitude": "42.331389", "Type": "Solo F", "Release date": "2015-01-01"},{"Album": "Live.Love.A$AP", "City": "Harlem", "Lyrics": "it cookie brewsterI'm slurring wussup, don't tell me to shut up\r\nI ain't tryna start shit, but man I'm", "Artist": "A$AP Rocky", "Country": "USA", "Title": "Trilla", "Longitude": "-73.944862", "County": "Manhattan", "State": "New York", "Latitude": "40.806198", "Type": "Solo M", "Release date": "2011-10-31"},{"Album": "Purp & Patron", "City": "Compton", "Lyrics": "than Amos, right?\r\nTaking cookies from these rookies could be dangerous, right?\r\nSalute your", "Artist": "Game", "Country": "USA", "Title": "The Ocean", "Longitude": "-118.224329", "County": "Los Angeles", "State": "California", "Latitude": "33.895285", "Type": "Solo M", "Release date": "2011-01-24"},{"Album": "Summer Knights", "City": "Bedford\u2013Stuyvesant", "Lyrics": "ain't even eat\r\nBut we got a appetite for cookie creases and treats\r\nAnd they all got tricks up", "Artist": "Joey BADA$$", "Country": "USA", "Title": "47 Goonz", "Longitude": "-73.963796", "County": "Kings", "State": "New York", "Latitude": "40.692385", "Type": "Solo M", "Release date": "2013-01-01"},{"Album": "Record Single", "City": "Jamaica", "Lyrics": "him a couple of cookies\r\nDick on veteran, ain't fucking with rookies\r\nSaw the High School video now", "Artist": "Nicki Minaj", "Country": "USA", "Title": "I Wanna Be With You (DJ Khaled) (Ft. Future & Rick Ross) prod. by Lee On The Beats", "Longitude": "-73.80842", "County": "Queens", "State": "New York", "Latitude": "40.701782", "Type": "Solo F", "Release date": null},{"Album": "Unexpected Victory", "City": "Staten Island", "Lyrics": "that he try to tell me how it tastes\r\nHit the cookie with the ??, make it crumble\r\nNigga at the kitchen", "Artist": "Raekwon", "Country": "USA", "Title": "This Shit Hard", "Longitude": "-74.144839", "County": "Richmond", "State": "New York", "Latitude": "40.576281", "Type": "Solo M", "Release date": "2012-01-01"},{"Album": "Life After Death", "City": "Bedford\u2013Stuyvesant", "Lyrics": "with them\r\nI mean loyalty, niggas bought me milks at lunch\r\nThe milks was chocolate, the cookies", "Artist": "The Notorious B.I.G.", "Country": "USA", "Title": "Sky's The Limit", "Longitude": "-73.963796", "County": "Kings", "State": "New York", "Latitude": "40.692385", "Type": "Solo M", "Release date": "1997-01-01"},{"Album": "Record Single", "City": "Bedford\u2013Stuyvesant", "Lyrics": "back to the telly with freaks\r\nPack up a bowl and we ain't even eat\r\nBut we got a appetite for cookie", "Artist": "Joey BADA$$", "Country": "USA", "Title": "47 Goonz (Ft. Dirty Sanchez & Nyck Caution) prod. by Lee Bannon", "Longitude": "-73.963796", "County": "Kings", "State": "New York", "Latitude": "40.692385", "Type": "Solo M", "Release date": null},{"Album": "rejex", "City": "Bedford\u2013Stuyvesant", "Lyrics": "it as good, they all gay\r\nYou can hit me always, I be free and all day\r\nTreat that cookie like a rookie", "Artist": "Joey BADA$$", "Country": "USA", "Title": "That Gushy", "Longitude": "-73.963796", "County": "Kings", "State": "New York", "Latitude": "40.692385", "Type": "Solo M", "Release date": null},{"Album": "Record Single", "City": "Atlanta", "Lyrics": ", and bake him a couple of cookies\r\nDick on veteran, ain't fucking with rookies\r\nSaw the High School", "Artist": "Future", "Country": "USA", "Title": "I Wanna Be With You (DJ Khaled) (Ft. Nicki Minaj & Rick Ross) prod. by Lee On The Beats", "Longitude": "-84.41918", "County": "Fulton", "State": "Georgia", "Latitude": "33.77155", "Type": "Solo M", "Release date": null},{"Album": "Cam'Ron Presents DukeDaGod - DipSet: The Movement Moves On", "City": "Harlem", "Lyrics": "tenaments, with\r\nCookies & Cakes, the brand new Entemenns\r\nWe truly gentlemen, since I had the Grey", "Artist": "Camron", "Country": "USA", "Title": "It's Nothin (Remix)", "Longitude": "-73.944862", "County": "Manhattan", "State": "New York", "Latitude": "40.806198", "Type": "Solo M", "Release date": "2006-04-11"},{"Album": "The Big 10", "City": "Queens", "Lyrics": "is fast food\r\nI wanna have fun, how about a cookie huh?\r\n\r\n[Hook]\r\nI don\u00e2\u20ac\u2122t wanna love you\r\nI just", "Artist": "50 Cent", "Country": "USA", "Title": "I Just Wanna", "Longitude": "-73.829959", "County": "Queens", "State": "New York", "Latitude": "40.713985", "Type": "Solo M", "Release date": "2011-12-09"},{"Album": "Dedication 3", "City": "New Orleans", "Lyrics": "I'm flyer den a butterfly doin the tootsie roll\r\nHaha, I got chips like the cookie dough", "Artist": "Lil Wayne", "Country": "USA", "Title": "Put on For the Game", "Longitude": "-90.077714", "County": "Orleans", "State": "Louisiana", "Latitude": "29.95369", "Type": "Solo M", "Release date": "2008-11-14"},{"Album": "Tha Carter IV", "City": "New Orleans", "Lyrics": "the good die young\r\nEverybody selling dreams, I'm too cheap to buy one\r\nMan, when that cookie", "Artist": "Lil Wayne", "Country": "USA", "Title": "Blunt Blowin'", "Longitude": "-90.077714", "County": "Orleans", "State": "Louisiana", "Latitude": "29.95369", "Type": "Solo M", "Release date": "2011-08-29"},{"Album": "Record Single", "City": "Portsmouth", "Lyrics": "the boogie\r\nI see you lookin to bang out my nookie\r\nYou want my cookies I baked for you rookies\r\nWork", "Artist": "Missy Elliott", "Country": "USA", "Title": "Bring the Pain (Ft. Method Man) prod. by Timbaland", "Longitude": "-76.297715", "County": "Portsmouth", "State": "Virginia", "Latitude": "36.832642", "Type": "Solo F", "Release date": null},{"Album": "Supreme Clientele", "City": "Staten Island", "Lyrics": "Dipped like an Oreo cookie\r\nIn cold milk, bold silk\r\nGold-filled cap, Wu wear hat\r\nLow tilt\r\nTrue", "Artist": "Ghostface Killah", "Country": "USA", "Title": "The Grain", "Longitude": "-74.144839", "County": "Richmond", "State": "New York", "Latitude": "40.576281", "Type": "Solo M", "Release date": "2000-02-08"},{"Album": "Record Single", "City": "South Bronx", "Lyrics": "is like a Nabisco\r\nChocolate chip cookie, don't fuck with me rookie\r\nI'm rocking beats and with death", "Artist": "KRS-ONE", "Country": "USA", "Title": "Hip Hop Vs. Rap", "Longitude": "-73.91735", "County": "The Bronx", "State": "New York", "Latitude": "40.81621", "Type": "Solo M", "Release date": null},{"Album": "Dedication 3", "City": "New Orleans", "Lyrics": "the tootsie roll\r\nHaha, I got chips like the cookie dough\r\nAnd it takes a lot of paper to book a show", "Artist": "Lil Wayne", "Country": "USA", "Title": "I Put on For The Game", "Longitude": "-90.077714", "County": "Orleans", "State": "Louisiana", "Latitude": "29.95369", "Type": "Solo M", "Release date": "2008-11-14"},{"Album": "10", "City": "Queens", "Lyrics": "you love?) You need to keep back\r\nMilk and +Pink Cookies+ he known to eat that\r\n\r\n[Hook]\r\n\r\n[LL Cool", "Artist": "LL Cool J", "Country": "USA", "Title": "Mirror Mirror", "Longitude": "-73.829959", "County": "Queens", "State": "New York", "Latitude": "40.713985", "Type": "Solo M", "Release date": "2003-01-01"},{"Album": "For Everything", "City": "Wilson", "Lyrics": "snap like ginger cookies, a monster with stanzas\r\nStand us, they can't Walker Texas, I\u00e2\u20ac\u2122m rangers", "Artist": "Rapsody", "Country": "USA", "Title": "Rock the Bells", "Longitude": "-77.923611", "County": "Wilson", "State": "North Carolina", "Latitude": "35.731111", "Type": "Solo F", "Release date": null},{"Album": "Record Single", "City": "Miami", "Lyrics": "Louboutins bake my cookie, Bugatti bitch no hooptie\r\nIf I let you feature my movie, my legs wrapped around", "Artist": "Trina", "Country": "USA", "Title": "Having Sex (Juicy J) (Ft. 2 Chainz)", "Longitude": "-80.237419", "County": "Miami-Dade", "State": "Florida", "Latitude": "25.728985", "Type": "Solo F", "Release date": null},{"Album": "Son Of A Gun", "City": "The Bronx", "Lyrics": "like a seal stream\r\nYou can chase the cookie trick, I want the real cream\r\nNigga I'm trying to peel", "Artist": "Cory Gunz", "Country": "USA", "Title": "Hardbody", "Longitude": "-73.886", "County": "The Bronx", "State": "New York", "Latitude": " 40.8373", "Type": "Solo M", "Release date": "2011-07-06"},{"Album": "Only Built 4 Cuban Linx Pt Ii", "City": "Staten Island", "Lyrics": "chain and some coke\r\nChampion hood, the goodies in a brown bag, by the radiator\r\nNear the cookies", "Artist": "Raekwon", "Country": "USA", "Title": "Black Mozart", "Longitude": "-74.144839", "County": "Richmond", "State": "New York", "Latitude": "40.576281", "Type": "Solo M", "Release date": "2009-01-01"},{"Album": "Record Single", "City": "Carol City", "Lyrics": ", and bake him a couple of cookies\r\nDick on veteran, ain't fucking with rookies\r\nSaw the High School video", "Artist": "Rick Ross", "Country": "USA", "Title": "I Wanna Be With You (DJ Khaled) (Ft. Future & Nicki Minaj) prod. by Lee On The Beats", "Longitude": "-80.269920", "County": "Miami-Dade", "State": "Florida", "Latitude": "25.942121", "Type": "Solo M", "Release date": null},{"Album": "Tha Carter III", "City": "New Orleans", "Lyrics": "would she? She probably be the odd cookie\r\nIn the plastic bag 'bout to get crushed by a building\r\nI", "Artist": "Lil Wayne", "Country": "USA", "Title": "Lollipop (Remix)", "Longitude": "-90.077714", "County": "Orleans", "State": "Louisiana", "Latitude": "29.95369", "Type": "Solo M", "Release date": "2008-01-01"},{"Album": "Todd smith", "City": "Queens", "Lyrics": "The cookies and the cream and the peaches 'n praline\r\nButter pecan themes in your daydreams\r\nAll real sugar", "Artist": "LL Cool J", "Country": "USA", "Title": "Favorite Flavor", "Longitude": "-73.829959", "County": "Queens", "State": "New York", "Latitude": "40.713985", "Type": "Solo M", "Release date": "2006-01-01"},{"Album": "Dreamchasers 2", "City": "Philadelphia", "Lyrics": "of the year, cookies in the rear\r\nI got some bad bitches that will get it there\r\nIf you dont wanna get it we", "Artist": "Meek Mill", "Country": "USA", "Title": "Lean Wit' It", "Longitude": "-75.166667", "County": "Philadelphia", "State": "Pennsylvania", "Latitude": "39.95", "Type": "Solo M", "Release date": "2012-05-07"},{"Album": "Mac and Devin Go to High School Soundtrack", "City": "Long Beach", "Lyrics": "and dinnerGot some cookies in the jar, OG in the blenderYou paying for quantity, but quality is what", "Artist": "Snoop Dogg", "Country": "USA", "Title": "Wiz KhalifaOG", "Longitude": "-118.195556", "County": "Los Angeles", "State": "California", "Latitude": "33.768333", "Type": "Solo M", "Release date": "2011-12-13"},{"Album": "Under Construction", "City": "Portsmouth", "Lyrics": "out my nookie\r\nYou want my cookies I baked for you rookies\r\nWork hard they want me to bang bang", "Artist": "Missy Elliott", "Country": "USA", "Title": "Bring the Pain", "Longitude": "-76.297715", "County": "Portsmouth", "State": "Virginia", "Latitude": "36.832642", "Type": "Solo F", "Release date": "2002-01-01"},{"Album": "Crime Pays", "City": "Harlem", "Lyrics": "weapon on\r\nWe get our chefin on, chefin on everyday\r\nI got the cookie-cutter,mami the pepper spray", "Artist": "Camron", "Country": "USA", "Title": "Spend the Night", "Longitude": "-73.944862", "County": "Manhattan", "State": "New York", "Latitude": "40.806198", "Type": "Solo M", "Release date": "2009-05-12"},{"Album": "Record Single", "City": "The Bronx", "Lyrics": "like a seal stream\r\nYou can chase the cookie trick, I want the real cream\r\nNigga I'm trying to peel", "Artist": "Cory Gunz", "Country": "USA", "Title": "Hardbody", "Longitude": "-73.886", "County": "The Bronx", "State": "New York", "Latitude": " 40.8373", "Type": "Solo M", "Release date": null},{"Album": "Grand Theft Auto: Chinatown Wars", "City": "Staten Island", "Lyrics": ", cracked his skull like a fortune cookie\r\nA mind reader, find out, speak, freaks bow\r\nWith the nine", "Artist": "Ghostface Killah", "Country": "USA", "Title": "Chinatown Wars (Like a Renegade)", "Longitude": "-74.144839", "County": "Richmond", "State": "New York", "Latitude": "40.576281", "Type": "Solo M", "Release date": "2009-03-17"},{"Album": "The Black MambaThe Black Mamba", "City": "Wilson", "Lyrics": "snap like ginger cookies, a monster with stanzas\r\nStand us, they can't Walker Texas, I\u00e2\u20ac\u2122m rangers", "Artist": "Rapsody", "Country": "USA", "Title": "Rock the Bells", "Longitude": "-77.923611", "County": "Wilson", "State": "North Carolina", "Latitude": "35.731111", "Type": "Solo F", "Release date": "2011-01-01"},{"Album": "Dreamchasers 2", "City": "Philadelphia", "Lyrics": "love'em so they lives get took'en\r\nLocked in cages, have'em fighting over cookies\r\nAnd lunch trays, just", "Artist": "Meek Mill", "Country": "USA", "Title": "The Ride", "Longitude": "-75.166667", "County": "Philadelphia", "State": "Pennsylvania", "Latitude": "39.95", "Type": "Solo M", "Release date": "2012-05-07"},{"Album": "MM.. Food", "City": "Roosevelt", "Lyrics": "list\r\nOne pack of cookies please, Mr. Hooper\r\nIts fun smacking rookies, he is the \"Super!\"\r\nLook like", "Artist": "MF DOOM", "Country": "USA", "Title": "Hoe Cakes", "Longitude": "-73.585556", "County": "Nassau", "State": "New York", "Latitude": "40.679167", "Type": "Solo M", "Release date": "2004-11-16"},{"Album": "Dedication 3", "City": "New Orleans", "Lyrics": "I'm flyer then a butterfly doing the tootsie roll\r\nHaha, I got chips like the cookie dough", "Artist": "Lil Wayne", "Country": "USA", "Title": "Put On (Remix)", "Longitude": "-90.077714", "County": "Orleans", "State": "Louisiana", "Latitude": "29.95369", "Type": "Solo M", "Release date": "2008-11-14"},{"Album": "I Am Not a Human Being II", "City": "New Orleans", "Lyrics": ", I'm a kite in the air\r\nI like weed brownies and cookies,I'm straight but seeing crooked\r\nI got my", "Artist": "Lil Wayne", "Country": "USA", "Title": "Trippy", "Longitude": "-90.077714", "County": "Orleans", "State": "Louisiana", "Latitude": "29.95369", "Type": "Solo M", "Release date": "2013-03-22"},{"Album": "I Am Not a Human Being II (French Version)", "City": "New Orleans", "Lyrics": ", keep lighting an L, I'm a kite in the air\r\nI like weed brownies and cookies, I'm straight but seeing", "Artist": "Lil Wayne", "Country": "USA", "Title": "Trippy (French Version)", "Longitude": "-90.077714", "County": "Orleans", "State": "Louisiana", "Latitude": "29.95369", "Type": "Solo M", "Release date": "2013-03-22"},{"Album": "Rich Forever", "City": "Carol City", "Lyrics": ", the cookie didn't make no profit\r\nA stranger to the block, I damn near had to make them cop", "Artist": "Rick Ross", "Country": "USA", "Title": "Triple Beam Dreams", "Longitude": "-80.269920", "County": "Miami-Dade", "State": "Florida", "Latitude": "25.942121", "Type": "Solo M", "Release date": "2012-01-06"},{"Album": "Tha Carter II", "City": "New Orleans", "Lyrics": "The game so crazy I'm in it like deep pussy\r\nI got chip from trying to get the whole cookie\r\nUsed to make", "Artist": "Lil Wayne", "Country": "USA", "Title": "Feel Me", "Longitude": "-90.077714", "County": "Orleans", "State": "Louisiana", "Latitude": "29.95369", "Type": "Solo M", "Release date": "2005-12-06"},{"Album": "The Drought Is Over 5 Mixtape", "City": "New Orleans", "Lyrics": ")\r\nI'm aimin' bitch nigga, I ain't lookin' (uh)\r\nAnd I'm namin' bitch niggas like the cookie (come", "Artist": "Lil Wayne", "Country": "USA", "Title": "Gangsta Boys", "Longitude": "-90.077714", "County": "Orleans", "State": "Louisiana", "Latitude": "29.95369", "Type": "Solo M", "Release date": "2007-01-01"},{"Album": "Relapse", "City": "Detroit", "Lyrics": "and cranny lookin' for trannies\r\nMilk and cookies spilled on my silk negligee, looky\r\nRazor-ba-lades", "Artist": "Eminem", "Country": "USA", "Title": "Underground", "Longitude": "-83.045833", "County": "Wayne", "State": "Michigan", "Latitude": "42.331389", "Type": "Solo M", "Release date": "2009-05-19"},{"Album": "Encore", "City": "Detroit", "Lyrics": ", to my ranch, I just bake cookies\r\nMr. Officer, lookie, take a whiff of this\r\nHere, I make Jesus", "Artist": "Eminem", "Country": "USA", "Title": "Ass Like That", "Longitude": "-83.045833", "County": "Wayne", "State": "Michigan", "Latitude": "42.331389", "Type": "Solo M", "Release date": "2004-11-12"},{"Album": "Record Single", "City": "Compton", "Lyrics": "in the game shawty, to Rule and conquer\r\nYou sing for hoes and sound like the cookie monster\r\nI'm", "Artist": "Dr. Dre", "Country": "USA", "Title": "Back Down (50 Cent)", "Longitude": "-118.224329", "County": "Los Angeles", "State": "California", "Latitude": "33.895285", "Type": "Solo M", "Release date": null},{"Album": "The Chronic", "City": "Compton", "Lyrics": "the funky shit that's making the sucker niggas mumble\r\nWhen I'm on the mic, it's like a cookie: they all", "Artist": "Dr. Dre", "Country": "USA", "Title": "Nuthin' But A G Thang", "Longitude": "-118.224329", "County": "Los Angeles", "State": "California", "Latitude": "33.895285", "Type": "Solo M", "Release date": "1992-12-15"},{"Album": "Relapse", "City": "Detroit", "Lyrics": ", shit\r\nLure the little boy with the chocolate chips ahoy! chip-\r\nCookie lookie even took me", "Artist": "Eminem", "Country": "USA", "Title": "Bagpipes from Baghdad", "Longitude": "-83.045833", "County": "Wayne", "State": "Michigan", "Latitude": "42.331389", "Type": "Solo M", "Release date": "2009-05-19"},{"Album": "Record Single", "City": "Portsmouth", "Lyrics": "-rookies\r\nI'm so hard they wanna cook me\r\nCook me, cook-cook-cook me\r\nCook these cookies\r\nI get what I", "Artist": "Missy Elliott", "Country": "USA", "Title": "Bad Girls (Switch Remix)", "Longitude": "-76.297715", "County": "Portsmouth", "State": "Virginia", "Latitude": "36.832642", "Type": "Solo F", "Release date": null},{"Album": "God Forgives, I Don't (French Version)", "City": "Carol City", "Lyrics": "Aryan\r\nA rookie boy, the cookie didn't make no profit\r\nA stranger to the block, I damn near had to make", "Artist": "Rick Ross", "Country": "USA", "Title": "Triple Beam Dreams (French Version)", "Longitude": "-80.269920", "County": "Miami-Dade", "State": "Florida", "Latitude": "25.942121", "Type": "Solo M", "Release date": "2012-07-30"},{"Album": "Record Single", "City": "Long Beach", "Lyrics": ", it's like a cookie: they all crumble\r\nTry to get close, and your ass'll get smacked\r\nMy motherfucking", "Artist": "Snoop Dogg", "Country": "USA", "Title": "Nuthin' But A G Thang (Dr. Dre) prod. by Dr. Dre", "Longitude": "-118.195556", "County": "Los Angeles", "State": "California", "Latitude": "33.768333", "Type": "Solo M", "Release date": null},{"Album": "Live From The Kitchen", "City": "Jamaica", "Lyrics": "had a epiphany, I need to go to Tiffany's\r\nFendi on my slippers, and my cookies always slippery\r\nI", "Artist": "Nicki Minaj", "Country": "USA", "Title": "5 Star Chick", "Longitude": "-73.80842", "County": "Queens", "State": "New York", "Latitude": "40.701782", "Type": "Solo F", "Release date": "2012-01-01"},{"Album": "Mama Said Knock You Out", "City": "Queens", "Lyrics": "tape\r\nI want beef, bring on the rookies\r\nI got more than just Cool J cookies\r\nRip, rock, crush", "Artist": "LL Cool J", "Country": "USA", "Title": "Murdergram", "Longitude": "-73.829959", "County": "Queens", "State": "New York", "Latitude": "40.713985", "Type": "Solo M", "Release date": "1991-01-01"},{"Album": "Death Row Greatest Hits", "City": "Compton", "Lyrics": "the funky shit that's making the sucker niggas mumble\r\nWhen I'm on the mic, it's like a cookie: they all", "Artist": "Dr. Dre", "Country": "USA", "Title": "Nuthin' But A G Thang", "Longitude": "-118.224329", "County": "Los Angeles", "State": "California", "Latitude": "33.895285", "Type": "Solo M", "Release date": "1996-11-26"},{"Album": "Take Care", "City": "Toronto", "Lyrics": "in the press\r\nAnd chef it like Mrs. Fields; they're making the cookie stretch\r\nI know it so well, I know", "Artist": "Drake", "Country": "CAN", "Title": "Lord Knows", "Longitude": "-79.4", "County": "", "State": "Ontario", "Latitude": "43.7", "Type": "Solo M", "Release date": "2011-11-15"},{"Album": "Beam Me Up Scotty (Mixtape)", "City": "Jamaica", "Lyrics": "higher then Rapunzel\r\nKeep the snow white I could buy it by the bundle\r\nStep your cookies up", "Artist": "Nicki Minaj", "Country": "USA", "Title": "Itty Bitty Piggy", "Longitude": "-73.80842", "County": "Queens", "State": "New York", "Latitude": "40.701782", "Type": "Solo F", "Release date": "2009-04-18"},{"Album": "Record Single", "City": "Portsmouth", "Lyrics": "these cookies\r\nI get what I want\r\nIma bad girl,Ima bad girl\r\nIma bad girl,I get what I want\r\nNo Ashton Kutcher", "Artist": "Missy Elliott", "Country": "USA", "Title": "Bad Girls (Switch Remix) (M.I.A.) (Ft. Rye Rye)", "Longitude": "-76.297715", "County": "Portsmouth", "State": "Virginia", "Latitude": "36.832642", "Type": "Solo F", "Release date": null},{"Album": "Record Single", "City": "Miami", "Lyrics": "slippers, and my cookies always slippery\r\nI don't need help, I pay the bills on time\r\nSo I be yellin' fuck", "Artist": "Trina", "Country": "USA", "Title": "5 Star Chick Remix (Yo Gotti) (Ft. Gucci Mane & Nicki Minaj)", "Longitude": "-80.237419", "County": "Miami-Dade", "State": "Florida", "Latitude": "25.728985", "Type": "Solo F", "Release date": null},{"Album": "Record Single", "City": "Compton", "Lyrics": "computers will be seized\r\nAnd my keys, to my ranch, I just bake cookies\r\nMr. Officer, lookie, take a whiff", "Artist": "Dr. Dre", "Country": "USA", "Title": "Ass Like That (Eminem) prod. by MIke Elizondo", "Longitude": "-118.224329", "County": "Los Angeles", "State": "California", "Latitude": "33.895285", "Type": "Solo M", "Release date": null},{"Album": "Get Rich or Die Tryin'", "City": "Queens", "Lyrics": "in the game shawty, to Rule and conquer\r\nYou sing for hoes and sound like the cookie monster\r\nI'm the hardest", "Artist": "50 Cent", "Country": "USA", "Title": "Back Down", "Longitude": "-73.829959", "County": "Queens", "State": "New York", "Latitude": "40.713985", "Type": "Solo M", "Release date": "2003-02-06"},{"Album": "God Forgives, I Don't", "City": "Carol City", "Lyrics": ", the cookie didn't make no profit\r\nA stranger to the block, I damn near had to make them cop", "Artist": "Rick Ross", "Country": "USA", "Title": "Triple Beam Dreams", "Longitude": "-80.269920", "County": "Miami-Dade", "State": "Florida", "Latitude": "25.942121", "Type": "Solo M", "Release date": "2012-07-30"},{"Album": "Record Single", "City": "Jamaica", "Lyrics": "slippers, and my cookies always slippery\r\nI don't need help, I pay the bills on time\r\nSo I be yellin", "Artist": "Nicki Minaj", "Country": "USA", "Title": "5 Star Chick Remix (Yo Gotti) (Ft. Gucci Mane & Trina)", "Longitude": "-73.80842", "County": "Queens", "State": "New York", "Latitude": "40.701782", "Type": "Solo F", "Release date": null},{"Album": "Mr. Smith", "City": "Queens", "Lyrics": "it was wicked as could be\r\nYou bad, now I'm writin on your pink cookies\r\nAnd you had me screamin Mama", "Artist": "LL Cool J", "Country": "USA", "Title": "I Shot Ya", "Longitude": "-73.829959", "County": "Queens", "State": "New York", "Latitude": "40.713985", "Type": "Solo M", "Release date": "1995-11-21"},{"Album": "Dreamchasers", "City": "Philadelphia", "Lyrics": "stealin\u00e2\u20ac\u2122 cookies outta ACME\r\nRaised in South Phil, 2-4 where you can find me at\r\nUsed to kick", "Artist": "Meek Mill", "Country": "USA", "Title": "Dreamchasers", "Longitude": "-75.166667", "County": "Philadelphia", "State": "Pennsylvania", "Latitude": "39.95", "Type": "Solo M", "Release date": "2011-08-11"},{"Album": "The Notorious K.I.M.", "City": "Bedford\u2013Stuyvesant", "Lyrics": ", I'm a bad bitch child\r\nCats be frontin' like they one tough cookie\r\nAll my real g's do the gangsta", "Artist": "Lil Kim", "Country": "USA", "Title": "Notorious K.I.M.", "Longitude": "-73.944444", "County": "Kings", "State": "New York", "Latitude": "40.688889", "Type": "Solo F", "Release date": "2000-01-01"},{"Album": "No Ceilings", "City": "New Orleans", "Lyrics": "the lions sleep\r\nYour flow never wet, like grandma pussy\r\nI\u00e2\u20ac\u2122m always good, like grandma cookies\r\nYeah", "Artist": "Lil Wayne", "Country": "USA", "Title": "Wasted", "Longitude": "-90.077714", "County": "Orleans", "State": "Louisiana", "Latitude": "29.95369", "Type": "Solo M", "Release date": "2009-10-31"},{"Album": "Live From The Kitchen", "City": "Miami", "Lyrics": "had a epiphany, I need to go to Tiffany's\r\nFendi on my slippers, and my cookies always slippery\r\nI", "Artist": "Trina", "Country": "USA", "Title": "5 Star Chick", "Longitude": "-80.237419", "County": "Miami-Dade", "State": "Florida", "Latitude": "25.728985", "Type": "Solo F", "Release date": "2012-01-01"},{"Album": "Straight from the Lab", "City": "Detroit", "Lyrics": "get beat up\r\nStomped unconcious and smacked with the heater\r\nThis rap cookie monster gets jabbed", "Artist": "Eminem", "Country": "USA", "Title": "and D12Hailie's Revenge", "Longitude": "-83.045833", "County": "Wayne", "State": "Michigan", "Latitude": "42.331389", "Type": "Solo M", "Release date": "2003-11-07"},{"Album": "Straight from the Lab", "City": "Detroit", "Lyrics": "and smacked with the heater\r\nThis rap cookie monster gets jabbed in the tonsils\r\nWith dicks so much that he", "Artist": "Eminem", "Country": "USA", "Title": "Doe Rae Me (Hailie's Revenge)", "Longitude": "-83.045833", "County": "Wayne", "State": "Michigan", "Latitude": "42.331389", "Type": "Solo M", "Release date": "2003-11-07"},{"Album": "Record Single", "City": "Atlanta", "Lyrics": "feeling me\r\nEvery house a cup of milk, maybe a cookie\r\nUnfasten your belt it's obvious you're", "Artist": "Future", "Country": "USA", "Title": "Back For The Holidays (New Sound 13) (Ft. Baze, Coach Harder & Rewind)", "Longitude": "-84.41918", "County": "Fulton", "State": "Georgia", "Latitude": "33.77155", "Type": "Solo M", "Release date": null},{"Album": "All Eyez On Me", "City": "Marin City", "Lyrics": "Severely addicted to livin like a fuckin felon\r\nWhile beefin with rookie cops the cookie rocks a nigga", "Artist": "2Pac", "Country": "USA", "Title": "When We Ride", "Longitude": "-122.516579", "County": "Marin", "State": "California", "Latitude": "37.87199", "Type": "Solo M", "Release date": "1996-01-01"},{"Album": "Record Single", "City": "The Bronx", "Lyrics": "from boogie to bang bang boogie\r\nAin't gangbang for chains, stings, cookies and brains hang\r\nAnythang", "Artist": "Cory Gunz", "Country": "USA", "Title": "CivilTV Next Up Cypher", "Longitude": "-73.886", "County": "The Bronx", "State": "New York", "Latitude": " 40.8373", "Type": "Solo M", "Release date": null}]