[{"Album": "Record Single", "City": "Bedford\u2013Stuyvesant", "Lyrics": "& Dyemond Lewis)\r\n12. Escape 120 (Ft. Raury)\r\n13. Black Beetles\r\n14. O.C.B\r\n15. Curry Chicken\r\n16. Run Up", "Artist": "Joey BADA$$", "Country": "USA", "Title": "B4.DA.$$ Artwork/Tracklist", "Longitude": "-73.963796", "County": "Kings", "State": "New York", "Latitude": "40.692385", "Type": "Solo M", "Release date": null},{"Album": "Record Single", "City": "Jamaica", "Lyrics": "curry chicken and my rice and peas?\r\nMy madda cunt Trinis\r\nMy Jamaican bod gal, all my Guyanese", "Artist": "Nicki Minaj", "Country": "USA", "Title": "Beam Me Up Scotty", "Longitude": "-73.80842", "County": "Queens", "State": "New York", "Latitude": "40.701782", "Type": "Solo F", "Release date": null},{"Album": "Beam Me Up Scotty (Mixtape)", "City": "Jamaica", "Lyrics": "curry chicken and my rice and peas?\r\nMy madda cunt Trinis\r\nMy Jamaican bod gal, all my Guyanese", "Artist": "Nicki Minaj", "Country": "USA", "Title": "Beam Me Up Scotty", "Longitude": "-73.80842", "County": "Queens", "State": "New York", "Latitude": "40.701782", "Type": "Solo F", "Release date": "2009-04-18"},{"Album": "Record Single", "City": "Jamaica", "Lyrics": "of money just to impress others\r\n12. My father taught me how to make curry chicken\r\n13. I'm the best", "Artist": "Nicki Minaj", "Country": "USA", "Title": "25 Things You Don't Know About Me", "Longitude": "-73.80842", "County": "Queens", "State": "New York", "Latitude": "40.701782", "Type": "Solo F", "Release date": null},{"Album": "Record Single", "City": "Marin City", "Lyrics": "a bullet, Hail Mary\r\nWe won't worry, everything well curry\r\nFree like the bird in the tree\r\nWe won't", "Artist": "2Pac", "Country": "USA", "Title": "Hail Mary (Ft. Outlawz) prod. by Hurt M Badd", "Longitude": "-122.516579", "County": "Marin", "State": "California", "Latitude": "37.87199", "Type": "Solo M", "Release date": null},{"Album": "The Don Killuminati: The 7 Day Theory", "City": "Marin City", "Lyrics": ", everything well curry\r\nFree like the bird in the tree\r\nWe won't worry, everything well curry\r\nYes", "Artist": "2Pac", "Country": "USA", "Title": "Hail Mary", "Longitude": "-122.516579", "County": "Marin", "State": "California", "Latitude": "37.87199", "Type": "Solo M", "Release date": "1996-01-01"},{"Album": "Best of 2Pac Pt. 1 - Thug", "City": "Marin City", "Lyrics": ", everything well curry\r\nFree like the bird in the tree\r\nWe won't worry, everything well curry\r\nYes", "Artist": "2Pac", "Country": "USA", "Title": "Hail Mary", "Longitude": "-122.516579", "County": "Marin", "State": "California", "Latitude": "37.87199", "Type": "Solo M", "Release date": "2007-12-04"},{"Album": "Greatest Hits", "City": "Marin City", "Lyrics": ", everything well curry\r\nFree like the bird in the tree\r\nWe won't worry, everything well curry\r\nYes", "Artist": "2Pac", "Country": "USA", "Title": "Hail Mary", "Longitude": "-122.516579", "County": "Marin", "State": "California", "Latitude": "37.87199", "Type": "Solo M", "Release date": "1998-11-24"},{"Album": "Playtime is Over (Mixtape)", "City": "Jamaica", "Lyrics": "York\r\nAnd I feed 'em curry chicken, I'm all about my green nahmean?\r\nGot some fat bitches", "Artist": "Nicki Minaj", "Country": "USA", "Title": "Warning", "Longitude": "-73.80842", "County": "Queens", "State": "New York", "Latitude": "40.701782", "Type": "Solo F", "Release date": "2007-01-01"},{"Album": "Record Single", "City": "Toronto", "Lyrics": "This shit a mothafuckin' lay up\r\nI been Steph Curry with the shot\r\nBeen cookin' with the sauce, Chef", "Artist": "Drake", "Country": "CAN", "Title": "0 to 100 / The Catch Up", "Longitude": "-79.4", "County": "", "State": "Ontario", "Latitude": "43.7", "Type": "Solo M", "Release date": null},{"Album": "Under Construction", "City": "Portsmouth", "Lyrics": "speech is very slurry\r\nMe without Tim is like Jamaicans with no curry\r\nAnd yes, it's necessary, so", "Artist": "Missy Elliott", "Country": "USA", "Title": "Funky Fresh Dressed", "Longitude": "-76.297715", "County": "Portsmouth", "State": "Virginia", "Latitude": "36.832642", "Type": "Solo F", "Release date": "2002-01-01"},{"Album": "Record Single", "City": "Bedford\u2013Stuyvesant", "Lyrics": "HORNS BY THE SOUL REBELS\r\nADDITIONAL VOCALS BY HEIROWAYNE\r\n\r\n15. CURRY CHICKEN\r\n\r\nWritten by: Jo", "Artist": "Joey BADA$$", "Country": "USA", "Title": "B4.DA.$$ [Credits]", "Longitude": "-73.963796", "County": "Kings", "State": "New York", "Latitude": "40.692385", "Type": "Solo M", "Release date": null},{"Album": "Catastrophic", "City": "Uniondale", "Lyrics": "in my face, tryin' to feed me all of that curry\r\nAnd I was 'bout to eat shit up, but that kitty cat", "Artist": "Busta Rhymes", "Country": "USA", "Title": "No Worries", "Longitude": "-73.593544", "County": "Nassau", "State": "New York", "Latitude": "40.717935", "Type": "Solo M", "Release date": "2012-12-21"},{"Album": "Immobilarity", "City": "Staten Island", "Lyrics": "Curry, chicken, and bitches crime on my right\r\nI'm marvelous extra large\r\nThrew y'all faggot niggas", "Artist": "Raekwon", "Country": "USA", "Title": "Heart to Heart", "Longitude": "-74.144839", "County": "Richmond", "State": "New York", "Latitude": "40.576281", "Type": "Solo M", "Release date": "1999-01-01"},{"Album": "The Blueprint", "City": "Brooklyn", "Lyrics": "-a-Dough\"\r\nNow that's Spanish chick, French chick, Indian and black\r\nThat's fried chicken, curry chicken", "Artist": "Jay Z", "Country": "USA", "Title": "Girls, Girls, Girls", "Longitude": "-73.989872", "County": "Kings", "State": "New York", "Latitude": "40.692385", "Type": "Solo M", "Release date": "2001-09-11"},{"Album": "Record Single", "City": "Compton", "Lyrics": "/ASCAP/M. Bradford/WB Music Corp./Hard Working Black Folks Publishing/ASCAP/T. Curry/Sony Music", "Artist": "Dr. Dre", "Country": "USA", "Title": "2001 [Credits]", "Longitude": "-118.224329", "County": "Los Angeles", "State": "California", "Latitude": "33.895285", "Type": "Solo M", "Release date": null},{"Album": "Born Again", "City": "Bedford\u2013Stuyvesant", "Lyrics": ", c'mon\r\n\r\n[Mark Curry]\r\nUh-huh, make money hand over fist\r\nThe bo-vines roam where chickenhearts don't", "Artist": "The Notorious B.I.G.", "Country": "USA", "Title": "Dangerous MC's", "Longitude": "-73.963796", "County": "Kings", "State": "New York", "Latitude": "40.692385", "Type": "Solo M", "Release date": "1999-01-01"},{"Album": "Record Single", "City": "Queens", "Lyrics": "And every girl I know be like, \"He's so corny\"\r\nI want money in a hurry\r\nI'm gettin tired of leftover curry", "Artist": "LL Cool J", "Country": "USA", "Title": "Cheesy Rat Blues", "Longitude": "-73.829959", "County": "Queens", "State": "New York", "Latitude": "40.713985", "Type": "Solo M", "Release date": null},{"Album": "Mama Said Knock You Out", "City": "Queens", "Lyrics": "And every girl I know be like, \"He's so corny\"\r\nI want money in a hurry\r\nI'm gettin tired of leftover curry", "Artist": "LL Cool J", "Country": "USA", "Title": "Cheesy Rat Blues", "Longitude": "-73.829959", "County": "Queens", "State": "New York", "Latitude": "40.713985", "Type": "Solo M", "Release date": "1991-01-01"}]