[{"Album": "Yeeeah Baby", "City": "South Bronx", "Lyrics": "SHIT - talkin loud at the flicks\r\nTHAT NIGGA SHIT - fried rice and rib tips\r\nTHAT NIGGA SHIT - lookin", "Artist": "Big Punisher", "Country": "USA", "Title": "Nigga Shit", "Longitude": "-73.911789", "County": "Bronx", "State": "New York", "Latitude": "40.823318", "Type": "Solo M", "Release date": "2000-01-01"},{"Album": "More Fish", "City": "Staten Island", "Lyrics": "fried rice he ordered\r\nI said thanks as he poured my water\r\nThen out came the veggie rolls, sesame", "Artist": "Ghostface Killah", "Country": "USA", "Title": "Alex (Stolen Script)", "Longitude": "-74.144839", "County": "Richmond", "State": "New York", "Latitude": "40.576281", "Type": "Solo M", "Release date": "2006-01-01"},{"Album": "Record Single", "City": "Staten Island", "Lyrics": "in a dropped off the shrimp fried rice he ordered\r\nI said thanks as he poured my water\r\nThen out came", "Artist": "Ghostface Killah", "Country": "USA", "Title": "Alex (Stolen Script) prod. by MF Doom", "Longitude": "-74.144839", "County": "Richmond", "State": "New York", "Latitude": "40.576281", "Type": "Solo M", "Release date": null},{"Album": "More Fish", "City": "Staten Island", "Lyrics": "fried rice he ordered\r\nI said thanks as he poured my water\r\nThen out came the veggie rolls, sesame", "Artist": "Ghostface Killah", "Country": "USA", "Title": "Alex (Stolen Script)", "Longitude": "-74.144839", "County": "Richmond", "State": "New York", "Latitude": "40.576281", "Type": "Solo M", "Release date": "2006-01-01"},{"Album": "More Fish", "City": "Roosevelt", "Lyrics": "fried rice he ordered\r\nI said thanks as he poured my water\r\nThen out came the veggie rolls, sesame", "Artist": "MF DOOM", "Country": "USA", "Title": "Alex (Stolen Script)", "Longitude": "-73.585556", "County": "Nassau", "State": "New York", "Latitude": "40.679167", "Type": "Solo M", "Release date": "2006-01-01"},{"Album": "Record Single", "City": "Roosevelt", "Lyrics": "teas\r\nShe drive while nice to veggie fried rice spicy\r\nTold them both, I don't feel so well, my belly", "Artist": "MF DOOM", "Country": "USA", "Title": "Angelz (Ft. Ghostface Killah)", "Longitude": "-73.585556", "County": "Nassau", "State": "New York", "Latitude": "40.679167", "Type": "Solo M", "Release date": null},{"Album": "Record Single", "City": "Roosevelt", "Lyrics": "in a dropped off the shrimp fried rice he ordered\r\nI said thanks as he poured my water\r\nThen out came", "Artist": "MF DOOM", "Country": "USA", "Title": "Alex (Stolen Script) (Ghostface Killah)", "Longitude": "-73.585556", "County": "Nassau", "State": "New York", "Latitude": "40.679167", "Type": "Solo M", "Release date": null},{"Album": "Put it on the Line", "City": "Staten Island", "Lyrics": "tell ya motherfuckers something, my struggle is real\r\nThrew ketchup on my rice, cause", "Artist": "Ghostface Killah", "Country": "USA", "Title": "Struggle", "Longitude": "-74.144839", "County": "Richmond", "State": "New York", "Latitude": "40.576281", "Type": "Solo M", "Release date": "2005-11-18"},{"Album": "Born Like This", "City": "Staten Island", "Lyrics": "nice to veggie fried rice spicy\r\nTold them both, I don't feel so well, my belly\r\nSpin me down Melrose", "Artist": "Ghostface Killah", "Country": "USA", "Title": "Angelz", "Longitude": "-74.144839", "County": "Richmond", "State": "New York", "Latitude": "40.576281", "Type": "Solo M", "Release date": "2009-01-01"},{"Album": "Born Like This", "City": "Roosevelt", "Lyrics": "to veggie fried rice spicy\r\nTold them both, I don't feel so well, my belly\r\nSpin me down Melrose", "Artist": "MF DOOM", "Country": "USA", "Title": "Angelz", "Longitude": "-73.585556", "County": "Nassau", "State": "New York", "Latitude": "40.679167", "Type": "Solo M", "Release date": "2009-01-01"},{"Album": "Purple Haze", "City": "Harlem", "Lyrics": "hold heat\r\nWhen it's repping time, I get on extra grind\r\nFried to fricassee, Pepperseed to Pepperdine", "Artist": "Camron", "Country": "USA", "Title": "Get 'Em Girls", "Longitude": "-73.944862", "County": "Manhattan", "State": "New York", "Latitude": "40.806198", "Type": "Solo M", "Release date": "2004-01-01"},{"Album": "Return of the Boom Bap", "City": "South Bronx", "Lyrics": "Pick up the mic and kill it ill it top bill it\r\nThe club is a skillet, where MC's get fried in it\r\nYou", "Artist": "KRS-ONE", "Country": "USA", "Title": "Mortal Thought", "Longitude": "-73.91735", "County": "The Bronx", "State": "New York", "Latitude": "40.81621", "Type": "Solo M", "Release date": "1993-09-28"},{"Album": "Fishscale", "City": "Staten Island", "Lyrics": "Throwin' ketchup on my fries, hitting baseball spliffs\r\nBack seat with my leg all stiff\r\nPush the fuckin", "Artist": "Ghostface Killah", "Country": "USA", "Title": "Shakey Dog", "Longitude": "-74.144839", "County": "Richmond", "State": "New York", "Latitude": "40.576281", "Type": "Solo M", "Release date": "2006-01-01"},{"Album": "Doctor's Advocate", "City": "Compton", "Lyrics": "[Hook] - 2X\r\n\r\n[The Game]\r\nWelcome to the city of G's\r\nWhere we eat fried chicken, rice, and black", "Artist": "Game", "Country": "USA", "Title": "Compton", "Longitude": "-118.224329", "County": "Los Angeles", "State": "California", "Latitude": "33.895285", "Type": "Solo M", "Release date": "2006-11-14"},{"Album": "Record Single", "City": "Roosevelt", "Lyrics": "to Veggie Fried Rice Spicy\r\nTold the Hoes \"I don't feel so well, my belly\"\r\nRolled down Melrose", "Artist": "MF DOOM", "Country": "USA", "Title": "Angeles (Ghostface Killah)", "Longitude": "-73.585556", "County": "Nassau", "State": "New York", "Latitude": "40.679167", "Type": "Solo M", "Release date": null},{"Album": "Record Single", "City": "Staten Island", "Lyrics": "to Veggie Fried Rice Spicy\r\nTold the Hoes \"I don't feel so well, my belly\"\r\nRolled down Melrose, \"Drive", "Artist": "Ghostface Killah", "Country": "USA", "Title": "Angeles (Ft. MF Doom)", "Longitude": "-74.144839", "County": "Richmond", "State": "New York", "Latitude": "40.576281", "Type": "Solo M", "Release date": null},{"Album": "Record Single", "City": "Staten Island", "Lyrics": "teas\r\nShe drive while nice to veggie fried rice spicy\r\nTold them both, I don't feel so well, my", "Artist": "Ghostface Killah", "Country": "USA", "Title": "Angelz (MF Doom) prod. by MF Doom", "Longitude": "-74.144839", "County": "Richmond", "State": "New York", "Latitude": "40.576281", "Type": "Solo M", "Release date": null},{"Album": "Grand Theft Auto: Chinatown Wars", "City": "Staten Island", "Lyrics": "like rice in the kitchen\r\nIt's a, bad decision, starting beef with the butcher\r\nHe ain't a bleeder, I", "Artist": "Ghostface Killah", "Country": "USA", "Title": "Chinatown Wars (Like a Renegade)", "Longitude": "-74.144839", "County": "Richmond", "State": "New York", "Latitude": "40.576281", "Type": "Solo M", "Release date": "2009-03-17"},{"Album": "The Blueprint", "City": "Brooklyn", "Lyrics": "call me \"cabron\" plus \"maricon\"\r\nSaid she likes to cook rice so she likes me home\r\nI'm like, \"Un", "Artist": "Jay Z", "Country": "USA", "Title": "Girls, Girls, Girls", "Longitude": "-73.989872", "County": "Kings", "State": "New York", "Latitude": "40.692385", "Type": "Solo M", "Release date": "2001-09-11"},{"Album": "Yeeeah Baby", "City": "South Bronx", "Lyrics": "to life bidders, pork fried rice eaters\r\nNew York, New York - ice rockin tight wifebeaters\r\nWe", "Artist": "Big Punisher", "Country": "USA", "Title": "New York Giants", "Longitude": "-73.911789", "County": "Bronx", "State": "New York", "Latitude": "40.823318", "Type": "Solo M", "Release date": "2000-01-01"},{"Album": "Mama Said Knock You Out", "City": "Queens", "Lyrics": "shredded wheat\r\nTalked about marriage, I said, \"That's risky\r\nBesides, it's such a waste of Rice Crispies", "Artist": "LL Cool J", "Country": "USA", "Title": "Milky Cereal", "Longitude": "-73.829959", "County": "Queens", "State": "New York", "Latitude": "40.713985", "Type": "Solo M", "Release date": "1991-01-01"},{"Album": "Record Single", "City": "Atlanta", "Lyrics": "right\r\nI got 2 choppas that\u00e2\u20ac\u2122s chopsticks\r\nEat yo block up like shrimp fried rice\r\nBeen so long since", "Artist": "T.I.", "Country": "USA", "Title": "FuckWitMeYouKnowIGotIt (Lil Wayne)", "Longitude": "-84.41918", "County": "Fulton", "State": "Georgia", "Latitude": "33.77155", "Type": "Solo M", "Release date": null},{"Album": "The Blueprint 2 The Gift The Curse", "City": "Brooklyn", "Lyrics": "of their life fucking wings fried\r\nVegetable rice(gotta be kidding)\r\nNo breakfast Cap'n Crunch at night\r\nOur", "Artist": "Jay Z", "Country": "USA", "Title": "Some How Some Way", "Longitude": "-73.989872", "County": "Kings", "State": "New York", "Latitude": "40.692385", "Type": "Solo M", "Release date": "2002-01-01"},{"Album": "Mama Said Knock You Out", "City": "Queens", "Lyrics": "I'll have you cookin fried rice in a big steel box\r\nThe type of skills that I got reigned for years", "Artist": "LL Cool J", "Country": "USA", "Title": "Farmers Blvd. (Our Anthem)", "Longitude": "-73.829959", "County": "Queens", "State": "New York", "Latitude": "40.713985", "Type": "Solo M", "Release date": "1991-01-01"}]