[{"Album": "Flippy Floppy", "City": "Roosevelt", "Lyrics": "49\n\r\n[Verse 1: The Real Ice Cream Man]\r\n49 doesn't have the time for lame rhymes\r\nWait in line", "Artist": "MF DOOM", "Country": "USA", "Title": "49", "Longitude": "-73.585556", "County": "Nassau", "State": "New York", "Latitude": "40.679167", "Type": "Solo M", "Release date": "2014-01-31"},{"Album": "The Lex Diamond Story", "City": "Staten Island", "Lyrics": "Ice Cream Pt. 2\n\r\n[Intro: Raekwon]\r\nThis is little Kane though\r\nHis little sobrero\r\n(The Ice Water", "Artist": "Raekwon", "Country": "USA", "Title": "Ice Cream Pt. 2", "Longitude": "-74.144839", "County": "Richmond", "State": "New York", "Latitude": "40.576281", "Type": "Solo M", "Release date": "2003-01-01"},{"Album": "Only Built 4 Cuban Linx...", "City": "Staten Island", "Lyrics": "Ice Cream\n\r\n[Intro: Method Man]\r\nMa, Ma, throw down some money\r\nThe ice cream man is coming", "Artist": "Raekwon", "Country": "USA", "Title": "Ice Cream", "Longitude": "-74.144839", "County": "Richmond", "State": "New York", "Latitude": "40.576281", "Type": "Solo M", "Release date": "1995-08-01"},{"Album": "Record Single", "City": "Staten Island", "Lyrics": "Ice Cream (Raekwon) (Ft. Cappadonna & Method Man) prod. by RZA\n\r\n[Intro: Method Man]\r\nMa, Ma, throw", "Artist": "Ghostface Killah", "Country": "USA", "Title": "Ice Cream (Raekwon) (Ft. Cappadonna & Method Man) prod. by RZA", "Longitude": "-74.144839", "County": "Richmond", "State": "New York", "Latitude": "40.576281", "Type": "Solo M", "Release date": null},{"Album": "Record Single", "City": "Staten Island", "Lyrics": "Ice Cream (Ft. Cappadonna, Ghostface Killah & Method Man) prod. by RZA\n\r\n[Intro: Method Man]\r\nMa", "Artist": "Raekwon", "Country": "USA", "Title": "Ice Cream (Ft. Cappadonna, Ghostface Killah & Method Man) prod. by RZA", "Longitude": "-74.144839", "County": "Richmond", "State": "New York", "Latitude": "40.576281", "Type": "Solo M", "Release date": null},{"Album": "Brake Lights", "City": "Compton", "Lyrics": "it through L.A. till niggas thought it was Dre\r\nBangin' Ice Cube, Ice-T, Master P came with ice cream", "Artist": "Game", "Country": "USA", "Title": "Stop", "Longitude": "-118.224329", "County": "Los Angeles", "State": "California", "Latitude": "33.895285", "Type": "Solo M", "Release date": "2010-08-03"},{"Album": "UKNOWBIGSEAN", "City": "Detroit", "Lyrics": "the hell you find a nigga like me\r\nSnotty nose lil' nigga, used to tear up ice cream\r\nNow I'm wearin", "Artist": "Big Sean", "Country": "USA", "Title": "Million Dollars", "Longitude": "-83.045833", "County": "Wayne", "State": "Michigan", "Latitude": "42.331389", "Type": "Solo M", "Release date": "2009-04-21"},{"Album": "Therapist Collection, Before the Come Up", "City": "Fayetteville", "Lyrics": "True Love\n\r\n[Hook]\r\nAyo, paper, green or chedder, cheese or bread\r\nThe cream is better, cake niggas", "Artist": "J. Cole", "Country": "USA", "Title": "True Love", "Longitude": "-78.878056", "County": "Cumberland", "State": "North Carolina", "Latitude": "35.0525", "Type": "Solo M", "Release date": "2010-07-19"},{"Album": "Record Single", "City": "Bedford\u2013Stuyvesant", "Lyrics": ". is a born trooper\r\nLike ice cream I scoop ya, my music you wanna get loose ta\r\nStay pimp, and I'm", "Artist": "The Notorious B.I.G.", "Country": "USA", "Title": "1988 Freestyle", "Longitude": "-73.963796", "County": "Kings", "State": "New York", "Latitude": "40.692385", "Type": "Solo M", "Release date": null},{"Album": "Doctor's Advocate", "City": "Compton", "Lyrics": ", what the fuck you do?\r\nI'm the ice cream truck man, guns in the trunk man\r\nDrugs in the trunk man, call", "Artist": "Game", "Country": "USA", "Title": "Too Much", "Longitude": "-118.224329", "County": "Los Angeles", "State": "California", "Latitude": "33.895285", "Type": "Solo M", "Release date": "2006-11-14"},{"Album": "Todd smith", "City": "Queens", "Lyrics": "rookies, fail to understand\r\nEvery summer I return like the ice cream man\r\nDrop what you doin, get", "Artist": "LL Cool J", "Country": "USA", "Title": "Favorite Flavor", "Longitude": "-73.829959", "County": "Queens", "State": "New York", "Latitude": "40.713985", "Type": "Solo M", "Release date": "2006-01-01"},{"Album": "Immobilarity", "City": "Staten Island", "Lyrics": "door\r\nYes, the shit is raw, comin at ya door\r\nStart to scream out loud, Cream Team's back for more", "Artist": "Raekwon", "Country": "USA", "Title": "Raw", "Longitude": "-74.144839", "County": "Richmond", "State": "New York", "Latitude": "40.576281", "Type": "Solo M", "Release date": "1999-01-01"},{"Album": "No Ceilings", "City": "New Orleans", "Lyrics": "Ice Cream\nYoung Money,syrup in the big shot\r\nTime to do the thing, that's word to your wrist watch", "Artist": "Lil Wayne", "Country": "USA", "Title": "Ice Cream", "Longitude": "-90.077714", "County": "Orleans", "State": "Louisiana", "Latitude": "29.95369", "Type": "Solo M", "Release date": "2009-10-31"},{"Album": "Only Built 4 Cuban Linx...", "City": "Staten Island", "Lyrics": "Glaciers of Ice\n\r\n[Intro]\r\nYeah\r\nYo son you gotta take me to get them Clarks, man\r\nYo, check it out", "Artist": "Raekwon", "Country": "USA", "Title": "Glaciers of Ice", "Longitude": "-74.144839", "County": "Richmond", "State": "New York", "Latitude": "40.576281", "Type": "Solo M", "Release date": "1995-08-01"},{"Album": "Record Single", "City": "Compton", "Lyrics": "cream cones\r\nAnd certain rappers were still yet to be known\r\n\r\nDre, Ice Cube, Rakim, and Cool J had", "Artist": "Dr. Dre", "Country": "USA", "Title": "90s' Baby", "Longitude": "-118.224329", "County": "Los Angeles", "State": "California", "Latitude": "33.895285", "Type": "Solo M", "Release date": null},{"Album": "Record Single", "City": "Crown Heights", "Lyrics": "takin' road trips for real\r\nRoute 13 with the vacuum seal\r\nPre-paid Legal on my window shield\r\nThe ice", "Artist": "Troy Ave", "Country": "USA", "Title": "Road Runner (Pusha T) prod. by Harry Fraud", "Longitude": "-73.944722", "County": "Kings", "State": "New York", "Latitude": "40.663056", "Type": "Solo M", "Release date": null},{"Album": "Charge it to the Game", "City": "Compton", "Lyrics": ", how you call your self the Ice Cream Man\r\nWhen Master P took your name and your ice cream van\r\nMade", "Artist": "Game", "Country": "USA", "Title": "I Got a Million on It", "Longitude": "-118.224329", "County": "Los Angeles", "State": "California", "Latitude": "33.895285", "Type": "Solo M", "Release date": "2006-01-01"},{"Album": "Fuck Da City Up", "City": "Atlanta", "Lyrics": "between ya ass and I'll blow it\r\nI'm talkin' Cool Whip, apple pie, chocolate cake or ice cream\r\nSpread", "Artist": "T.I.", "Country": "USA", "Title": "This Time Of Night", "Longitude": "-84.41918", "County": "Fulton", "State": "Georgia", "Latitude": "33.77155", "Type": "Solo M", "Release date": null},{"Album": "G.O.A.T. (Greatest Of All Time)", "City": "Queens", "Lyrics": "gettin money on the\r\n(Hot block)\r\nHe got the chrome shit spinnin up on\r\n(Linden)\r\nLook at the ice", "Artist": "LL Cool J", "Country": "USA", "Title": "Farmers", "Longitude": "-73.829959", "County": "Queens", "State": "New York", "Latitude": "40.713985", "Type": "Solo M", "Release date": "2000-01-01"},{"Album": "Past, Present, Future", "City": "Atlanta", "Lyrics": "wanna get to legendary\r\nI want ice, I want cream, boy Ben & Jerry\r\nKinda very sick & dawg I promise", "Artist": "Future", "Country": "USA", "Title": "Closer to My Dreams (Freestyle)", "Longitude": "-84.41918", "County": "Fulton", "State": "Georgia", "Latitude": "33.77155", "Type": "Solo M", "Release date": null},{"Album": "The Big Doe Rehab", "City": "Staten Island", "Lyrics": "Buying frosted bracelets, Louis Voutton duffles\r\nFrench vanilla ice cream and hot apple pie truffles", "Artist": "Ghostface Killah", "Country": "USA", "Title": "Slow Down", "Longitude": "-74.144839", "County": "Richmond", "State": "New York", "Latitude": "40.576281", "Type": "Solo M", "Release date": "2007-12-04"},{"Album": "1999", "City": "Bedford\u2013Stuyvesant", "Lyrics": "you can think you cool with your nice things\r\nBut get wiped cleaned for ice cream when the lights beam", "Artist": "Joey BADA$$", "Country": "USA", "Title": "Daily Routine", "Longitude": "-73.963796", "County": "Kings", "State": "New York", "Latitude": "40.692385", "Type": "Solo M", "Release date": "2012-06-12"},{"Album": "R&G (Rhythm & Gangsta): The Masterpiece", "City": "Long Beach", "Lyrics": ": Pharrell]\r\nI'm a nice dude, with some nice dreams\r\nSee these ice cubes, see these Ice Creams?\r\nEligible", "Artist": "Snoop Dogg", "Country": "USA", "Title": "Drop it Like it's Hot", "Longitude": "-118.195556", "County": "Los Angeles", "State": "California", "Latitude": "33.768333", "Type": "Solo M", "Release date": "2004-11-16"},{"Album": "Comeback Season", "City": "Toronto", "Lyrics": "steady getting more money more cream\r\nMy flow is stuck in the moment that comes before a dream\r\nI stay", "Artist": "Drake", "Country": "CAN", "Title": "The Last Hope", "Longitude": "-79.4", "County": "", "State": "Ontario", "Latitude": "43.7", "Type": "Solo M", "Release date": "2007-11-25"},{"Album": "Streets is Watching soundtrack", "City": "Brooklyn", "Lyrics": "the cream\r\nMaterialize keys to a Benz, and so I'm rollin\r\nFor now, holdin down the fort, who's", "Artist": "Jay Z", "Country": "USA", "Title": "In My Lifetime (Remix)", "Longitude": "-73.989872", "County": "Kings", "State": "New York", "Latitude": "40.692385", "Type": "Solo M", "Release date": "1998-05-12"},{"Album": "Doctor's Advocate", "City": "Compton", "Lyrics": "Like a bitch in the club, watch him strip in the club\r\nYou like ice creams? Get a banana split", "Artist": "Game", "Country": "USA", "Title": "Bang", "Longitude": "-118.224329", "County": "Los Angeles", "State": "California", "Latitude": "33.895285", "Type": "Solo M", "Release date": "2006-11-14"},{"Album": "Da Game is to be Sold, Not to be Told", "City": "Long Beach", "Lyrics": "by the ice cream shop\r\nTo cop something, pop something, ya heard me\r\nWhere's Serv-B, nigga well serve me", "Artist": "Snoop Dogg", "Country": "USA", "Title": "Gin & Juice II", "Longitude": "-118.195556", "County": "Los Angeles", "State": "California", "Latitude": "33.768333", "Type": "Solo M", "Release date": "1998-08-04"},{"Album": "Record Single", "City": "Long Beach", "Lyrics": "these ice cubes, see these Ice Creams?\r\nEligible bachelor, million dollar boat\r\nThat's whiter than what's", "Artist": "Snoop Dogg", "Country": "USA", "Title": "Drop it Like it's Hot (Ft. Pharrell Williams) prod. by The Neptunes", "Longitude": "-118.195556", "County": "Los Angeles", "State": "California", "Latitude": "33.768333", "Type": "Solo M", "Release date": null},{"Album": "The Lost Tape", "City": "Queens", "Lyrics": "craaawl\r\nHope I ain't the last real nigga up over the waaall\r\nIce chunks in the chain, - weight spinnin", "Artist": "50 Cent", "Country": "USA", "Title": "Complicated", "Longitude": "-73.829959", "County": "Queens", "State": "New York", "Latitude": "40.713985", "Type": "Solo M", "Release date": "2012-05-22"},{"Album": "Purp & Patron", "City": "Compton", "Lyrics": "the top, tell lil mama to drop in\r\nI like my ice creams with toppings\r\nBut we ain't going", "Artist": "Game", "Country": "USA", "Title": "In My 64", "Longitude": "-118.224329", "County": "Los Angeles", "State": "California", "Latitude": "33.895285", "Type": "Solo M", "Release date": "2011-01-24"},{"Album": "Sucka Free (Mixtape)", "City": "Jamaica", "Lyrics": "you want them B cups or them C cups?\r\nFor your ice cream, chocolate or butter P cups\r\nFrench", "Artist": "Nicki Minaj", "Country": "USA", "Title": "Cuchi Shop", "Longitude": "-73.80842", "County": "Queens", "State": "New York", "Latitude": "40.701782", "Type": "Solo F", "Release date": "2008-01-01"},{"Album": "Record Single", "City": "Roosevelt", "Lyrics": "to the problem that's presented\r\nYou and I are lab-rats being tested\r\nEating this ice cream, now I have to see", "Artist": "MF DOOM", "Country": "USA", "Title": "Apis (D0mniscient)", "Longitude": "-73.585556", "County": "Nassau", "State": "New York", "Latitude": "40.679167", "Type": "Solo M", "Release date": null},{"Album": "Exit 13", "City": "Queens", "Lyrics": "a mack\r\nA purebred dog, not one of them alley cats\r\nThorough to the max, Q-boro matter fact\r\nIce so", "Artist": "LL Cool J", "Country": "USA", "Title": "We Rollin'", "Longitude": "-73.829959", "County": "Queens", "State": "New York", "Latitude": "40.713985", "Type": "Solo M", "Release date": "2008-01-01"},{"Album": "Hoodmorning (No Typo): Candy Coronas", "City": "Compton", "Lyrics": "or hate me, it\u00e2\u20ac\u2122s all gravy\r\nSo icy, so punch or break nigga\r\nIce cream on my face, it ain\u00e2\u20ac\u2122t", "Artist": "Game", "Country": "USA", "Title": "Wow", "Longitude": "-118.224329", "County": "Los Angeles", "State": "California", "Latitude": "33.895285", "Type": "Solo M", "Release date": "2011-01-01"},{"Album": "Pluto Mixtape", "City": "Atlanta", "Lyrics": "Bigger Picture\n\r\n[HOOK]\r\nIt ain't all about the ice, all the nights a nigga sacrificed (yeah", "Artist": "Future", "Country": "USA", "Title": "Bigger Picture", "Longitude": "-84.41918", "County": "Fulton", "State": "Georgia", "Latitude": "33.77155", "Type": "Solo M", "Release date": "2012-04-13"},{"Album": "Diamond Princess", "City": "Miami", "Lyrics": "with a rider like me\r\nCoppin you nice things\r\nPrada and ice blings\r\nDo you want me\r\nOr a rider", "Artist": "Trina", "Country": "USA", "Title": "Do You Want Me?", "Longitude": "-80.237419", "County": "Miami-Dade", "State": "Florida", "Latitude": "25.728985", "Type": "Solo F", "Release date": "2002-01-01"},{"Album": "House of Wax: The Vatican Mixtape, Vol. 3", "City": "Staten Island", "Lyrics": "your will cause we will, Kill at will when it's real\r\nCream Team is the sun's equation, In this nation", "Artist": "Raekwon", "Country": "USA", "Title": "Russian Cut", "Longitude": "-74.144839", "County": "Richmond", "State": "New York", "Latitude": "40.576281", "Type": "Solo M", "Release date": "2007-08-06"},{"Album": "Only Built 4 Cuban Linx...", "City": "Staten Island", "Lyrics": "Get real y'all, taking you on another one Son\r\nUhh, Julio Iglesias\r\nMaking CREAM like that nigga", "Artist": "Raekwon", "Country": "USA", "Title": "Criminology", "Longitude": "-74.144839", "County": "Richmond", "State": "New York", "Latitude": "40.576281", "Type": "Solo M", "Release date": "1995-08-01"},{"Album": "Born Again", "City": "Bedford\u2013Stuyvesant", "Lyrics": "The realest niggas never took nuthin from me\r\nRock ice, stay jig, fuck with niggas that got drunk", "Artist": "The Notorious B.I.G.", "Country": "USA", "Title": "Biggie", "Longitude": "-73.963796", "County": "Kings", "State": "New York", "Latitude": "40.692385", "Type": "Solo M", "Release date": "1999-01-01"},{"Album": "Born Again", "City": "Bedford\u2013Stuyvesant", "Lyrics": "The realest niggas never took nuthin from me\r\nRock ice, stay jig, fuck with niggas that got drunk, and hate", "Artist": "The Notorious B.I.G.", "Country": "USA", "Title": "Biggie", "Longitude": "-73.963796", "County": "Kings", "State": "New York", "Latitude": "40.692385", "Type": "Solo M", "Release date": "1999-01-01"},{"Album": "It Was Written", "City": "Brooklyn", "Lyrics": "people from Medina they will see you\r\nWhen you re-up bring your heater all your cream go between us", "Artist": "Foxy Brown", "Country": "USA", "Title": "Affirmative Action", "Longitude": "-73.989872", "County": "Kings", "State": "New York", "Latitude": "40.692385", "Type": "Solo F", "Release date": "1996-01-01"},{"Album": "Record Single", "City": "Brooklyn", "Lyrics": "and rugbies\r\nYo, my people from Medina they will see you\r\nWhen you re-up bring your heater all your cream", "Artist": "Foxy Brown", "Country": "USA", "Title": "Affirmative Action (Nas) (Ft. AZ & Cormega) prod. by Dave Atkinson & Trackmasters", "Longitude": "-73.989872", "County": "Kings", "State": "New York", "Latitude": "40.692385", "Type": "Solo F", "Release date": null},{"Album": "Me Against the World", "City": "Marin City", "Lyrics": "is hard as Hell...)\r\nThe ice cream truck, remember all the mother\r\nMember the italian icey's yo?\r\nYo", "Artist": "2Pac", "Country": "USA", "Title": "Old School", "Longitude": "-122.516579", "County": "Marin", "State": "California", "Latitude": "37.87199", "Type": "Solo M", "Release date": "1995-03-14"},{"Album": "Killa Season", "City": "Harlem", "Lyrics": "and savor it\r\nVanilla Ice Cream, she say \"ooh, my favorite\"\r\nDo you know who you playin' wit?\r\nWayne", "Artist": "Camron", "Country": "USA", "Title": "Touch it or Not", "Longitude": "-73.944862", "County": "Manhattan", "State": "New York", "Latitude": "40.806198", "Type": "Solo M", "Release date": "2006-05-16"},{"Album": "Follow the Leader", "City": "Wyandanch", "Lyrics": "instead of cones of ice cream\r\nMusic orientated so when hip-hop was originated\r\nFitted like pieces", "Artist": "Rakim", "Country": "USA", "Title": "Microphone Fiend", "Longitude": "-73.357999", "County": "Suffolk", "State": "New York", "Latitude": "40.75986", "Type": "Solo M", "Release date": "1988-07-26"},{"Album": "QB Finest", "City": "Queensbridge", "Lyrics": "Chorus (Nas)\r\nIllmatic Ice, Goon, Sonny, and Smitty (real niggas)\r\nBig Felton, Chick, Petey, and Sarge", "Artist": "Nas", "Country": "USA", "Title": "Real Niggas", "Longitude": "-73.937622", "County": "Queens", "State": "New York", "Latitude": "40.756279", "Type": "Solo M", "Release date": "2000-11-21"},{"Album": "Ill Na Na", "City": "Brooklyn", "Lyrics": "the weights and ice\r\nTo get the dough and the guns, and then we straight\r\nHe had the block locked", "Artist": "Foxy Brown", "Country": "USA", "Title": "Letter to the Firm (Holy Matrimony)", "Longitude": "-73.989872", "County": "Kings", "State": "New York", "Latitude": "40.692385", "Type": "Solo F", "Release date": "1996-11-19"},{"Album": "It Was Written", "City": "Queensbridge", "Lyrics": "people from Medina they will see you\r\nWhen you re-up bring your heater all your cream go between us", "Artist": "Nas", "Country": "USA", "Title": "Affirmative Action", "Longitude": "-73.937622", "County": "Queens", "State": "New York", "Latitude": "40.756279", "Type": "Solo M", "Release date": "1996-01-01"},{"Album": "Nastradamus", "City": "Queensbridge", "Lyrics": "me take it to the kitchen and play\r\nWe got champagne, whipped cream, I'mma grab abucket of ice", "Artist": "Nas", "Country": "USA", "Title": "Big Girl", "Longitude": "-73.937622", "County": "Queens", "State": "New York", "Latitude": "40.756279", "Type": "Solo M", "Release date": "1999-11-23"},{"Album": "Record Single", "City": "Queensbridge", "Lyrics": "cream go between us\r\nReal shit, my Desert Eagle got a ill grip\r\nI chill with niggas that hit Dominican", "Artist": "Nas", "Country": "USA", "Title": "Affirmative Action (Ft. AZ, Cormega & Foxy Brown) prod. by Dave Atkinson & Trackmasters", "Longitude": "-73.937622", "County": "Queens", "State": "New York", "Latitude": "40.756279", "Type": "Solo M", "Release date": null},{"Album": "Record Single", "City": "Bedford\u2013Stuyvesant", "Lyrics": "somethin funny\r\nThe realest niggas never took nuthin from me\r\nRock ice, stay jig, fuck with niggas", "Artist": "The Notorious B.I.G.", "Country": "USA", "Title": "Biggie (Ft. Junior M.A.F.I.A.)", "Longitude": "-73.963796", "County": "Kings", "State": "New York", "Latitude": "40.692385", "Type": "Solo M", "Release date": null},{"Album": "Comeback Season", "City": "Toronto", "Lyrics": "in it swervin\r\nHotter than a bitch rock,Cooler than some ice cream\r\nGotta feed myself I'm up here living", "Artist": "Drake", "Country": "CAN", "Title": "Must Hate Money", "Longitude": "-79.4", "County": "", "State": "Ontario", "Latitude": "43.7", "Type": "Solo M", "Release date": "2007-11-25"},{"Album": "Distant Relatives", "City": "Queensbridge", "Lyrics": "And some bwoy soft like ice cream\r\nNah Mean\r\nFrom a bwoy mek the Feds intervene\r\nNah Mean\r\nWe send a bwoy", "Artist": "Nas", "Country": "USA", "Title": "Nah Mean", "Longitude": "-73.937622", "County": "Queens", "State": "New York", "Latitude": "40.756279", "Type": "Solo M", "Release date": "2010-01-01"},{"Album": "Mr. Smith", "City": "Queens", "Lyrics": "day dreams\r\nTounging you down with huh vanilla ice cream\r\nKissing on your thighs in the moonlight", "Artist": "LL Cool J", "Country": "USA", "Title": "Hey Lover", "Longitude": "-73.829959", "County": "Queens", "State": "New York", "Latitude": "40.713985", "Type": "Solo M", "Release date": "1995-11-21"},{"Album": "Teflon Don", "City": "Carol City", "Lyrics": "a dope line similar to Cold Stone's\r\nIce cream, pipe dreams\r\nIs what they have when I pull up", "Artist": "Rick Ross", "Country": "USA", "Title": "Maybach Music III", "Longitude": "-80.269920", "County": "Miami-Dade", "State": "Florida", "Latitude": "25.942121", "Type": "Solo M", "Release date": "2010-07-20"},{"Album": "More Malice", "City": "Long Beach", "Lyrics": "cabbage sacks instead of cones of ice cream\r\nCrime orientated that's how the west was originated", "Artist": "Snoop Dogg", "Country": "USA", "Title": "I Wanna Rock (The Kings G-Mix)", "Longitude": "-118.195556", "County": "Los Angeles", "State": "California", "Latitude": "33.768333", "Type": "Solo M", "Release date": "2010-03-23"},{"Album": "Ill Na Na", "City": "Brooklyn", "Lyrics": "'\r\nOooh, shoulda seen that ill Roley on his wrist\r\nIt seem like he fuckin wit cream somethin mean", "Artist": "Foxy Brown", "Country": "USA", "Title": "The Promise", "Longitude": "-73.989872", "County": "Kings", "State": "New York", "Latitude": "40.692385", "Type": "Solo F", "Release date": "1996-11-19"},{"Album": "Unfinished Business", "City": "Brooklyn", "Lyrics": "wanna taste your ice cream\r\nIt's the weekend baby I got the {?}\r\nGo on girl, the way you do me", "Artist": "Jay Z", "Country": "USA", "Title": "Pretty Girls", "Longitude": "-73.989872", "County": "Kings", "State": "New York", "Latitude": "40.692385", "Type": "Solo M", "Release date": "2004-10-26"},{"Album": "Record Single", "City": "Brooklyn", "Lyrics": "Don't want hear nobody blow steam\r\nJust cream or it's a smoke screen\r\nImagine that, that's why I hardly", "Artist": "Foxy Brown", "Country": "USA", "Title": "Watch Dem Niggas (Nas) prod. by Trackmasters", "Longitude": "-73.989872", "County": "Kings", "State": "New York", "Latitude": "40.692385", "Type": "Solo F", "Release date": null},{"Album": "Streetz Calling", "City": "Atlanta", "Lyrics": ")\r\nTook shit to the extreme (yeah,yeah)\r\nYoung future supreme (yeah,yeah)\r\nIm chasing that cream (yeah", "Artist": "Future", "Country": "USA", "Title": "Gone To The Moon", "Longitude": "-84.41918", "County": "Fulton", "State": "Georgia", "Latitude": "33.77155", "Type": "Solo M", "Release date": "2011-09-09"},{"Album": "Put it on the Line", "City": "Staten Island", "Lyrics": "words in the streets\r\nRoll sheets to the icky, chocolate Wonka\r\nI'm like the ice cream man, I make", "Artist": "Ghostface Killah", "Country": "USA", "Title": "Outta the Way", "Longitude": "-74.144839", "County": "Richmond", "State": "New York", "Latitude": "40.576281", "Type": "Solo M", "Release date": "2005-11-18"},{"Album": "In My Lifetime, Vol. 1", "City": "Brooklyn", "Lyrics": "Sell half of what I sell because it's not quite my shit\r\nI'm the type to buy a Roley and just ice my", "Artist": "Jay Z", "Country": "USA", "Title": "The City is Mine", "Longitude": "-73.989872", "County": "Kings", "State": "New York", "Latitude": "40.692385", "Type": "Solo M", "Release date": "1997-11-04"},{"Album": "The R.E.D. Album", "City": "Compton", "Lyrics": ", plural, nigga I\u00e2\u20ac\u2122m spending Euros\r\nFerrari got an ice cream paint job, Dorrough\r\nI\u00e2\u20ac\u2122m up out", "Artist": "Game", "Country": "USA", "Title": "Red Nation", "Longitude": "-118.224329", "County": "Los Angeles", "State": "California", "Latitude": "33.895285", "Type": "Solo M", "Release date": "2011-08-19"},{"Album": "It Was Written", "City": "Queensbridge", "Lyrics": "Just cream or it's a smoke screen\r\nImagine that, that's why I hardly kick the bragging raps\r\nI zone", "Artist": "Nas", "Country": "USA", "Title": "Watch Dem Niggas", "Longitude": "-73.937622", "County": "Queens", "State": "New York", "Latitude": "40.756279", "Type": "Solo M", "Release date": "1996-01-01"},{"Album": "The Lex Diamond Story", "City": "Staten Island", "Lyrics": "name?\r\nLexus Diamond, Ice Water Inc\r\n\r\n[Interlude: Masta Killa]\r\nHuh.. (uh-uh-uh-uh)\r\nUh! Yeah", "Artist": "Raekwon", "Country": "USA", "Title": "Musketeers of Pig Alley", "Longitude": "-74.144839", "County": "Richmond", "State": "New York", "Latitude": "40.576281", "Type": "Solo M", "Release date": "2003-01-01"},{"Album": "GOOD Friday", "City": "Chicago", "Lyrics": "Money drive you crazy, look at Marbury\u00e2\u20ac\u2122s handle\r\nVaseline face,reminiscent of my tires\r\nIce", "Artist": "Kanye West", "Country": "USA", "Title": "GOOD Friday", "Longitude": "-87.632409", "County": "Cook", "State": "Illinois", "Latitude": "41.88415", "Type": "Solo M", "Release date": "2010-08-20"},{"Album": "Put it on the Line", "City": "Staten Island", "Lyrics": "see me break\r\nHad these niggas skating on ice, doing a figure eight\r\nTwelve getting strong", "Artist": "Ghostface Killah", "Country": "USA", "Title": "Milk 'Em", "Longitude": "-74.144839", "County": "Richmond", "State": "New York", "Latitude": "40.576281", "Type": "Solo M", "Release date": "2005-11-18"},{"Album": "LAX", "City": "Compton", "Lyrics": "(flesh)\r\nTake you out of them Vickiesmake you forget about your (ex)\r\nLet me spray this whip cream", "Artist": "Game", "Country": "USA", "Title": "Touchdown", "Longitude": "-118.224329", "County": "Los Angeles", "State": "California", "Latitude": "33.895285", "Type": "Solo M", "Release date": "2008-01-01"},{"Album": "The Master", "City": "Wyandanch", "Lyrics": "and cream, diamonds and ice\r\nYou like pieces of dreams you shinin' in the night\r\nFeatures of a Queen", "Artist": "Rakim", "Country": "USA", "Title": "I'll Be There", "Longitude": "-73.357999", "County": "Suffolk", "State": "New York", "Latitude": "40.75986", "Type": "Solo M", "Release date": "1999-01-01"},{"Album": "The Carter #2 Mixtape (Like Father, Like Son)", "City": "New Orleans", "Lyrics": "...\r\nD-Boy in the B-U-I-L-ding\r\nHe who buy and sell things\r\nFeds hear my cell ring\r\nPhone we say ice", "Artist": "Lil Wayne", "Country": "USA", "Title": "Feeling Myself", "Longitude": "-90.077714", "County": "Orleans", "State": "Louisiana", "Latitude": "29.95369", "Type": "Solo M", "Release date": "2005-12-05"},{"Album": "Come Home With Me", "City": "Harlem", "Lyrics": "you riding' wanna roll in the Coupe\r\nSee you a ice cream want you to throw her a scoop\r\nI don't get", "Artist": "Camron", "Country": "USA", "Title": "On Fire Tonight", "Longitude": "-73.944862", "County": "Manhattan", "State": "New York", "Latitude": "40.806198", "Type": "Solo M", "Release date": "2002-05-14"},{"Album": "Put it on the Line", "City": "Staten Island", "Lyrics": "eighty notes\r\nShe nineteen and fiend for 'Ice Cream' like Rae and Ghost\r\nGood girl, or bad girl, nigga", "Artist": "Ghostface Killah", "Country": "USA", "Title": "Event", "Longitude": "-74.144839", "County": "Richmond", "State": "New York", "Latitude": "40.576281", "Type": "Solo M", "Release date": "2005-11-18"},{"Album": "Apollo Kids", "City": "Staten Island", "Lyrics": "onions iced up, real little, wifed up\r\nGotti trench men is real brittle, Poconos is where I go", "Artist": "Ghostface Killah", "Country": "USA", "Title": "Black Tequila", "Longitude": "-74.144839", "County": "Richmond", "State": "New York", "Latitude": "40.576281", "Type": "Solo M", "Release date": "2010-01-01"},{"Album": "Last Real Nigga Alive (The Lost Album Vol. 1)", "City": "Queensbridge", "Lyrics": ": NAS]\r\nIce on gold from mossbergsto golf clubs\r\nNinth hole, the white rose, the life I chose", "Artist": "Nas", "Country": "USA", "Title": "Film", "Longitude": "-73.937622", "County": "Queens", "State": "New York", "Latitude": "40.756279", "Type": "Solo M", "Release date": "2011-01-01"},{"Album": "Untitled", "City": "Queensbridge", "Lyrics": ", rich and flashy; young bitch, I'm nasty\r\nAll black clothes 'til ice lay on me so classy\r\nAnd every", "Artist": "Nas", "Country": "USA", "Title": "Hero", "Longitude": "-73.937622", "County": "Queens", "State": "New York", "Latitude": "40.756279", "Type": "Solo M", "Release date": "2008-01-01"},{"Album": "Mama Said Knock You Out", "City": "Queens", "Lyrics": "own\r\nIt's my prerogative and my microphone\r\nCome and get this ice-cream cone\r\nOr I'll deliver", "Artist": "LL Cool J", "Country": "USA", "Title": "Mr. Goodbar", "Longitude": "-73.829959", "County": "Queens", "State": "New York", "Latitude": "40.713985", "Type": "Solo M", "Release date": "1991-01-01"},{"Album": "Supa Dupa Fly", "City": "Portsmouth", "Lyrics": "' Kim\r\nThe triple beam, the misdemean\r\nNigga queen, whoomp, we Tag Team\r\nSo hot we melt like ice", "Artist": "Missy Elliott", "Country": "USA", "Title": "I'm Talkin", "Longitude": "-76.297715", "County": "Portsmouth", "State": "Virginia", "Latitude": "36.832642", "Type": "Solo F", "Release date": "1997-01-01"},{"Album": "The Big Bang", "City": "Uniondale", "Lyrics": "buyin 'em drinks\r\nWalk around lookin like our shit don't stink\r\nIce by my neck so bright, watch 'em", "Artist": "Busta Rhymes", "Country": "USA", "Title": "How We Do it Over Here", "Longitude": "-73.593544", "County": "Nassau", "State": "New York", "Latitude": "40.717935", "Type": "Solo M", "Release date": "2006-06-13"},{"Album": "Record Single", "City": "Queensbridge", "Lyrics": "nikes on\r\nRecite nice on mics strike like a python\r\nMy gold chain with ice on lookin' trife on\r\nMy", "Artist": "Nas", "Country": "USA", "Title": "96 Freestyle", "Longitude": "-73.937622", "County": "Queens", "State": "New York", "Latitude": "40.756279", "Type": "Solo M", "Release date": null},{"Album": "UKNOWBIGSEAN", "City": "Detroit", "Lyrics": "Bathing\r\nAnd when the heat blaze on high beams, you scream, I scream\r\nFor some cold ass ice cream\r\nYou", "Artist": "Big Sean", "Country": "USA", "Title": "Getcha Some", "Longitude": "-83.045833", "County": "Wayne", "State": "Michigan", "Latitude": "42.331389", "Type": "Solo M", "Release date": "2009-04-21"},{"Album": "Jesus Piece", "City": "Compton", "Lyrics": "Karats in my bezel\r\nI\u00e2\u20ac\u2122m on, like soon as the ice cream truck at the ghetto\r\nLittle knucklehead", "Artist": "Game", "Country": "USA", "Title": "Celebration", "Longitude": "-118.224329", "County": "Los Angeles", "State": "California", "Latitude": "33.895285", "Type": "Solo M", "Release date": "2012-12-11"},{"Album": "Record Single", "City": "Toronto", "Lyrics": "night\r\nI will have a model wife, your bitch is as hot as ice\r\nEvery time you see me I look like I hit", "Artist": "Drake", "Country": "CAN", "Title": "All Night Long (Miss Me Demo) (Ft. Bun B & Lil Wayne) prod. by Boi-1da & Noah \"40\" Shebib", "Longitude": "-79.4", "County": "", "State": "Ontario", "Latitude": "43.7", "Type": "Solo M", "Release date": null},{"Album": "Broken Silence", "City": "Brooklyn", "Lyrics": "in it for the love\r\nA thug for the cheese\r\nMy crew maxin', June Jacksons, free of taxes\r\nBaby cream", "Artist": "Foxy Brown", "Country": "USA", "Title": "Run Yo Shit", "Longitude": "-73.989872", "County": "Kings", "State": "New York", "Latitude": "40.692385", "Type": "Solo F", "Release date": "2001-07-17"},{"Album": "More Fish", "City": "Staten Island", "Lyrics": "straws\r\nDudes step off the scene, black face and four-four\r\nThe CREAM that we stack up, cake and whores", "Artist": "Ghostface Killah", "Country": "USA", "Title": "Guns N' Razors", "Longitude": "-74.144839", "County": "Richmond", "State": "New York", "Latitude": "40.576281", "Type": "Solo M", "Release date": "2006-01-01"},{"Album": "Guess Who's Back", "City": "Queens", "Lyrics": ", aiyyo, who da fuck wanna war\r\nI got a four four, pierce ya'll niggas jaw\r\nYou see me thugged out, iced", "Artist": "50 Cent", "Country": "USA", "Title": "Who U Rep With", "Longitude": "-73.829959", "County": "Queens", "State": "New York", "Latitude": "40.713985", "Type": "Solo M", "Release date": "2002-01-01"},{"Album": "Back to the L.A.B. (Lyrical Ass Beating)", "City": "South Bronx", "Lyrics": "face like Botox, you like your old pops\r\nYou ain't running no blocks\r\nY'all dudes is corny, chasing ice", "Artist": "KRS-ONE", "Country": "USA", "Title": "Show Shocked", "Longitude": "-73.91735", "County": "The Bronx", "State": "New York", "Latitude": "40.81621", "Type": "Solo M", "Release date": "2010-01-01"},{"Album": "It Was Written", "City": "Queensbridge", "Lyrics": "the ill Beamers beaming\r\nTriple-beam and doubling cream, had em fiending\r\nTo get they fingers", "Artist": "Nas", "Country": "USA", "Title": "The Set Up", "Longitude": "-73.937622", "County": "Queens", "State": "New York", "Latitude": "40.756279", "Type": "Solo M", "Release date": "1996-01-01"},{"Album": "Mathematics presents Wu Tang Clan and Friends", "City": "Staten Island", "Lyrics": ", packagin' shit\r\nThey ride inside of Ice Cream cones\r\nLook at Northern, that nigga hazed out\r\nHe", "Artist": "Raekwon", "Country": "USA", "Title": "Treez", "Longitude": "-74.144839", "County": "Richmond", "State": "New York", "Latitude": "40.576281", "Type": "Solo M", "Release date": "2007-02-06"},{"Album": "Malice N Wonderland", "City": "Long Beach", "Lyrics": "Incredible, it's edible, my ice cream, have a lick\r\nI'll catch you when you fall like leaves", "Artist": "Snoop Dogg", "Country": "USA", "Title": "Special", "Longitude": "-118.195556", "County": "Los Angeles", "State": "California", "Latitude": "33.768333", "Type": "Solo M", "Release date": "2009-12-08"},{"Album": "La Bella Mafia", "City": "Bedford\u2013Stuyvesant", "Lyrics": "a nigga locked up\r\nCome through in the ice and truck and tear your whole block up\r\n\r\n[Hook: Lil' Kim w", "Artist": "Lil Kim", "Country": "USA", "Title": "Get in Touch With Us", "Longitude": "-73.944444", "County": "Kings", "State": "New York", "Latitude": "40.688889", "Type": "Solo F", "Release date": "2003-01-01"},{"Album": "Ms. G.O.A.T.", "City": "Bedford\u2013Stuyvesant", "Lyrics": "Lick my ice cream like a tasty delight\r\nThe bond between us is tight\r\nI heard Duve poppin tonight", "Artist": "Lil Kim", "Country": "USA", "Title": "Chillin' Tonight", "Longitude": "-73.944444", "County": "Kings", "State": "New York", "Latitude": "40.688889", "Type": "Solo F", "Release date": "2008-01-01"},{"Album": "I Can't Feel My Face Mixtape", "City": "New Orleans", "Lyrics": "Rewind\n[Verse 1: Lil Wayne]\r\n\r\nYea, Ice cream hoodie\r\nBathing Ape Tennis Shoes\r\nNo Time", "Artist": "Lil Wayne", "Country": "USA", "Title": "Rewind", "Longitude": "-90.077714", "County": "Orleans", "State": "Louisiana", "Latitude": "29.95369", "Type": "Solo M", "Release date": "2006-01-01"},{"Album": "Black Roses", "City": "Brooklyn", "Lyrics": "pussy (GOOD OY!!!!)\r\n(*I come get yuh girl yeah I seh dat)\r\nIce cream treats laid back up", "Artist": "Foxy Brown", "Country": "USA", "Title": "Come Fly With Me", "Longitude": "-73.989872", "County": "Kings", "State": "New York", "Latitude": "40.692385", "Type": "Solo F", "Release date": "2005-01-01"},{"Album": "Pink Friday: Roman Reloaded", "City": "Jamaica", "Lyrics": "in the stash\r\n50 Cent Italian, icy flow\r\nThis is that Run-and-Get-a-Dollar-for-The-Ice-Cream-Cone\r\nCause", "Artist": "Nicki Minaj", "Country": "USA", "Title": "Champion", "Longitude": "-73.80842", "County": "Queens", "State": "New York", "Latitude": "40.701782", "Type": "Solo F", "Release date": "2012-01-01"},{"Album": "Blazin' O.S.T", "City": "Staten Island", "Lyrics": "a grudge\r\nDid five, I was guilty, fuck the judge\r\nThe Ave. got mad when I slid back through\r\nIced", "Artist": "Raekwon", "Country": "USA", "Title": "Cuttin' it Up", "Longitude": "-74.144839", "County": "Richmond", "State": "New York", "Latitude": "40.576281", "Type": "Solo M", "Release date": "2001-11-06"},{"Album": "The Blueprint 2 The Gift The Curse", "City": "Brooklyn", "Lyrics": "on the pavement break the dice games up\r\nBehind smoke kids can't chase the ice cream truck\r\nGirls fighting", "Artist": "Jay Z", "Country": "USA", "Title": "Some How Some Way", "Longitude": "-73.989872", "County": "Kings", "State": "New York", "Latitude": "40.692385", "Type": "Solo M", "Release date": "2002-01-01"},{"Album": "Record Single", "City": "Brooklyn", "Lyrics": "goody yes my pussy (GOOD OY!!!!)\r\n(*I come get yuh girl yeah I seh dat)\r\nIce cream treats laid back", "Artist": "Foxy Brown", "Country": "USA", "Title": "Come Fly With Me (Ft. Sizzla)", "Longitude": "-73.989872", "County": "Kings", "State": "New York", "Latitude": "40.692385", "Type": "Solo F", "Release date": null},{"Album": "Finally Famous Vol. 3", "City": "Detroit", "Lyrics": "opened up the doors and seen R Kelly in my closet\r\nAww man, Goddamn ice cream man in my closet\r\nGot", "Artist": "Big Sean", "Country": "USA", "Title": "My Closet", "Longitude": "-83.045833", "County": "Wayne", "State": "Michigan", "Latitude": "42.331389", "Type": "Solo M", "Release date": "2010-10-20"},{"Album": "Thank Me Later", "City": "Toronto", "Lyrics": "[Hook]\r\n\r\n[Bridge: The-Dream]\r\nTMZ, Concrete loop\r\nYou shut that motherfucker down\r\nIce cream", "Artist": "Drake", "Country": "CAN", "Title": "Shut It Down", "Longitude": "-79.4", "County": "", "State": "Ontario", "Latitude": "43.7", "Type": "Solo M", "Release date": "2010-06-15"},{"Album": "Record Single", "City": "Compton", "Lyrics": "as the ice cream truck at the ghetto\r\nLittle knucklehead always in trouble soon as I ask shawty her", "Artist": "Game", "Country": "USA", "Title": "Celebration (Ft. Chris Brown, Lil Wayne, Tyga & Wiz Khalifa) prod. by SAP", "Longitude": "-118.224329", "County": "Los Angeles", "State": "California", "Latitude": "33.895285", "Type": "Solo M", "Release date": null},{"Album": "Sunday Service", "City": "Compton", "Lyrics": "Stacking dough on up, from the floor on up\r\nAnd I'm all through the hood like ice cream trucks", "Artist": "Game", "Country": "USA", "Title": "Rollin'", "Longitude": "-118.224329", "County": "Los Angeles", "State": "California", "Latitude": "33.895285", "Type": "Solo M", "Release date": "2012-01-01"},{"Album": "Immobilarity", "City": "Staten Island", "Lyrics": ", Fiendin like fuck in a green house\r\nRush and cut, chain cream out\r\nBlow steam out\r\nRare like guccis", "Artist": "Raekwon", "Country": "USA", "Title": "100 Rounds", "Longitude": "-74.144839", "County": "Richmond", "State": "New York", "Latitude": "40.576281", "Type": "Solo M", "Release date": "1999-01-01"},{"Album": "Exit 13", "City": "Queens", "Lyrics": "woulda left us alone\r\nIf he saw Jessica Simpson eat an ice cream cone\r\nTeeny bikini, red white", "Artist": "LL Cool J", "Country": "USA", "Title": "American Girl", "Longitude": "-73.829959", "County": "Queens", "State": "New York", "Latitude": "40.713985", "Type": "Solo M", "Release date": "2008-01-01"},{"Album": "Tha Blue Carpet Treatment", "City": "Long Beach", "Lyrics": "!) ice cream candy (What it do?)\r\nMan that shit be comin in handy\r\n(Ewwww!) It's real walkie talkie", "Artist": "Snoop Dogg", "Country": "USA", "Title": "Candy (Drippin' Like Water)", "Longitude": "-118.195556", "County": "Los Angeles", "State": "California", "Latitude": "33.768333", "Type": "Solo M", "Release date": "2006-11-21"},{"Album": "Record Single", "City": "Bedford\u2013Stuyvesant", "Lyrics": "Lick my ice cream like a tasty delight\r\nThe bond between us is tight\r\nI heard Duve poppin tonight", "Artist": "Lil Kim", "Country": "USA", "Title": "Chillin' Tonight", "Longitude": "-73.944444", "County": "Kings", "State": "New York", "Latitude": "40.688889", "Type": "Solo F", "Release date": null},{"Album": "Life After Death", "City": "Bedford\u2013Stuyvesant", "Lyrics": "tomorrow\r\nSatisfyin all my needs twice\r\nWith the whipped cream, handcuffs and ice\r\nThe bitch is nice", "Artist": "The Notorious B.I.G.", "Country": "USA", "Title": "Nasty Boy", "Longitude": "-73.963796", "County": "Kings", "State": "New York", "Latitude": "40.692385", "Type": "Solo M", "Release date": "1997-01-01"},{"Album": "Record Single", "City": "Toronto", "Lyrics": "as ice\r\nEvery time you see me I look like I hit the lotto twice\r\n(Drake you got 'em right?) Yeah I got", "Artist": "Drake", "Country": "CAN", "Title": "All Night Long (Miss Me Demo)", "Longitude": "-79.4", "County": "", "State": "Ontario", "Latitude": "43.7", "Type": "Solo M", "Release date": null},{"Album": "Supreme Clientele", "City": "Staten Island", "Lyrics": "we gon' fail\r\nWhen we dealin with 'Supreme Clientele']\r\n\r\n[Hook: Superb - American Cream Team x2", "Artist": "Ghostface Killah", "Country": "USA", "Title": "We Made It", "Longitude": "-74.144839", "County": "Richmond", "State": "New York", "Latitude": "40.576281", "Type": "Solo M", "Release date": "2000-02-08"},{"Album": "Finally Famous Vol. 3", "City": "Detroit", "Lyrics": "and seen R Kelly in my closet (What the fuck?)Aww man, god damn, ice cream man in my closetGot the whole", "Artist": "Big Sean", "Country": "USA", "Title": "My Closet", "Longitude": "-83.045833", "County": "Wayne", "State": "Michigan", "Latitude": "42.331389", "Type": "Solo M", "Release date": "2010-08-31"},{"Album": "Record Single", "City": "Staten Island", "Lyrics": "tree house\r\nYo, Fiendin like fuck in a green house\r\nRush and cut, chain cream out\r\nBlow steam out", "Artist": "Raekwon", "Country": "USA", "Title": "100 Rounds prod. by Triflyn", "Longitude": "-74.144839", "County": "Richmond", "State": "New York", "Latitude": "40.576281", "Type": "Solo M", "Release date": null},{"Album": "Record Single", "City": "Queens", "Lyrics": "woulda left us alone\r\nIf he saw Jessica Simpson eat an ice cream cone\r\nTeeny bikini, red white", "Artist": "LL Cool J", "Country": "USA", "Title": "American Girl", "Longitude": "-73.829959", "County": "Queens", "State": "New York", "Latitude": "40.713985", "Type": "Solo M", "Release date": null},{"Album": "Record Single", "City": "South Orange", "Lyrics": "the types to make the ni**** wanna drop his team\r\nWe could force the A/C and let me sack this cream", "Artist": "Lauryn Hill", "Country": "USA", "Title": "All My Time", "Longitude": "-74.257783", "County": "Essex", "State": "New Jersey", "Latitude": "40.745681", "Type": "Solo F", "Release date": null},{"Album": "Record Single", "City": "South Orange", "Lyrics": "could force the A/C and let me sack this cream\r\nCruisin' the Garden State as we conversate\r\nAbout", "Artist": "Lauryn Hill", "Country": "USA", "Title": "All My Time (Paid & Live) prod. by Hakim Bell & Muhammed Bell", "Longitude": "-74.257783", "County": "Essex", "State": "New Jersey", "Latitude": "40.745681", "Type": "Solo F", "Release date": null},{"Album": "Ms. G.O.A.T.", "City": "Bedford\u2013Stuyvesant", "Lyrics": "Lick my ice cream like a tasty delight\r\nThe bond between us is tight\r\nI heard Duve poppin tonight", "Artist": "Lil Kim", "Country": "USA", "Title": "Chillin' Tonight", "Longitude": "-73.944444", "County": "Kings", "State": "New York", "Latitude": "40.688889", "Type": "Solo F", "Release date": "2008-01-01"},{"Album": "Record Single", "City": "Bedford\u2013Stuyvesant", "Lyrics": "cream, forest green Benz jeep\r\nFor my team so while you sleep I'm a scheme\r\nWe see through", "Artist": "Lil Kim", "Country": "USA", "Title": "It's All About The Benjamins (Remix) (Diddy) (Ft. Jadakiss, The Notorious B.I.G. & Sheek Louch)", "Longitude": "-73.944444", "County": "Kings", "State": "New York", "Latitude": "40.688889", "Type": "Solo F", "Release date": null},{"Album": "Record Single", "City": "Roosevelt", "Lyrics": "\u00e2\u20ac\u0153I make more green than algae\r\nLoop-de-loops with ice cream scoops now are just nostalgie\" (Oh", "Artist": "MF DOOM", "Country": "USA", "Title": "Anarchist Bookstore Part 2 (MC Paul Barman)", "Longitude": "-73.585556", "County": "Nassau", "State": "New York", "Latitude": "40.679167", "Type": "Solo M", "Release date": null},{"Album": "Notorious Soundtrack", "City": "Bedford\u2013Stuyvesant", "Lyrics": "dick itch\r\nI flow looser than Luther, words ya get used ta\r\nB.I.G. is a born, trooper\r\nLike ice cream I", "Artist": "The Notorious B.I.G.", "Country": "USA", "Title": "Guaranteed Raw (Demo)", "Longitude": "-73.963796", "County": "Kings", "State": "New York", "Latitude": "40.692385", "Type": "Solo M", "Release date": "2009-01-13"},{"Album": "Cutmaster C Mixtape", "City": "Queens", "Lyrics": "]\r\nQueens shit, give me cream so I can grab my dick\r\nSew that shit, what the fuck y'all niggas workin", "Artist": "LL Cool J", "Country": "USA", "Title": "Rasta Imposter", "Longitude": "-73.829959", "County": "Queens", "State": "New York", "Latitude": "40.713985", "Type": "Solo M", "Release date": null},{"Album": "The Big Doe Rehab", "City": "Staten Island", "Lyrics": "fresher than produce\r\nTimberland snow boots, collecting more CREAM than a toll booth\r\nI grind daily", "Artist": "Ghostface Killah", "Country": "USA", "Title": "Paisley Darts", "Longitude": "-74.144839", "County": "Richmond", "State": "New York", "Latitude": "40.576281", "Type": "Solo M", "Release date": "2007-12-04"},{"Album": "The Coming", "City": "Uniondale", "Lyrics": "strictly for the cream\r\nHere to kill your whole scene and your motherfuckin team\r\nLittle 'Mal, the raw", "Artist": "Busta Rhymes", "Country": "USA", "Title": "Flipmode Squad Meets Def Squad", "Longitude": "-73.593544", "County": "Nassau", "State": "New York", "Latitude": "40.717935", "Type": "Solo M", "Release date": "1996-01-01"},{"Album": "Record Single", "City": "South Bronx", "Lyrics": "and leave you earless, fearless\r\nThe only thing between us if you stop my cream\r\nIs a Glock nineteen", "Artist": "Big Punisher", "Country": "USA", "Title": "Cross Bronx Expressway (Lord Tariq) (Ft. Fat Joe & Peter Gunz)", "Longitude": "-73.911789", "County": "Bronx", "State": "New York", "Latitude": "40.823318", "Type": "Solo M", "Release date": null},{"Album": "Record Single", "City": "New Orleans", "Lyrics": "my curve up\r\nWe take your ice cream and turn you into sherbert\r\nI got flow I'm like\"Sure", "Artist": "Lil Wayne", "Country": "USA", "Title": "6 Minutes of Death (Cassidy) (Ft. Fabolous) prod. by Neo Da Matrix", "Longitude": "-90.077714", "County": "Orleans", "State": "Louisiana", "Latitude": "29.95369", "Type": "Solo M", "Release date": null},{"Album": "Make It Reign", "City": "South Bronx", "Lyrics": "The only thing between us if you stop my cream\r\nIs a Glock nineteen, and I'mma pop like steam\r\nTryin", "Artist": "Big Punisher", "Country": "USA", "Title": "Cross Bronx Expressway", "Longitude": "-73.911789", "County": "Bronx", "State": "New York", "Latitude": "40.823318", "Type": "Solo M", "Release date": "1998-01-01"},{"Album": "Violator - The Album", "City": "Uniondale", "Lyrics": "from the dome , wit the ice got the price of a home and a lobe\r\nSONJA BLAD-E, just so you know baby", "Artist": "Busta Rhymes", "Country": "USA", "Title": "Violators", "Longitude": "-73.593544", "County": "Nassau", "State": "New York", "Latitude": "40.717935", "Type": "Solo M", "Release date": "1999-08-10"},{"Album": "Mama Said Knock You Out", "City": "Queens", "Lyrics": ")\r\n(To da break of dawn)\r\nCheck this out\r\nYeah...\r\n\r\n[ VERSE 3 ] [ dissing Ice-T ]\r\nHow dare you stand", "Artist": "LL Cool J", "Country": "USA", "Title": "To Da Break of Dawn", "Longitude": "-73.829959", "County": "Queens", "State": "New York", "Latitude": "40.713985", "Type": "Solo M", "Release date": "1991-01-01"},{"Album": "Bad Meets Evil: Hell The Sequel", "City": "Detroit", "Lyrics": "the ride like it\u00e2\u20ac\u2122s an ice cream truck, I can see why they fret\r\nI already ran over two hoes and I", "Artist": "Eminem", "Country": "USA", "Title": "A Kiss", "Longitude": "-83.045833", "County": "Wayne", "State": "Michigan", "Latitude": "42.331389", "Type": "Solo M", "Release date": "2011-06-14"},{"Album": "I M A Hustla", "City": "New Orleans", "Lyrics": "I'm throwing my curve up\r\nWe take your ice cream and turn you into Sherbert\r\nI got flow I'm like", "Artist": "Lil Wayne", "Country": "USA", "Title": "6 Minutes of Death", "Longitude": "-90.077714", "County": "Orleans", "State": "Louisiana", "Latitude": "29.95369", "Type": "Solo M", "Release date": "2005-01-01"},{"Album": "Straight Outta Compton - 10th Anniversary Tribute", "City": "Compton", "Lyrics": "like me is only out for one thing\r\nI think with a stackin' cream\r\nBut I won't bring no flowers", "Artist": "N.W.A", "Country": "USA", "Title": "Mr. MikeI Ain't tha 1", "Longitude": "-118.224329", "County": "Los Angeles", "State": "California", "Latitude": "33.895285", "Type": "Group M", "Release date": "1998-11-03"},{"Album": "1999", "City": "Bedford\u2013Stuyvesant", "Lyrics": "in The Matrix\r\nIt ain't shit, they just call it a strange shift\r\nCold feet cause I'm on thin ice", "Artist": "Joey BADA$$", "Country": "USA", "Title": "Suspect", "Longitude": "-73.963796", "County": "Kings", "State": "New York", "Latitude": "40.692385", "Type": "Solo M", "Release date": "2012-06-12"},{"Album": "Record Single", "City": "Compton", "Lyrics": "It's the ice cream man like the OP\r\nCali like the Lion's o-line, it's where the holes(hoes) be\r\nBC runnin", "Artist": "Game", "Country": "USA", "Title": "400 Bars", "Longitude": "-118.224329", "County": "Los Angeles", "State": "California", "Latitude": "33.895285", "Type": "Solo M", "Release date": null},{"Album": "The Red Room", "City": "Compton", "Lyrics": "It's the ice cream man like the OP\r\nCali like the Lion's o-line, it's where the holes(hoes) be\r\nBC runnin", "Artist": "Game", "Country": "USA", "Title": "400 Bars", "Longitude": "-118.224329", "County": "Los Angeles", "State": "California", "Latitude": "33.895285", "Type": "Solo M", "Release date": "2010-04-26"},{"Album": "Record Single", "City": "New Orleans", "Lyrics": "all these hoes stocked up like sinus, now who you fuckin'?\r\nIce shining colorful, like a sack", "Artist": "Lil Wayne", "Country": "USA", "Title": "10,000 Bars", "Longitude": "-90.077714", "County": "Orleans", "State": "Louisiana", "Latitude": "29.95369", "Type": "Solo M", "Release date": null}]