[{"Album": "500 Degreez", "City": "New Orleans", "Lyrics": "liquor\r\nSmoke something until your scalp gets killed\r\n\r\n[Hook x2]\r\nGangstas and pimps\r\nLove lobsters", "Artist": "Lil Wayne", "Country": "USA", "Title": "Gangstas and Pimps", "Longitude": "-90.077714", "County": "Orleans", "State": "Louisiana", "Latitude": "29.95369", "Type": "Solo M", "Release date": "2002-01-01"},{"Album": "Record Single", "City": "Detroit", "Lyrics": "the Red Lobster\r\nLooking like the Loch Ness Monster\r\nDressed like a cross-dressed mobster\r\nTalk is cheap", "Artist": "Eminem", "Country": "USA", "Title": "2012 Something From Nothing: Art of Rap Freestyle", "Longitude": "-83.045833", "County": "Wayne", "State": "Michigan", "Latitude": "42.331389", "Type": "Solo M", "Release date": null},{"Album": "Record Single", "City": "Detroit", "Lyrics": "the Red Lobster\r\nLooking like the Loch Ness Monster\r\nDressed like a cross-dressed mobster\r\nTalk is cheap", "Artist": "Eminem", "Country": "USA", "Title": "2012 Something From Nothing: Art of Rap Freestyle", "Longitude": "-83.045833", "County": "Wayne", "State": "Michigan", "Latitude": "42.331389", "Type": "Solo M", "Release date": null},{"Album": "UKNOWBIGSEAN", "City": "Detroit", "Lyrics": "addicted to that good pasta and that cooked lobster\r\nPaper chasin' I'm gon' probably need a foot doctor", "Artist": "Big Sean", "Country": "USA", "Title": "Paper Chaser", "Longitude": "-83.045833", "County": "Wayne", "State": "Michigan", "Latitude": "42.331389", "Type": "Solo M", "Release date": "2009-04-21"},{"Album": "Nothing Was The Same", "City": "Toronto", "Lyrics": "lobsters and shrimp\r\nYou smart and you know it, I get it I get it, you outdo these pimps\r\nI hope", "Artist": "Drake", "Country": "CAN", "Title": "305 to My City", "Longitude": "-79.4", "County": "", "State": "Ontario", "Latitude": "43.7", "Type": "Solo M", "Release date": "2013-01-01"},{"Album": "Hall of Fame", "City": "Detroit", "Lyrics": "eating lobster with my shrimp hand\r\nFeeling on her with my pimp hand\r\nI'm talking to her like her Daddy", "Artist": "Big Sean", "Country": "USA", "Title": "Mona Lisa", "Longitude": "-83.045833", "County": "Wayne", "State": "Michigan", "Latitude": "42.331389", "Type": "Solo M", "Release date": "2013-08-27"},{"Album": "I Can't Feel My Face-Off", "City": "New Orleans", "Lyrics": "), show you how the Poppa's sit (Pop, pop, pop)\r\nBelieve me, my bullets bite with a lobster grip (Damn", "Artist": "Lil Wayne", "Country": "USA", "Title": "Rollers & Riders", "Longitude": "-90.077714", "County": "Orleans", "State": "Louisiana", "Latitude": "29.95369", "Type": "Solo M", "Release date": "2009-01-01"},{"Album": "Just Re'd Up 2 (Mixtape)", "City": "Compton", "Lyrics": "' money? I don't have that problem\r\nThat pussy wet like pasta, I don't eat lobster\r\nI gave her", "Artist": "YG", "Country": "USA", "Title": "I Like", "Longitude": "-118.224329", "County": "Los Angeles", "State": "California", "Latitude": "33.895285", "Type": "Solo M", "Release date": "2013-01-21"},{"Album": "Compton State of Mind", "City": "Compton", "Lyrics": "as well\r\nLittle nigga, big dreams, can bear-hug a whale into a lobster's tail\r\nUgh\r\nEvacuate premises", "Artist": "Kendrick Lamar", "Country": "USA", "Title": "Skill Still Appeal", "Longitude": "-118.224329", "County": "Los Angeles", "State": "California", "Latitude": "33.895285", "Type": "Solo M", "Release date": "2011-01-01"},{"Album": "Record Single", "City": "Compton", "Lyrics": "St. Tropez\r\nEat at a table full of toupees, lobsters\r\nBeen a mobster since the two-way holla\r\n\r\n[Hook]", "Artist": "Game", "Country": "USA", "Title": "Ain't No Doubt About It (Ft. Justin Timberlake & Pharrell Williams)", "Longitude": "-118.224329", "County": "Los Angeles", "State": "California", "Latitude": "33.895285", "Type": "Solo M", "Release date": null},{"Album": "Record Single", "City": "Compton", "Lyrics": ", lobsters\r\nBeen a mobster since the two-way holla\r\n\r\n[Hook]", "Artist": "Game", "Country": "USA", "Title": "Ain't No Doubt About It", "Longitude": "-118.224329", "County": "Los Angeles", "State": "California", "Latitude": "33.895285", "Type": "Solo M", "Release date": null},{"Album": "God Forgives, I Don't", "City": "Carol City", "Lyrics": "I really just a narcissist\r\nCause I wake up to a bowl of Lobster bisque?And I wake up on some mobbin", "Artist": "Rick Ross", "Country": "USA", "Title": "I Love My Bitches", "Longitude": "-80.269920", "County": "Miami-Dade", "State": "Florida", "Latitude": "25.942121", "Type": "Solo M", "Release date": "2012-07-30"},{"Album": "Record Single", "City": "Queens", "Lyrics": ", y'all won't get served at all\r\n\r\n[Tony Yayo]\r\nI went from oodles and noodles to lobster and shrimp", "Artist": "50 Cent", "Country": "USA", "Title": "A Little Bit of Everything U.T.P. (Ft. Juvenile, Lloyd Banks, Skip, Tony Yayo (G-Unit) & Young Buck (U.T.P.))", "Longitude": "-73.829959", "County": "Queens", "State": "New York", "Latitude": "40.713985", "Type": "Solo M", "Release date": null},{"Album": "The Red Room", "City": "Compton", "Lyrics": "and tell Mr. Chow to bring the lobsters out\r\nShe a vegetarian, she went the pasta route, she like carrots", "Artist": "Game", "Country": "USA", "Title": "Diamonds", "Longitude": "-118.224329", "County": "Los Angeles", "State": "California", "Latitude": "33.895285", "Type": "Solo M", "Release date": "2010-04-26"},{"Album": "The Drought Is Over 4 Mixtape", "City": "New Orleans", "Lyrics": "pasta\r\nOnly fuck with the shrimp and the lobster\r\nMurder that pussy holy ghed boy, while I'm dressed up", "Artist": "Lil Wayne", "Country": "USA", "Title": "Burn This City", "Longitude": "-90.077714", "County": "Orleans", "State": "Louisiana", "Latitude": "29.95369", "Type": "Solo M", "Release date": "2007-10-31"},{"Album": "Purple Haze", "City": "Harlem", "Lyrics": "stab it light and we'll grab a bite\r\nIs it crab you like? Lobster appetite\r\n\r\n[Hook]\r\n\r\n[Bridge", "Artist": "Camron", "Country": "USA", "Title": "Shake", "Longitude": "-73.944862", "County": "Manhattan", "State": "New York", "Latitude": "40.806198", "Type": "Solo M", "Release date": "2004-01-01"},{"Album": "I'm Good", "City": "Chicago", "Lyrics": "even tryin' to eat lobster and drink champagne\r\nNow you know that ain't your roots\r\nFor you strictly", "Artist": "Kanye West", "Country": "USA", "Title": "Half Price", "Longitude": "-87.632409", "County": "Cook", "State": "Illinois", "Latitude": "41.88415", "Type": "Solo M", "Release date": "2007-09-11"},{"Album": "Ironman", "City": "Staten Island", "Lyrics": "to fuck this lobster-head ass nigga\r\nI shoulda slapped you but the Gods said chill\r\nThat's your wiz fault", "Artist": "Ghostface Killah", "Country": "USA", "Title": "Wildflower", "Longitude": "-74.144839", "County": "Richmond", "State": "New York", "Latitude": "40.576281", "Type": "Solo M", "Release date": "1996-01-01"},{"Album": "50 Cent is the Future", "City": "Queens", "Lyrics": "and noodles to lobster and shrimp\r\nI went from bare bubble coats, to brand new minks\r\nAnd yo my neck upgraded", "Artist": "50 Cent", "Country": "USA", "Title": "A Little Bit of Everything U.T.P.", "Longitude": "-73.829959", "County": "Queens", "State": "New York", "Latitude": "40.713985", "Type": "Solo M", "Release date": "2002-01-01"},{"Album": "Record Single", "City": "Jamaica", "Lyrics": "? Cinderella\r\nLobster for breakfast, necklace playin' checkers\r\nHold up that wrist, her thong red", "Artist": "Nicki Minaj", "Country": "USA", "Title": "Anaconda (LA Leakers Remix)", "Longitude": "-73.80842", "County": "Queens", "State": "New York", "Latitude": "40.701782", "Type": "Solo F", "Release date": null},{"Album": "La Bella Mafia", "City": "Bedford\u2013Stuyvesant", "Lyrics": "collaboration from the Brook to the Yonks)\r\nNo more franks for this ma, now it's lobster and conck", "Artist": "Lil Kim", "Country": "USA", "Title": "Shake Ya Bum Bum", "Longitude": "-73.944444", "County": "Kings", "State": "New York", "Latitude": "40.688889", "Type": "Solo F", "Release date": "2003-01-01"},{"Album": "The Real 4fingaz (Mixtape)", "City": "Compton", "Lyrics": "Head Doctor\n[Verse 1]\r\nI take you out to eat red lobster then she let me do my job\r\nI'm the head", "Artist": "YG", "Country": "USA", "Title": "Head Doctor", "Longitude": "-118.224329", "County": "Los Angeles", "State": "California", "Latitude": "33.895285", "Type": "Solo M", "Release date": "2009-11-16"},{"Album": "50 Cent is the Future", "City": "Queens", "Lyrics": "to lobster and shrimp\r\nI went from bare bubble coats, to brand new minks\r\nAnd yo my neck upgraded, my", "Artist": "50 Cent", "Country": "USA", "Title": "A Lil Bit of Everything U.T.P", "Longitude": "-73.829959", "County": "Queens", "State": "New York", "Latitude": "40.713985", "Type": "Solo M", "Release date": "2002-01-01"},{"Album": "Record Single", "City": "South Bronx", "Lyrics": "[Fat Joe]\r\nBusiness chatter's over shrimp and lobster platters\r\nAt Jimmy's Cafe, a glass of Peirier", "Artist": "Big Punisher", "Country": "USA", "Title": "Fat Joe & Punisher Freestyle (Funkmaster Flex) (Ft. Fat Joe)", "Longitude": "-73.911789", "County": "Bronx", "State": "New York", "Latitude": "40.823318", "Type": "Solo M", "Release date": null},{"Album": "Detroit", "City": "Detroit", "Lyrics": "Shorty snorkel for that crab, eating lobster on my dinner plate\r\nStacking all this money homie", "Artist": "Big Sean", "Country": "USA", "Title": "Mula", "Longitude": "-83.045833", "County": "Wayne", "State": "Michigan", "Latitude": "42.331389", "Type": "Solo M", "Release date": "2012-01-01"},{"Album": "Urban Legend", "City": "Atlanta", "Lyrics": "ain't hangin' with my potnaz, I'm out eatin' lobster\r\nI'm on some grown man shit, ya dig\r\nI'm chillin", "Artist": "T.I.", "Country": "USA", "Title": "Chillin With My B*tch", "Longitude": "-84.41918", "County": "Fulton", "State": "Georgia", "Latitude": "33.77155", "Type": "Solo M", "Release date": "2004-11-30"},{"Album": "California Republic", "City": "Compton", "Lyrics": "!\r\nLobster, shrimp, Roscoes and steak\r\nWhen my nigga come home\r\nHe can have any damn thing that he", "Artist": "Game", "Country": "USA", "Title": "When My Niggas Come Home", "Longitude": "-118.224329", "County": "Los Angeles", "State": "California", "Latitude": "33.895285", "Type": "Solo M", "Release date": "2012-04-05"},{"Album": "Ashes to Ashes", "City": "Carol City", "Lyrics": "Lobster over salmon and I ain't ever tried to tuna you\r\nBut now Im just assuming you living off", "Artist": "Rick Ross", "Country": "USA", "Title": "Play Your Part", "Longitude": "-80.269920", "County": "Miami-Dade", "State": "Florida", "Latitude": "25.942121", "Type": "Solo M", "Release date": "2010-12-24"},{"Album": "Datz WTF I'm Talking Bout", "City": "The Bronx", "Lyrics": "to the Chevy, 50 G\u00e2\u20ac\u2122s to get ready\r\nNeed a pound of that lobster, we gon\u00e2\u20ac\u2122 need some spaghetti\r\n\u00e2\u20ac\u02dcCause", "Artist": "Cory Gunz", "Country": "USA", "Title": "I'm Laughin", "Longitude": "-73.886", "County": "The Bronx", "State": "New York", "Latitude": " 40.8373", "Type": "Solo M", "Release date": "2013-07-16"},{"Album": "Record Single", "City": "The Bronx", "Lyrics": "talkin\u00e2\u20ac\u2122 keys to the Chevy, 50 G\u00e2\u20ac\u2122s to get ready\r\nNeed a pound of that lobster, we gon\u00e2\u20ac\u2122 need some", "Artist": "Cory Gunz", "Country": "USA", "Title": "I'm Laughin (Ft. Wiz Khalifa)", "Longitude": "-73.886", "County": "The Bronx", "State": "New York", "Latitude": " 40.8373", "Type": "Solo M", "Release date": null},{"Album": "Before I Self Destruct", "City": "Queens", "Lyrics": "own a sneaker\r\nI had her eatin lobster, now she eatin pizza\r\nI think about Easter when I think about", "Artist": "50 Cent", "Country": "USA", "Title": "Do You Think About Me", "Longitude": "-73.829959", "County": "Queens", "State": "New York", "Latitude": "40.713985", "Type": "Solo M", "Release date": "2009-11-09"},{"Album": "Fishscale", "City": "Staten Island", "Lyrics": "off my mink\r\nBartenders know we big spenders, gave us those mobster drinks\r\nSent us lobsters", "Artist": "Ghostface Killah", "Country": "USA", "Title": "Big Girl", "Longitude": "-74.144839", "County": "Richmond", "State": "New York", "Latitude": "40.576281", "Type": "Solo M", "Release date": "2006-01-01"},{"Album": "Come Home With Me", "City": "Harlem", "Lyrics": "'\r\nWith lots of mobsters,shop for lobsters\r\nCops and robbers, listen every block isblaka (blaka!)\r\nBut she", "Artist": "Camron", "Country": "USA", "Title": "Oh Boy", "Longitude": "-73.944862", "County": "Manhattan", "State": "New York", "Latitude": "40.806198", "Type": "Solo M", "Release date": "2002-05-14"},{"Album": "Law 3", "City": "Harlem", "Lyrics": "I'mma smoke joints till it's all gone\r\nOkay awwsome, in a Porsche eating lobster\r\n2 chains", "Artist": "A$AP Rocky", "Country": "USA", "Title": "Awwsome (Remix)", "Longitude": "-73.944862", "County": "Manhattan", "State": "New York", "Latitude": "40.806198", "Type": "Solo M", "Release date": "2014-01-01"},{"Album": "Hall of Fame", "City": "Detroit", "Lyrics": "', revenuin', mozzarella chewin', you know?\r\nLobster butter basted\r\nI deserve every crumb tasted", "Artist": "Big Sean", "Country": "USA", "Title": "Sierra Leone / Greedy Ho's", "Longitude": "-83.045833", "County": "Wayne", "State": "Michigan", "Latitude": "42.331389", "Type": "Solo M", "Release date": "2013-08-27"},{"Album": "Walking With a Panther", "City": "Queens", "Lyrics": "-be master\r\nCome on, baby, I eat steak and lobster\r\nI got a Mercedes-Benz, I be as double-(?) as your", "Artist": "LL Cool J", "Country": "USA", "Title": "Crime Stories", "Longitude": "-73.829959", "County": "Queens", "State": "New York", "Latitude": "40.713985", "Type": "Solo M", "Release date": "1989-01-01"},{"Album": "You Nasty", "City": "East Oakland", "Lyrics": "up at Monty's feedin her lobster and crab\r\nThey say that Captain is a playa's worst enemy, so whats", "Artist": "Too Short", "Country": "USA", "Title": "Where They At?", "Longitude": "-122.2591", "County": "Oakland", "State": "California", "Latitude": "37.8039", "Type": "Solo M", "Release date": "2000-01-01"},{"Album": "Killa Season", "City": "Harlem", "Lyrics": "Ramadan...honor it (y'all won't eat!)\r\nY'all won't eat,I'm unloading a lobster & pasta\r\nY'all", "Artist": "Camron", "Country": "USA", "Title": "Leave You Alone", "Longitude": "-73.944862", "County": "Manhattan", "State": "New York", "Latitude": "40.806198", "Type": "Solo M", "Release date": "2006-05-16"},{"Album": "Apollo Kids", "City": "Staten Island", "Lyrics": "Got bitches in mi casa, boiling fresh lobsters\r\nBut I don't do the shellfish, I'mma just eat pasta", "Artist": "Ghostface Killah", "Country": "USA", "Title": "Black Tequila", "Longitude": "-74.144839", "County": "Richmond", "State": "New York", "Latitude": "40.576281", "Type": "Solo M", "Release date": "2010-01-01"},{"Album": "Finally Famous Vol. 3", "City": "Detroit", "Lyrics": "an empty spot inside my safe\r\nI got Carties on my eyes, Louis on my case\r\nLobster, shrimp", "Artist": "Big Sean", "Country": "USA", "Title": "Too Fake", "Longitude": "-83.045833", "County": "Wayne", "State": "Michigan", "Latitude": "42.331389", "Type": "Solo M", "Release date": "2010-10-20"},{"Album": "Self Made Vol.1", "City": "Carol City", "Lyrics": "Lobster over salmon and I ain't ever tried to tuna you\r\nBut now Im just assuming you living off", "Artist": "Rick Ross", "Country": "USA", "Title": "Play Your Part", "Longitude": "-80.269920", "County": "Miami-Dade", "State": "Florida", "Latitude": "25.942121", "Type": "Solo M", "Release date": "2011-05-23"},{"Album": "Record Single", "City": "Queens", "Lyrics": "-be master\r\nCome on, baby, I eat steak and lobster\r\nI got a Mercedes-Benz, I be as double-(?) as your", "Artist": "LL Cool J", "Country": "USA", "Title": "Crime Stories", "Longitude": "-73.829959", "County": "Queens", "State": "New York", "Latitude": "40.713985", "Type": "Solo M", "Release date": null},{"Album": "I Am Not a Human Being", "City": "New Orleans", "Lyrics": "they're constipated\r\nI get the coupe with the kit, watch me lobster red it\r\nDrop the top", "Artist": "Lil Wayne", "Country": "USA", "Title": "That Ain't Me", "Longitude": "-90.077714", "County": "Orleans", "State": "Louisiana", "Latitude": "29.95369", "Type": "Solo M", "Release date": "2010-09-27"},{"Album": "Dreams and Nightmares", "City": "Philadelphia", "Lyrics": "with my niggas, eatin' lobster & linguine\r\nAnd that pussy smell like Fiji\r\nBoy, I\u00e2\u20ac\u2122ll just go", "Artist": "Meek Mill", "Country": "USA", "Title": "Real Niggas Come First", "Longitude": "-75.166667", "County": "Philadelphia", "State": "Pennsylvania", "Latitude": "39.95", "Type": "Solo M", "Release date": "2012-10-30"},{"Album": "Walking With a Panther", "City": "Queens", "Lyrics": "[Verse 3]\r\nI went to Red Lobster for shrimp and steak\r\nAround the time whe the waitress", "Artist": "LL Cool J", "Country": "USA", "Title": "Big Ole Butt", "Longitude": "-73.829959", "County": "Queens", "State": "New York", "Latitude": "40.713985", "Type": "Solo M", "Release date": "1989-01-01"},{"Album": "Record Single", "City": "Queens", "Lyrics": ", so I'm leaving you\r\n\r\n[Verse 3]\r\nI went to Red Lobster for shrimp and steak\r\nAround the time whe", "Artist": "LL Cool J", "Country": "USA", "Title": "Big Ole Butt prod. by Dwayne Simon", "Longitude": "-73.829959", "County": "Queens", "State": "New York", "Latitude": "40.713985", "Type": "Solo M", "Release date": null},{"Album": "Power of the Dollar", "City": "Queens", "Lyrics": "and E Money Bags\r\nIn a conversation over shrimp and lobster\r\nAt Benihana's, heard Chico stopped", "Artist": "50 Cent", "Country": "USA", "Title": "Ghetto Qu'ran (Forgive Me)", "Longitude": "-73.829959", "County": "Queens", "State": "New York", "Latitude": "40.713985", "Type": "Solo M", "Release date": "2000-07-04"},{"Album": "Guess Who's Back", "City": "Queens", "Lyrics": "and E Money Bags\r\nIn a conversation over shrimp and lobster\r\nAt Benihana's, heard Chico stopped", "Artist": "50 Cent", "Country": "USA", "Title": "Ghetto Qu'ran (Forgive Me)", "Longitude": "-73.829959", "County": "Queens", "State": "New York", "Latitude": "40.713985", "Type": "Solo M", "Release date": "2002-01-01"},{"Album": "I Am", "City": "Queensbridge", "Lyrics": "have been fate\r\nFirst date, crushed grapes, we ate lobster and steak\r\nShe kept asking questions how", "Artist": "Nas", "Country": "USA", "Title": "K-I-S-S-I-N-G", "Longitude": "-73.937622", "County": "Queens", "State": "New York", "Latitude": "40.756279", "Type": "Solo M", "Release date": "2013-01-01"},{"Album": "I Am", "City": "Queensbridge", "Lyrics": "in clothes made by Italians, feed me lobster and scallions\r\nWatching her pile on my bed, her body feel", "Artist": "Nas", "Country": "USA", "Title": "Money Is My Bitch", "Longitude": "-73.937622", "County": "Queens", "State": "New York", "Latitude": "40.756279", "Type": "Solo M", "Release date": "2013-01-01"},{"Album": "Trilla", "City": "Carol City", "Lyrics": "be that muzzle, when I stuff it in your grill\r\nStuffed shells - thanks to crack, I crack\r\nCrab and lobsters", "Artist": "Rick Ross", "Country": "USA", "Title": "Maybach Music", "Longitude": "-80.269920", "County": "Miami-Dade", "State": "Florida", "Latitude": "25.942121", "Type": "Solo M", "Release date": "2008-03-11"},{"Album": "Dreams Worth More than Money", "City": "Philadelphia", "Lyrics": "with the same niggas I came with\r\nWhere I came from, when I came in\r\nWe eatin' lobster and steak from Top", "Artist": "Meek Mill", "Country": "USA", "Title": "Stand Up", "Longitude": "-75.166667", "County": "Philadelphia", "State": "Pennsylvania", "Latitude": "39.95", "Type": "Solo M", "Release date": "2015-01-01"},{"Album": "Record Single", "City": "Uniondale", "Lyrics": "of em\r\n\r\n[Verse 8: Fat Joe]\r\nJust blew trial, crack lobsters Little Italy\r\nYour wife she a screamer", "Artist": "Busta Rhymes", "Country": "USA", "Title": "All I Do Is Win (Remix) (DJ Khaled) (Ft. Diddy, Fabolous, Fat Joe, Jadakiss, Nicki Minaj, Rick Ross, Swizz Beatz & T-Pain)", "Longitude": "-73.593544", "County": "Nassau", "State": "New York", "Latitude": "40.717935", "Type": "Solo M", "Release date": null},{"Album": "Life After Death", "City": "Bedford\u2013Stuyvesant", "Lyrics": ", gassed off Shaq\r\nCountry house, tennis courts on horseback\r\nRiding, deciding cracked crab or lobster", "Artist": "The Notorious B.I.G.", "Country": "USA", "Title": "I Love The Dough", "Longitude": "-73.963796", "County": "Kings", "State": "New York", "Latitude": "40.692385", "Type": "Solo M", "Release date": "1997-01-01"},{"Album": "G.D.O.D.", "City": "Atlanta", "Lyrics": "for me\r\n\r\n[Hook]\r\n\r\n[Verse 4: Shad da God]\r\nI'm made for this - steak and lobster, my table's dish", "Artist": "T.I.", "Country": "USA", "Title": "Here I Go", "Longitude": "-84.41918", "County": "Fulton", "State": "Georgia", "Latitude": "33.77155", "Type": "Solo M", "Release date": "2013-05-07"},{"Album": "Paper Trail", "City": "Atlanta", "Lyrics": "lobster\r\nCelebrating coming from nothing to winning Grammy's\r\nAnd rappers winning Oscars\r\nYeah", "Artist": "T.I.", "Country": "USA", "Title": "On Top of the World", "Longitude": "-84.41918", "County": "Fulton", "State": "Georgia", "Latitude": "33.77155", "Type": "Solo M", "Release date": "2008-09-28"},{"Album": "Record Single", "City": "Jamaica", "Lyrics": "lobsters Little Italy\r\nYour wife she a screamer yellin' slow down Joe, you killin' me\r\nBeat her like", "Artist": "Nicki Minaj", "Country": "USA", "Title": "All I Do Is Win (Remix)", "Longitude": "-73.80842", "County": "Queens", "State": "New York", "Latitude": "40.701782", "Type": "Solo F", "Release date": null},{"Album": "Bsb Vol 4", "City": "Crown Heights", "Lyrics": "weight need a forklift\r\nSo I could have some lobster or steak when the fork lift\r\nNiggas act hard turn", "Artist": "Troy Ave", "Country": "USA", "Title": "4 Amgios", "Longitude": "-73.944722", "County": "Kings", "State": "New York", "Latitude": "40.663056", "Type": "Solo M", "Release date": "2014-05-05"},{"Album": "Record Single", "City": "Uniondale", "Lyrics": "lobsters Little Italy\r\nYour wife she a screamer yellin' slow down Joe, you killin' me\r\nBeat her like", "Artist": "Busta Rhymes", "Country": "USA", "Title": "All I Do Is Win (Remix)", "Longitude": "-73.593544", "County": "Nassau", "State": "New York", "Latitude": "40.717935", "Type": "Solo M", "Release date": null},{"Album": "Only Built 4 Cuban Linx Pt Ii", "City": "Staten Island", "Lyrics": "boss\r\nAngel hair with the lobster sauce, summertime can't top the scorch\r\nCheck my hot broad, I", "Artist": "Raekwon", "Country": "USA", "Title": "House of Flying Daggers", "Longitude": "-74.144839", "County": "Richmond", "State": "New York", "Latitude": "40.576281", "Type": "Solo M", "Release date": "2009-01-01"},{"Album": "Record Single", "City": "Jamaica", "Lyrics": "of em\r\n\r\n[Verse 8: Fat Joe]\r\nJust blew trial, crack lobsters Little Italy\r\nYour wife she a screamer", "Artist": "Nicki Minaj", "Country": "USA", "Title": "All I Do Is Win (Remix) (DJ Khaled) (Ft. Busta Rhymes, Diddy, Fabolous, Fat Joe, Jadakiss, Rick Ross, Swizz Beatz & T-Pain)", "Longitude": "-73.80842", "County": "Queens", "State": "New York", "Latitude": "40.701782", "Type": "Solo F", "Release date": null},{"Album": "Hip Hop is Dead", "City": "Queensbridge", "Lyrics": ", she want shellfish\r\nRed Lobster was popping, standing on that line forever\r\nI wish someone would step", "Artist": "Nas", "Country": "USA", "Title": "Hope", "Longitude": "-73.937622", "County": "Queens", "State": "New York", "Latitude": "40.756279", "Type": "Solo M", "Release date": "2006-12-15"},{"Album": "Port of Miami", "City": "Carol City", "Lyrics": "lobster tails\r\nI make her go and cook a key\r\nCatch a flight first class\r\nDon p every glass\r\nNext", "Artist": "Rick Ross", "Country": "USA", "Title": "Hit U From the Back", "Longitude": "-80.269920", "County": "Miami-Dade", "State": "Florida", "Latitude": "25.942121", "Type": "Solo M", "Release date": "2006-08-08"},{"Album": "Straight Outta Compton", "City": "Compton", "Lyrics": "it for granted\r\nNo doubt\r\nAnd after the date, I'mma want to do the wild thing\r\nYou want lobster huh? I'm", "Artist": "N.W.A", "Country": "USA", "Title": "I Ain't tha 1", "Longitude": "-118.224329", "County": "Los Angeles", "State": "California", "Latitude": "33.895285", "Type": "Group M", "Release date": "1988-01-01"},{"Album": "Rich Forever", "City": "Carol City", "Lyrics": "to want a Pasha and eat some lobster\r\nBut now I eat the apple with my A-P\r\nYour life and your wrist", "Artist": "Rick Ross", "Country": "USA", "Title": "MMG The World Is Ours", "Longitude": "-80.269920", "County": "Miami-Dade", "State": "Florida", "Latitude": "25.942121", "Type": "Solo M", "Release date": "2012-01-06"},{"Album": "Straight Outta Compton - 10th Anniversary Tribute", "City": "Compton", "Lyrics": "the date, I'mma want to do the wild thing\r\nYou want lobster huh? I'm thinkin' Chicken wing\r\nAnd when I", "Artist": "N.W.A", "Country": "USA", "Title": "Mr. MikeI Ain't tha 1", "Longitude": "-118.224329", "County": "Los Angeles", "State": "California", "Latitude": "33.895285", "Type": "Group M", "Release date": "1998-11-03"},{"Album": "Record Single", "City": "Miami", "Lyrics": "bag, 12 hunnid on that dinner date\r\nWe eat lobsters from Florida, French-ful flowers\r\nPut you", "Artist": "Trina", "Country": "USA", "Title": "Bag Of Money (Extended Remix)", "Longitude": "-80.237419", "County": "Miami-Dade", "State": "Florida", "Latitude": "25.728985", "Type": "Solo F", "Release date": null},{"Album": "Record Single", "City": "Compton", "Lyrics": "!\r\nWelcome to mi casa, shrimp scampi and lobster\r\nBig bowl of OG kush, watching Shottas\r\nNigga take a hit", "Artist": "Game", "Country": "USA", "Title": "500 Bars (Otis Freestyle)", "Longitude": "-118.224329", "County": "Los Angeles", "State": "California", "Latitude": "33.895285", "Type": "Solo M", "Release date": null},{"Album": "Record Single", "City": "Chicago", "Lyrics": "to mi casa,shrimp scampi and lobster\r\nBig bowl of OG kush,watching Shottas\r\nNigga take a hit", "Artist": "Kanye West", "Country": "USA", "Title": "500 Bars (Otis Freestyle) (Game)", "Longitude": "-87.632409", "County": "Cook", "State": "Illinois", "Latitude": "41.88415", "Type": "Solo M", "Release date": null},{"Album": "Record Single", "City": "Compton", "Lyrics": ", welcome to the opera!\r\nWelcome to mi casa, shrimp scampi and lobster\r\nBig bowl of OG kush, watching", "Artist": "Game", "Country": "USA", "Title": "500 Bars (Otis Freestyle) prod. by Kanye West", "Longitude": "-118.224329", "County": "Los Angeles", "State": "California", "Latitude": "33.895285", "Type": "Solo M", "Release date": null},{"Album": "Record Single", "City": "Compton", "Lyrics": "stop me, is ME, I'm my own threat\r\nEatin' Lobster's, writin' Al Capone checks\r\nI still ain't", "Artist": "Game", "Country": "USA", "Title": "400 Bars", "Longitude": "-118.224329", "County": "Los Angeles", "State": "California", "Latitude": "33.895285", "Type": "Solo M", "Release date": null},{"Album": "The Red Room", "City": "Compton", "Lyrics": "can stop me, is ME, I'm my own threat\r\nEatin' Lobster's, writin' Al Capone checks\r\nI still ain't", "Artist": "Game", "Country": "USA", "Title": "400 Bars", "Longitude": "-118.224329", "County": "Los Angeles", "State": "California", "Latitude": "33.895285", "Type": "Solo M", "Release date": "2010-04-26"}]