[{"Album": "Fantasea", "City": "Harlem", "Lyrics": "this shit, maneuvered then dipped\r\nVenom'll burn ya 'dulla, then spit, spew spit\r\nGet ya noodle al dente'd", "Artist": "Azelia Banks", "Country": "USA", "Title": "Out of Space", "Longitude": "-73.948372", "County": "Manhattan", "State": "New York", "Latitude": "40.809033", "Type": "Solo F", "Release date": "2012-07-11"},{"Album": "1999", "City": "Bedford\u2013Stuyvesant", "Lyrics": "used to\r\nKeep it neutral to scruple and tell \u00e2\u20ac\u02dcem no beef like noodles!!\r\n\r\nKeep it neutral, just so", "Artist": "Joey BADA$$", "Country": "USA", "Title": "World Domination", "Longitude": "-73.963796", "County": "Kings", "State": "New York", "Latitude": "40.692385", "Type": "Solo M", "Release date": "2012-06-12"},{"Album": "Record Single", "City": "Roosevelt", "Lyrics": "ramen' you ain\u00e2\u20ac\u2122t used to\r\nKeep it neutral to scruple and tell \u00e2\u20ac\u02dcem no beef like noodles!!\r\n\r\nKeep", "Artist": "MF DOOM", "Country": "USA", "Title": "World Domination (Joey BADA$$)", "Longitude": "-73.585556", "County": "Nassau", "State": "New York", "Latitude": "40.679167", "Type": "Solo M", "Release date": null},{"Album": "The Beautiful Struggle", "City": "Park Slope", "Lyrics": "' the noodle, some people usin' the muscle\r\nSome people put it all together, make it fit like a puzzle", "Artist": "Talib Kweli", "Country": "USA", "Title": "I Try", "Longitude": "-73.977063", "County": "Kings", "State": "New York", "Latitude": "40.672404", "Type": "Solo M", "Release date": "2004-09-28"},{"Album": "Immobilarity", "City": "Staten Island", "Lyrics": "Aiyyo\r\n\r\nVerse 1:\r\n\r\nAiyyo\r\nRollie what's up son Noodles had a problem\r\nHe called Lucky Hands lab", "Artist": "Raekwon", "Country": "USA", "Title": "Real Life", "Longitude": "-74.144839", "County": "Richmond", "State": "New York", "Latitude": "40.576281", "Type": "Solo M", "Release date": "1999-01-01"},{"Album": "Playtime is Over (Mixtape)", "City": "Jamaica", "Lyrics": "named Tiki Diamond\r\nYeah, chicken noodle bitches\r\nLike a pack of Ramen\r\nThey had it out for me", "Artist": "Nicki Minaj", "Country": "USA", "Title": "Hood Story", "Longitude": "-73.80842", "County": "Queens", "State": "New York", "Latitude": "40.701782", "Type": "Solo F", "Release date": "2007-01-01"},{"Album": "Record Single", "City": "South Bronx", "Lyrics": "Hummer, the Punisher's ready\r\nMeet me at Vito's with Noodles, we'll do this dude while he's slurping", "Artist": "Big Punisher", "Country": "USA", "Title": "Twinz (Deep Cover '98) (Ft. Fat Joe) prod. by Dr. Dre", "Longitude": "-73.911789", "County": "Bronx", "State": "New York", "Latitude": "40.823318", "Type": "Solo M", "Release date": null},{"Album": "Put it on the Line", "City": "Staten Island", "Lyrics": "shoulder\r\nMiss the teeth and hit his Lo Mein noodles\r\nFuck it..\r\n\r\n[Hook]\r\n\r\n[Ghostface Killah]\r\nI'mma", "Artist": "Ghostface Killah", "Country": "USA", "Title": "Struggle", "Longitude": "-74.144839", "County": "Richmond", "State": "New York", "Latitude": "40.576281", "Type": "Solo M", "Release date": "2005-11-18"},{"Album": "The Re-Up", "City": "Jamaica", "Lyrics": "approval?\r\nPretty soon, they'll be back up on them Ramen Noodles\r\nB-B-B-bible, Queen is the title", "Artist": "Nicki Minaj", "Country": "USA", "Title": "Freedom", "Longitude": "-73.80842", "County": "Queens", "State": "New York", "Latitude": "40.701782", "Type": "Solo F", "Release date": "2012-11-19"},{"Album": "Capital Punishment", "City": "South Bronx", "Lyrics": "Meet me at Vito's with Noodles, we'll do this dude while he's slurping spaghetti\r\nEverybody kiss", "Artist": "Big Punisher", "Country": "USA", "Title": "Twinz (Deep Cover '98)", "Longitude": "-73.911789", "County": "Bronx", "State": "New York", "Latitude": "40.823318", "Type": "Solo M", "Release date": "1998-01-01"},{"Album": "House of Wax: The Vatican Mixtape, Vol. 3", "City": "Staten Island", "Lyrics": "For Noodles caught a lapdance, pussy clap-clap just like a tapdance\r\nLet her fuck you on your head", "Artist": "Raekwon", "Country": "USA", "Title": "Whores", "Longitude": "-74.144839", "County": "Richmond", "State": "New York", "Latitude": "40.576281", "Type": "Solo M", "Release date": "2007-08-06"},{"Album": "Record Single", "City": "Jamaica", "Lyrics": "white\r\nName one bitch in the game that I can't murder\r\nChicken noodle bitches on the side with a soda", "Artist": "Nicki Minaj", "Country": "USA", "Title": "40 Bars", "Longitude": "-73.80842", "County": "Queens", "State": "New York", "Latitude": "40.701782", "Type": "Solo F", "Release date": null},{"Album": "Pink Friday: Roman Reloaded - The Re-Up", "City": "Jamaica", "Lyrics": "approval?\r\nPretty soon, they'll be back up on them Ramen Noodles\r\nB-B-B-bible, Queen is the title", "Artist": "Nicki Minaj", "Country": "USA", "Title": "Freedom", "Longitude": "-73.80842", "County": "Queens", "State": "New York", "Latitude": "40.701782", "Type": "Solo F", "Release date": "2012-11-19"},{"Album": "Playtime is Over (Mixtape)", "City": "Jamaica", "Lyrics": "white\r\nName one bitch in the game that I can't murder\r\nChicken noodle bitches on the side with a soda", "Artist": "Nicki Minaj", "Country": "USA", "Title": "40 Bars", "Longitude": "-73.80842", "County": "Queens", "State": "New York", "Latitude": "40.701782", "Type": "Solo F", "Release date": "2007-01-01"},{"Album": "50 Cent is the Future", "City": "Queens", "Lyrics": "Other than that, shit, y'all won't get served at all\r\n\r\n[Tony Yayo]\r\nI went from oodles and noodles", "Artist": "50 Cent", "Country": "USA", "Title": "A Lil Bit of Everything U.T.P", "Longitude": "-73.829959", "County": "Queens", "State": "New York", "Latitude": "40.713985", "Type": "Solo M", "Release date": "2002-01-01"},{"Album": "Finally Famous Vol. 3", "City": "Detroit", "Lyrics": "it\r\nWith only top ramen noodles up in my cabinet\r\nNow I'm killing this motherfucker, beating", "Artist": "Big Sean", "Country": "USA", "Title": "Money and Sex", "Longitude": "-83.045833", "County": "Wayne", "State": "Michigan", "Latitude": "42.331389", "Type": "Solo M", "Release date": "2010-10-20"},{"Album": "The Come Up Mixtape Vol. 1", "City": "Fayetteville", "Lyrics": "'\r\nAnd just think I was raised on ramen -- chicken noodle soup\r\nNow I'm filet mignon-in'\r\nI promised my", "Artist": "J. Cole", "Country": "USA", "Title": "The Come Up", "Longitude": "-78.878056", "County": "Cumberland", "State": "North Carolina", "Latitude": "35.0525", "Type": "Solo M", "Release date": "2008-05-03"},{"Album": "MM.. Food", "City": "Roosevelt", "Lyrics": "For his own side wreck with no known side effects\r\nBefore you press charges use your noodle\r\nSo", "Artist": "MF DOOM", "Country": "USA", "Title": "Kon Queso", "Longitude": "-73.585556", "County": "Nassau", "State": "New York", "Latitude": "40.679167", "Type": "Solo M", "Release date": "2004-11-16"},{"Album": "Supreme Clientele", "City": "Staten Island", "Lyrics": "Ghetto poodles\r\nFingers sticky from cheese doodles\r\nStarving' for a 50 cent bag of Oodles and Noodles", "Artist": "Ghostface Killah", "Country": "USA", "Title": "The Grain", "Longitude": "-74.144839", "County": "Richmond", "State": "New York", "Latitude": "40.576281", "Type": "Solo M", "Release date": "2000-02-08"},{"Album": "Before I Self Destruct", "City": "Queens", "Lyrics": "crib, trying to pop your fucking noodles\r\nShe was 20, I was 12, man my Nana said she raped me\r\nI just", "Artist": "50 Cent", "Country": "USA", "Title": "Then Days Went By", "Longitude": "-73.829959", "County": "Queens", "State": "New York", "Latitude": "40.713985", "Type": "Solo M", "Release date": "2009-11-09"},{"Album": "Finally Famous Vol. 3", "City": "Detroit", "Lyrics": "from not having to having itFrom dreaming to grabing itWith only top ramen noodles up in my cabinetNow", "Artist": "Big Sean", "Country": "USA", "Title": "Money and Sex", "Longitude": "-83.045833", "County": "Wayne", "State": "Michigan", "Latitude": "42.331389", "Type": "Solo M", "Release date": "2010-08-31"},{"Album": "Only Built 4 Cuban Linx Pt Ii", "City": "Staten Island", "Lyrics": "Who drive Exeleros with jewels\r\nBrolic boots on, olive Goose, calamari soups and noodles", "Artist": "Raekwon", "Country": "USA", "Title": "Catalina", "Longitude": "-74.144839", "County": "Richmond", "State": "New York", "Latitude": "40.576281", "Type": "Solo M", "Release date": "2009-01-01"},{"Album": "8 Mile Soundtrack", "City": "Detroit", "Lyrics": "to play meIt's cockamanie you just ain't zany enough to rock with ShadyMy noodle is cock-a-doodle, my", "Artist": "Eminem", "Country": "USA", "Title": "Love Me", "Longitude": "-83.045833", "County": "Wayne", "State": "Michigan", "Latitude": "42.331389", "Type": "Solo M", "Release date": "2002-10-29"},{"Album": "Record Single", "City": "Queens", "Lyrics": ", y'all won't get served at all\r\n\r\n[Tony Yayo]\r\nI went from oodles and noodles to lobster and shrimp", "Artist": "50 Cent", "Country": "USA", "Title": "A Little Bit of Everything U.T.P. (Ft. Juvenile, Lloyd Banks, Skip, Tony Yayo (G-Unit) & Young Buck (U.T.P.))", "Longitude": "-73.829959", "County": "Queens", "State": "New York", "Latitude": "40.713985", "Type": "Solo M", "Release date": null},{"Album": "MF Doom and MF Grimm", "City": "Roosevelt", "Lyrics": ", semicolon\r\nI told him birds would do a nigga brutal for not using his noodle\r\nF up and get bamboozled\r\nHe", "Artist": "MF DOOM", "Country": "USA", "Title": "Impostas", "Longitude": "-73.585556", "County": "Nassau", "State": "New York", "Latitude": "40.679167", "Type": "Solo M", "Release date": "2000-11-28"},{"Album": "Son Of A Gun", "City": "The Bronx", "Lyrics": "Liar with the mask fuck a Pet Detective\r\nLosing my cup of noodles, temper tantrums get brutal", "Artist": "Cory Gunz", "Country": "USA", "Title": "Outta My Mind", "Longitude": "-73.886", "County": "The Bronx", "State": "New York", "Latitude": " 40.8373", "Type": "Solo M", "Release date": "2011-07-06"},{"Album": "50 Cent is the Future", "City": "Queens", "Lyrics": "and noodles to lobster and shrimp\r\nI went from bare bubble coats, to brand new minks\r\nAnd yo my neck upgraded", "Artist": "50 Cent", "Country": "USA", "Title": "A Little Bit of Everything U.T.P.", "Longitude": "-73.829959", "County": "Queens", "State": "New York", "Latitude": "40.713985", "Type": "Solo M", "Release date": "2002-01-01"},{"Album": "The Blueprint 2 The Gift The Curse", "City": "Brooklyn", "Lyrics": "to me, so your drama is fake\r\nYou dudes is noodles, I got more ziti to bake\r\nYou dudes is cake\r\nI keep", "Artist": "Jay Z", "Country": "USA", "Title": "U Don't Know (Remix)", "Longitude": "-73.989872", "County": "Kings", "State": "New York", "Latitude": "40.692385", "Type": "Solo M", "Release date": "2002-01-01"},{"Album": "What A Time To Be Alive", "City": "Toronto", "Lyrics": "of it, you gotta hit up Google\r\nBack in the city, shit is getting brutal\r\nThese kids'll hit your noodle", "Artist": "Drake", "Country": "CAN", "Title": "30 for 30 Freestyle", "Longitude": "-79.4", "County": "", "State": "Ontario", "Latitude": "43.7", "Type": "Solo M", "Release date": "2015-01-01"},{"Album": "Shaolin vs. Wu-Tang", "City": "Staten Island", "Lyrics": ", ranches with bulls\r\nAnd wolves there, who sit around, fronting in Wu-Wear\r\nI slam a Noodles hat", "Artist": "Raekwon", "Country": "USA", "Title": "Your World & My World", "Longitude": "-74.144839", "County": "Richmond", "State": "New York", "Latitude": "40.576281", "Type": "Solo M", "Release date": "2011-03-07"},{"Album": "America Is Dying Slowly", "City": "Staten Island", "Lyrics": "America Is Dying Slowly\r\nWu-Tang, Syndrome, be the resident\r\n\r\nNoodles, Bobby Steels, Lou Diamonds", "Artist": "Raekwon", "Country": "USA", "Title": "America", "Longitude": "-74.144839", "County": "Richmond", "State": "New York", "Latitude": "40.576281", "Type": "Solo M", "Release date": "1996-06-25"},{"Album": "Hidden Darts: Special Edition", "City": "Staten Island", "Lyrics": "in stones\r\nChunky and I ain't talkin chicken noodle soup\r\nGot a V for Vendetta this year and need", "Artist": "Ghostface Killah", "Country": "USA", "Title": "Return of Theodore Unit", "Longitude": "-74.144839", "County": "Richmond", "State": "New York", "Latitude": "40.576281", "Type": "Solo M", "Release date": "2007-03-13"},{"Album": "Record Single", "City": "Detroit", "Lyrics": "Matata\r\nUse your noodle, like Macgyver with some pasta\r\nHaha I mean expand your Medulla Oblongata", "Artist": "Eminem", "Country": "USA", "Title": "Adam Ivy Cypher vol.2 (Joe-C) (Ft. Crooked I & Dice Dinero)", "Longitude": "-83.045833", "County": "Wayne", "State": "Michigan", "Latitude": "42.331389", "Type": "Solo M", "Release date": null},{"Album": "E.L.E. (Extinction Level Event): The Final World Front", "City": "Uniondale", "Lyrics": "be lookin so pretty\r\nI own all of my shit, never 50-50\r\nOodle noodles all 'dose fools never refuse", "Artist": "Busta Rhymes", "Country": "USA", "Title": "Do It to Death", "Longitude": "-73.593544", "County": "Nassau", "State": "New York", "Latitude": "40.717935", "Type": "Solo M", "Release date": "1998-01-01"},{"Album": "Tha Carter III", "City": "New Orleans", "Lyrics": "My Little Man is on ya, Marlon and Shawn ya\r\nLay the beef on his noodle, make some Luger lasagna", "Artist": "Lil Wayne", "Country": "USA", "Title": "You Ain't Got Nuthin'", "Longitude": "-90.077714", "County": "Orleans", "State": "Louisiana", "Latitude": "29.95369", "Type": "Solo M", "Release date": "2008-01-01"},{"Album": "Confessions of Fire", "City": "Harlem", "Lyrics": "straight banoodles\r\nWhen I raped that putu\r\nAnd tried to turn the putu\r\nInto, veh, Oodles of Noodles", "Artist": "Camron", "Country": "USA", "Title": "Confessions", "Longitude": "-73.944862", "County": "Manhattan", "State": "New York", "Latitude": "40.806198", "Type": "Solo M", "Release date": "1998-01-01"},{"Album": "Only Built 4 Cuban Linx...", "City": "Staten Island", "Lyrics": "with Robert F\r\nWe like Meth to go and fuck with Noodles\r\nHaving them poodles on the lockdown: buying", "Artist": "Raekwon", "Country": "USA", "Title": "Knuckleheadz", "Longitude": "-74.144839", "County": "Richmond", "State": "New York", "Latitude": "40.576281", "Type": "Solo M", "Release date": "1995-08-01"},{"Album": "The Marshall Mathers LP 2", "City": "Detroit", "Lyrics": "floating\r\nBut I got your mom deep throating\r\nI'm out my ramen noodle, we have nothing in common", "Artist": "Eminem", "Country": "USA", "Title": "Rap God", "Longitude": "-83.045833", "County": "Wayne", "State": "Michigan", "Latitude": "42.331389", "Type": "Solo M", "Release date": "2013-11-05"},{"Album": "Record Single", "City": "Detroit", "Lyrics": "head, a zombie floating\r\nBut I got your mom deep throating\r\nI'm out my ramen noodle, we have nothing", "Artist": "Eminem", "Country": "USA", "Title": "Rap God prod. by DVLP", "Longitude": "-83.045833", "County": "Wayne", "State": "Michigan", "Latitude": "42.331389", "Type": "Solo M", "Release date": null},{"Album": "Record Single", "City": "The Bronx", "Lyrics": "shootin' hoops\r\nI break a chicken down to some noodle soup\r\nI buy a Rolls Royce like a Subaru\r\nI buy", "Artist": "Cory Gunz", "Country": "USA", "Title": "CivilTV Next Up Cypher", "Longitude": "-73.886", "County": "The Bronx", "State": "New York", "Latitude": " 40.8373", "Type": "Solo M", "Release date": null},{"Album": "You Know What it Is Volume 3", "City": "Compton", "Lyrics": "on the corner like Common\r\nNow that ain't common, it's more like Top Ramen\r\nThe flow is noodles, I throw", "Artist": "Game", "Country": "USA", "Title": "300 Bars & Runnin'", "Longitude": "-118.224329", "County": "Los Angeles", "State": "California", "Latitude": "33.895285", "Type": "Solo M", "Release date": "2006-01-01"},{"Album": "Record Single", "City": "Compton", "Lyrics": "on the corner like Common\r\nNow that ain't common, it's more like Top Ramen\r\nThe flow is noodles, I throw", "Artist": "Game", "Country": "USA", "Title": "300 Bars & Runnin'", "Longitude": "-118.224329", "County": "Los Angeles", "State": "California", "Latitude": "33.895285", "Type": "Solo M", "Release date": null},{"Album": "You Know What it Is Volume 3", "City": "Compton", "Lyrics": "on the corner like Common\r\nNow that ain't common, it's more like Top Ramen\r\nThe flow is noodles, I throw it up", "Artist": "Game", "Country": "USA", "Title": "300 Bars & Runnin'", "Longitude": "-118.224329", "County": "Los Angeles", "State": "California", "Latitude": "33.895285", "Type": "Solo M", "Release date": "2006-01-01"}]