[{"Album": "Charlie's Angel: Full Throttle Soundtrack", "City": "Queensbridge", "Lyrics": "stashes, Aston's, Rolls Royces\r\nCold oysters and many sorts of women shake like horses\r\nI got them", "Artist": "Nas", "Country": "USA", "Title": "' Angels... The Flyest", "Longitude": "-73.937622", "County": "Queens", "State": "New York", "Latitude": "40.756279", "Type": "Solo M", "Release date": "2003-06-24"},{"Album": "Street's Disciple", "City": "Queensbridge", "Lyrics": "oyster, his pearl so y'all know\r\n\r\n[Hook: Woman singing]\r\nI can't find no reason why we can't all", "Artist": "Nas", "Country": "USA", "Title": "Reason", "Longitude": "-73.937622", "County": "Queens", "State": "New York", "Latitude": "40.756279", "Type": "Solo M", "Release date": "2005-01-01"},{"Album": "Tha Carter III", "City": "New Orleans", "Lyrics": "hors d'oeuvres\r\nI'm a shark y'all just koi fish\r\nOctopus, oysters\r\nChump, I got my eye on your", "Artist": "Lil Wayne", "Country": "USA", "Title": "You Ain't Got Nuthin'", "Longitude": "-90.077714", "County": "Orleans", "State": "Louisiana", "Latitude": "29.95369", "Type": "Solo M", "Release date": "2008-01-01"},{"Album": "Record Single", "City": "Compton", "Lyrics": "niggas with me, can't one of them spell \"hors d'oeuvres\"\r\nPearl handle, but I don't eat oysters", "Artist": "Game", "Country": "USA", "Title": "500 Bars (Otis Freestyle) prod. by Kanye West", "Longitude": "-118.224329", "County": "Los Angeles", "State": "California", "Latitude": "33.895285", "Type": "Solo M", "Release date": null},{"Album": "Record Single", "City": "Compton", "Lyrics": ", can't one of them spell \"hors d'oeuvres\"\r\nPearl handle, but I don't eat oysters\r\nCatch 'em in the hood", "Artist": "Game", "Country": "USA", "Title": "500 Bars (Otis Freestyle)", "Longitude": "-118.224329", "County": "Los Angeles", "State": "California", "Latitude": "33.895285", "Type": "Solo M", "Release date": null},{"Album": "Record Single", "City": "Chicago", "Lyrics": "of them spell \"hors d'oeuvres\"\r\nPearl handle,but I don't eat oysters\r\nCatch em in the hood,24's", "Artist": "Kanye West", "Country": "USA", "Title": "500 Bars (Otis Freestyle) (Game)", "Longitude": "-87.632409", "County": "Cook", "State": "Illinois", "Latitude": "41.88415", "Type": "Solo M", "Release date": null}]