[{"Album": "rejex", "City": "Bedford\u2013Stuyvesant", "Lyrics": "prostate doctor\r\nMom want me be doctor, I be rhymin' like pasta\r\nEat them like they pasta, headed", "Artist": "Joey BADA$$", "Country": "USA", "Title": "Indubitable", "Longitude": "-73.963796", "County": "Kings", "State": "New York", "Latitude": "40.692385", "Type": "Solo M", "Release date": null},{"Album": "Record Single", "City": "Detroit", "Lyrics": "red Mazda\r\nWith his fucking head in his pasta\r\nIn the parking lot of K-Mart plaza\r\nAcross from", "Artist": "Eminem", "Country": "USA", "Title": "2012 Something From Nothing: Art of Rap Freestyle", "Longitude": "-83.045833", "County": "Wayne", "State": "Michigan", "Latitude": "42.331389", "Type": "Solo M", "Release date": null},{"Album": "UKNOWBIGSEAN", "City": "Detroit", "Lyrics": "addicted to that good pasta and that cooked lobster\r\nPaper chasin' I'm gon' probably need a foot doctor", "Artist": "Big Sean", "Country": "USA", "Title": "Paper Chaser", "Longitude": "-83.045833", "County": "Wayne", "State": "Michigan", "Latitude": "42.331389", "Type": "Solo M", "Release date": "2009-04-21"},{"Album": "Just Re'd Up 2 (Mixtape)", "City": "Compton", "Lyrics": "' money? I don't have that problem\r\nThat pussy wet like pasta, I don't eat lobster\r\nI gave her", "Artist": "YG", "Country": "USA", "Title": "I Like", "Longitude": "-118.224329", "County": "Los Angeles", "State": "California", "Latitude": "33.895285", "Type": "Solo M", "Release date": "2013-01-21"},{"Album": "Record Single", "City": "Detroit", "Lyrics": "red Mazda\r\nWith his fucking head in his pasta\r\nIn the parking lot of K-Mart plaza\r\nAcross from", "Artist": "Eminem", "Country": "USA", "Title": "2012 Something From Nothing: Art of Rap Freestyle", "Longitude": "-83.045833", "County": "Wayne", "State": "Michigan", "Latitude": "42.331389", "Type": "Solo M", "Release date": null},{"Album": "Pink Friday: Roman Reloaded - The Re-Up", "City": "Jamaica", "Lyrics": "on them\r\nSend a GT vodka, sittin' on top of\r\nMafia money eatin' seafood pasta\r\nVMA's, I was good", "Artist": "Nicki Minaj", "Country": "USA", "Title": "Hell Yeah", "Longitude": "-73.80842", "County": "Queens", "State": "New York", "Latitude": "40.701782", "Type": "Solo F", "Release date": "2012-11-19"},{"Album": "Indigoism", "City": "Flatbush", "Lyrics": "ain't even in mi clasa\r\nPeep the roster, we'll eat niggas like fuckin' pastas\r\nBrooklyn masters, we", "Artist": "The Underachievers", "Country": "USA", "Title": "New New York", "Longitude": "-73.962083", "County": "Kings", "State": "New York", "Latitude": "40.640417", "Type": "Group M", "Release date": "2013-01-01"},{"Album": "Record Single", "City": "Flatbush", "Lyrics": "that medical\r\nEh, you ain't even in mi clasa\r\nPeep the roster, we'll eat niggas like fuckin' pastas", "Artist": "The Underachievers", "Country": "USA", "Title": "New New York prod. by ENTREPRODUCERS", "Longitude": "-73.962083", "County": "Kings", "State": "New York", "Latitude": "40.640417", "Type": "Group M", "Release date": null},{"Album": "The Re-Up", "City": "Jamaica", "Lyrics": "on them\r\nSend a GT vodka, sittin' on top of\r\nMafia money eatin' seafood pasta\r\nVMA's, I was good", "Artist": "Nicki Minaj", "Country": "USA", "Title": "Hell Yeah", "Longitude": "-73.80842", "County": "Queens", "State": "New York", "Latitude": "40.701782", "Type": "Solo F", "Release date": "2012-11-19"},{"Album": "The Lex Diamond Story", "City": "Staten Island", "Lyrics": "sold\r\nWe're eatin' enchilada, goat cheese pasta\r\nYeah we're drippin' it with more salsa", "Artist": "Raekwon", "Country": "USA", "Title": "Pa-Blow Escablow", "Longitude": "-74.144839", "County": "Richmond", "State": "New York", "Latitude": "40.576281", "Type": "Solo M", "Release date": "2003-01-01"},{"Album": "Untitled", "City": "Queensbridge", "Lyrics": "with his falafel, Italian with his to-mato pasta\r\nWhat roti is to a rasta\r\nTrapping me; You and your", "Artist": "Nas", "Country": "USA", "Title": "Fried Chicken", "Longitude": "-73.937622", "County": "Queens", "State": "New York", "Latitude": "40.756279", "Type": "Solo M", "Release date": "2008-01-01"},{"Album": "Killa Season", "City": "Harlem", "Lyrics": "Ramadan...honor it (y'all won't eat!)\r\nY'all won't eat,I'm unloading a lobster & pasta\r\nY'all", "Artist": "Camron", "Country": "USA", "Title": "Leave You Alone", "Longitude": "-73.944862", "County": "Manhattan", "State": "New York", "Latitude": "40.806198", "Type": "Solo M", "Release date": "2006-05-16"},{"Album": "Apollo Kids", "City": "Staten Island", "Lyrics": "Got bitches in mi casa, boiling fresh lobsters\r\nBut I don't do the shellfish, I'mma just eat pasta", "Artist": "Ghostface Killah", "Country": "USA", "Title": "Black Tequila", "Longitude": "-74.144839", "County": "Richmond", "State": "New York", "Latitude": "40.576281", "Type": "Solo M", "Release date": "2010-01-01"},{"Album": "Only Built 4 Cuban Linx...", "City": "Staten Island", "Lyrics": "Blinded by the ice while I release the confrontation\r\nDonna holy fat bags of weed, ravioli\r\nPasta", "Artist": "Raekwon", "Country": "USA", "Title": "Ice Water", "Longitude": "-74.144839", "County": "Richmond", "State": "New York", "Latitude": "40.576281", "Type": "Solo M", "Release date": "1995-08-01"},{"Album": "Pink Friday: Roman Reloaded", "City": "Jamaica", "Lyrics": "roster?\r\nI pull up in that new new marinara and pasta\r\n\r\n[Hook]\r\nShake my head, yo, I'm mad\r\nAin't", "Artist": "Nicki Minaj", "Country": "USA", "Title": "Come on a Cone", "Longitude": "-73.80842", "County": "Queens", "State": "New York", "Latitude": "40.701782", "Type": "Solo F", "Release date": "2012-01-01"},{"Album": "Put it on the Line", "City": "Staten Island", "Lyrics": "Police Plaza\r\nI'm the opposite of agua, hotter than a plate of pasta\r\nI'm the reason LaMar Odomwas", "Artist": "Ghostface Killah", "Country": "USA", "Title": "Fire", "Longitude": "-74.144839", "County": "Richmond", "State": "New York", "Latitude": "40.576281", "Type": "Solo M", "Release date": "2005-11-18"},{"Album": "Detroit", "City": "Detroit", "Lyrics": "Now the suits and pasta both bowtie\r\nMy Greek girls say \"opa\"\r\nMy Spanish girls scream \"no mas", "Artist": "Big Sean", "Country": "USA", "Title": "How It Feel", "Longitude": "-83.045833", "County": "Wayne", "State": "Michigan", "Latitude": "42.331389", "Type": "Solo M", "Release date": "2012-01-01"},{"Album": "Brake Lights", "City": "Compton", "Lyrics": "Spend my money, I don't give a Waka Flocka\r\nCame with some mobstas, guns full of pasta\r\nNew Junior", "Artist": "Game", "Country": "USA", "Title": "Do It B.I.G.", "Longitude": "-118.224329", "County": "Los Angeles", "State": "California", "Latitude": "33.895285", "Type": "Solo M", "Release date": "2010-08-03"},{"Album": "The Red Room", "City": "Compton", "Lyrics": "and tell Mr. Chow to bring the lobsters out\r\nShe a vegetarian, she went the pasta route, she like carrots", "Artist": "Game", "Country": "USA", "Title": "Diamonds", "Longitude": "-118.224329", "County": "Los Angeles", "State": "California", "Latitude": "33.895285", "Type": "Solo M", "Release date": "2010-04-26"},{"Album": "The Drought Is Over 4 Mixtape", "City": "New Orleans", "Lyrics": "pasta\r\nOnly fuck with the shrimp and the lobster\r\nMurder that pussy holy ghed boy, while I'm dressed up", "Artist": "Lil Wayne", "Country": "USA", "Title": "Burn This City", "Longitude": "-90.077714", "County": "Orleans", "State": "Louisiana", "Latitude": "29.95369", "Type": "Solo M", "Release date": "2007-10-31"},{"Album": "When Disaster Strikes...", "City": "Uniondale", "Lyrics": "rastas, eatin enough exotic pasta, hah! Yo..\r\nWe keep it movin for all of y'all\r\nFreak y'all niggas", "Artist": "Busta Rhymes", "Country": "USA", "Title": "When Disaster Strikes", "Longitude": "-73.593544", "County": "Nassau", "State": "New York", "Latitude": "40.717935", "Type": "Solo M", "Release date": "1997-09-16"},{"Album": "So Far Gone", "City": "Toronto", "Lyrics": "lights when the show's over\r\nMake pasta, rent a movie, called hoes over\r\nRest in peace to Heath", "Artist": "Drake", "Country": "CAN", "Title": "Ignorant Shit (Freestyle)", "Longitude": "-79.4", "County": "", "State": "Ontario", "Latitude": "43.7", "Type": "Solo M", "Release date": "2009-09-15"},{"Album": "Record Single", "City": "Detroit", "Lyrics": "Matata\r\nUse your noodle, like Macgyver with some pasta\r\nHaha I mean expand your Medulla Oblongata", "Artist": "Eminem", "Country": "USA", "Title": "Adam Ivy Cypher vol.2 (Joe-C) (Ft. Crooked I & Dice Dinero)", "Longitude": "-83.045833", "County": "Wayne", "State": "Michigan", "Latitude": "42.331389", "Type": "Solo M", "Release date": null},{"Album": "Tha Carter III", "City": "New Orleans", "Lyrics": "Forty Cal fettuccine, trey pound pasta\r\nYou reach for this medallion, you must like Italian nigga", "Artist": "Lil Wayne", "Country": "USA", "Title": "You Ain't Got Nuthin'", "Longitude": "-90.077714", "County": "Orleans", "State": "Louisiana", "Latitude": "29.95369", "Type": "Solo M", "Release date": "2008-01-01"},{"Album": "Record Single", "City": "Uniondale", "Lyrics": "five G's pay\r\nFor trips that last for only 2-3 day\r\nHow these Guyanese niggas be eatin pasta", "Artist": "Busta Rhymes", "Country": "USA", "Title": "A Trip Out of Town prod. by Nottz", "Longitude": "-73.593544", "County": "Nassau", "State": "New York", "Latitude": "40.717935", "Type": "Solo M", "Release date": null},{"Album": "Record Single", "City": "Queensbridge", "Lyrics": "' O.D.\r\nOff this asparagus and bread and pasta\r\nNeed a doctor,I've been dogding shady hoes and rainy", "Artist": "Nas", "Country": "USA", "Title": "First Chain (Big Sean) (Ft. Kid Cudi) prod. by No I.D.", "Longitude": "-73.937622", "County": "Queens", "State": "New York", "Latitude": "40.756279", "Type": "Solo M", "Release date": null},{"Album": "Hall of Fame", "City": "Detroit", "Lyrics": "think I'm gon' O.D\r\nOff this asparagus and bread and pasta\r\nNeed a doctor, I've been dogding shady", "Artist": "Big Sean", "Country": "USA", "Title": "First Chain", "Longitude": "-83.045833", "County": "Wayne", "State": "Michigan", "Latitude": "42.331389", "Type": "Solo M", "Release date": "2013-08-27"},{"Album": "Anarchy", "City": "Uniondale", "Lyrics": "For trips that last for only 2-3 day\r\nHow these Guyanese niggas be eatin pasta but they love zucchini", "Artist": "Busta Rhymes", "Country": "USA", "Title": "A Trip Out of Town", "Longitude": "-73.593544", "County": "Nassau", "State": "New York", "Latitude": "40.717935", "Type": "Solo M", "Release date": "2000-01-01"},{"Album": "Only Built 4 Cuban Linx...", "City": "Staten Island", "Lyrics": ", sipping, eating pastas\r\nLaying in the house, telling the seeds about the sagas\r\nBefore we got", "Artist": "Raekwon", "Country": "USA", "Title": "Knuckleheadz", "Longitude": "-74.144839", "County": "Richmond", "State": "New York", "Latitude": "40.576281", "Type": "Solo M", "Release date": "1995-08-01"}]