[{"Album": "Paid in Full", "City": "Wyandanch", "Lyrics": "' pie\r\nKissed the girls and made them cry\r\nGeorgy Porgy puddin' pie\r\nKissed the girls and made them", "Artist": "Rakim", "Country": "USA", "Title": "Chinese Arithmetic", "Longitude": "-73.357999", "County": "Suffolk", "State": "New York", "Latitude": "40.75986", "Type": "Solo M", "Release date": "1987-01-01"},{"Album": "Born Sinner", "City": "Fayetteville", "Lyrics": "just want to sing on it\r\nGot me up so high\r\nTrying to get a piece of that apple pie\r\nI be up so", "Artist": "J. Cole", "Country": "USA", "Title": "She Knows", "Longitude": "-78.878056", "County": "Cumberland", "State": "North Carolina", "Latitude": "35.0525", "Type": "Solo M", "Release date": "2013-01-01"},{"Album": "Paid Tha Cost to be Da Bo$$", "City": "Long Beach", "Lyrics": "of hizzoes\r\n\r\n[Hook]\r\nSnoopy, ooh-wee, you so fly\r\nCan I give you a little piece of the pie?\r\nShake", "Artist": "Snoop Dogg", "Country": "USA", "Title": "Lollipop", "Longitude": "-118.195556", "County": "Los Angeles", "State": "California", "Latitude": "33.768333", "Type": "Solo M", "Release date": "2002-11-26"},{"Album": "Radio", "City": "Queens", "Lyrics": "? So fly that they're sweet like pie\r\nAnd the pie is so fly, the girls will all wanna try\r\nEl", "Artist": "LL Cool J", "Country": "USA", "Title": "3 The Hard Way", "Longitude": "-73.829959", "County": "Queens", "State": "New York", "Latitude": "40.713985", "Type": "Solo M", "Release date": "1985-01-01"},{"Album": "S.D.E. (Sports Drugs and Entertainment)", "City": "Harlem", "Lyrics": "who is the low-key Don\r\nDick stay hard, call me Pokemon\r\nCause I'm the one they call Cutie pie\r\nI'm", "Artist": "Camron", "Country": "USA", "Title": "Freak", "Longitude": "-73.944862", "County": "Manhattan", "State": "New York", "Latitude": "40.806198", "Type": "Solo M", "Release date": "2000-01-01"},{"Album": "Pink Friday", "City": "Jamaica", "Lyrics": "want to lease or buy\r\nAnd I dictate how I'm gonna piece the pie\r\nI ain't talkin' about", "Artist": "Nicki Minaj", "Country": "USA", "Title": "Muny", "Longitude": "-73.80842", "County": "Queens", "State": "New York", "Latitude": "40.701782", "Type": "Solo F", "Release date": "2010-11-19"},{"Album": "Pluto", "City": "Atlanta", "Lyrics": "on that other side, getting it in\r\nYou niggas selling a bunch of pies, snatch a Benz\r\nI heard you say", "Artist": "Future", "Country": "USA", "Title": "Homicide", "Longitude": "-84.41918", "County": "Fulton", "State": "Georgia", "Latitude": "33.77155", "Type": "Solo M", "Release date": "2012-01-01"},{"Album": "Pluto 3D", "City": "Atlanta", "Lyrics": "on that other side, getting it in\r\nYou niggas selling a bunch of pies, snatch a Benz\r\nI heard you say", "Artist": "Future", "Country": "USA", "Title": "Homicide", "Longitude": "-84.41918", "County": "Fulton", "State": "Georgia", "Latitude": "33.77155", "Type": "Solo M", "Release date": "2012-11-27"},{"Album": "Public enemy", "City": "Harlem", "Lyrics": "the iphone\r\nPies on i'll bet some pies on\r\nThe 2,4 and 6 train the only thing theyll ride on\r\nAsk em", "Artist": "Camron", "Country": "USA", "Title": "Hot mess", "Longitude": "-73.944862", "County": "Manhattan", "State": "New York", "Latitude": "40.806198", "Type": "Solo M", "Release date": "2007-10-26"},{"Album": "She Got Game", "City": "Wilson", "Lyrics": "think somebody close to me died\r\nRedder my eyes\r\nCherry pies, that's the color of pain\r\nColor of rain", "Artist": "Rapsody", "Country": "USA", "Title": "Love After All", "Longitude": "-77.923611", "County": "Wilson", "State": "North Carolina", "Latitude": "35.731111", "Type": "Solo F", "Release date": "2013-01-01"},{"Album": "She Got Game", "City": "Wilson", "Lyrics": "somebody close to me died\r\nRedder my eyes\r\nCherry pies, that the color of pain\r\nColor of rain", "Artist": "Rapsody", "Country": "USA", "Title": "Love After All", "Longitude": "-77.923611", "County": "Wilson", "State": "North Carolina", "Latitude": "35.731111", "Type": "Solo F", "Release date": "2013-09-17"},{"Album": "At.Long.Last.A$AP", "City": "Harlem", "Lyrics": "thing in common that we got is that we want it all\r\nLittle cutie pie, saw her looking super fly", "Artist": "A$AP Rocky", "Country": "USA", "Title": "West Side Highway", "Longitude": "-73.944862", "County": "Manhattan", "State": "New York", "Latitude": "40.806198", "Type": "Solo M", "Release date": "2015-05-26"},{"Album": "Aquemini", "City": "Atlanta", "Lyrics": ", spiced with rock n'roll indubitably, piper pied\r\nNow hold on my brother no, no, no, no, can't stop", "Artist": "Andre 3000", "Country": "USA", "Title": "Chonkyfire", "Longitude": "-84.296548", "County": "DeKalb", "State": "Georgia", "Latitude": "33.775746", "Type": "Solo M", "Release date": "1998-01-01"},{"Album": "The DaVinci Code: The Vatican Mixtape Volume 2", "City": "Staten Island", "Lyrics": ", what up?\r\nChilling like we at the 25's out\r\nNight time is vibe, pies get thrown to guys\r\nYou fuck up", "Artist": "Raekwon", "Country": "USA", "Title": "Rover Sport", "Longitude": "-74.144839", "County": "Richmond", "State": "New York", "Latitude": "40.576281", "Type": "Solo M", "Release date": "2006-01-01"},{"Album": "Twelve Reasons To Die", "City": "Staten Island", "Lyrics": "of that cherry pie pie, she mad poison\r\nTu carajo, they got to bring the boys in\r\nYeah dun dun, DeLucas mob", "Artist": "Ghostface Killah", "Country": "USA", "Title": "The Center of Attraction", "Longitude": "-74.144839", "County": "Richmond", "State": "New York", "Latitude": "40.576281", "Type": "Solo M", "Release date": "2013-01-01"},{"Album": "Jesus Piece", "City": "Compton", "Lyrics": "a slave where them pies get sold\r\nAccompanied by fourteen karats stold\r\nAdjust the temperature let", "Artist": "Game", "Country": "USA", "Title": "Name Me King", "Longitude": "-118.224329", "County": "Los Angeles", "State": "California", "Latitude": "33.895285", "Type": "Solo M", "Release date": "2012-12-11"},{"Album": "First Round Knock Out", "City": "Compton", "Lyrics": "that\r\nIt's the man that they call Jimmy Z gettin ya hyper\r\nSo just call him the Pied Piper\r\nSo I know you wanna see", "Artist": "Dr. Dre", "Country": "USA", "Title": "Funky Flute", "Longitude": "-118.224329", "County": "Los Angeles", "State": "California", "Latitude": "33.895285", "Type": "Solo M", "Release date": "1996-05-21"},{"Album": "Record Single", "City": "Roosevelt", "Lyrics": "of nice verse pie\r\nHit it on the first try\r\nVillain: The Worst Guy\r\nSpot hot tracks like spot a pair", "Artist": "MF DOOM", "Country": "USA", "Title": "All Caps (Madvillain) prod. by Madlib", "Longitude": "-73.585556", "County": "Nassau", "State": "New York", "Latitude": "40.679167", "Type": "Solo M", "Release date": null},{"Album": "Purple Haze", "City": "Harlem", "Lyrics": "eye, chill in your body\r\nTake it in stride, let's bake up these pies\r\nHarlem, no homo, hop on and take", "Artist": "Camron", "Country": "USA", "Title": "Intro (Purple Haze)", "Longitude": "-73.944862", "County": "Manhattan", "State": "New York", "Latitude": "40.806198", "Type": "Solo M", "Release date": "2004-01-01"},{"Album": "Roc-A-Fella Presents (Jay-z Bonus Disc)", "City": "Brooklyn", "Lyrics": "bell\r\nI run south of the border\r\nCop a whole pie and you working wit a quarter\r\nStay cased up like my", "Artist": "Jay Z", "Country": "USA", "Title": "Beanie Sigel Freestlye", "Longitude": "-73.989872", "County": "Kings", "State": "New York", "Latitude": "40.692385", "Type": "Solo M", "Release date": "1998-01-01"},{"Album": "Madvillainy", "City": "Roosevelt", "Lyrics": "verse pie\r\nHit it on the first try\r\nVillain: the worst guy\r\nSpot hot tracks like spot a pair of fat", "Artist": "MF DOOM", "Country": "USA", "Title": "All Caps", "Longitude": "-73.585556", "County": "Nassau", "State": "New York", "Latitude": "40.679167", "Type": "Solo M", "Release date": "2004-01-01"},{"Album": "Astronaut Status", "City": "Atlanta", "Lyrics": ", with pies, vegetary\r\nIm a dog on these hoes, vetinary\r\nYea, I make movies, tyler perry\r\nYo main dame, thats", "Artist": "Future", "Country": "USA", "Title": "Back", "Longitude": "-84.41918", "County": "Fulton", "State": "Georgia", "Latitude": "33.77155", "Type": "Solo M", "Release date": "2012-01-01"},{"Album": "Record Single", "City": "Atlanta", "Lyrics": "I'm doing exercise\r\nMoving up the hill and shit\r\nAnd I got them pills and pies\r\nI go Pauly", "Artist": "Future", "Country": "USA", "Title": "Brick Fair (Gucci Mane)", "Longitude": "-84.41918", "County": "Fulton", "State": "Georgia", "Latitude": "33.77155", "Type": "Solo M", "Release date": null},{"Album": "Pink Friday: Roman Reloaded", "City": "Jamaica", "Lyrics": "come get this pie\r\nRide it in style\r\nSaid it a minute ago, I did it a minute ago\r\nI drop it, I pick", "Artist": "Nicki Minaj", "Country": "USA", "Title": "Whip It", "Longitude": "-73.80842", "County": "Queens", "State": "New York", "Latitude": "40.701782", "Type": "Solo F", "Release date": "2012-01-01"},{"Album": "Pink Friday: Roman Reloaded", "City": "Jamaica", "Lyrics": "on the hip, live with the pies got 9 for the flip\r\nHigh with a bitch, she cry for the dick, oh my know why", "Artist": "Nicki Minaj", "Country": "USA", "Title": "I Am Your Leader", "Longitude": "-73.80842", "County": "Queens", "State": "New York", "Latitude": "40.701782", "Type": "Solo F", "Release date": "2012-01-01"},{"Album": "Purple Haze", "City": "Harlem", "Lyrics": "', she blowin', sky high like a Boeing\r\nGot pies like it snowin' (slingin'!)\r\n\r\n[Hook]\r\n\r\n[Verse 3", "Artist": "Camron", "Country": "USA", "Title": "Girls", "Longitude": "-73.944862", "County": "Manhattan", "State": "New York", "Latitude": "40.806198", "Type": "Solo M", "Release date": "2004-01-01"},{"Album": "Sunday Service", "City": "Compton", "Lyrics": "sweat drips into my eyes\r\nAnd if it burns like the kush, then I go back to sellin' pies\r\nSwitchin' lanes", "Artist": "Game", "Country": "USA", "Title": "Holy Water", "Longitude": "-118.224329", "County": "Los Angeles", "State": "California", "Latitude": "33.895285", "Type": "Solo M", "Release date": "2012-01-01"},{"Album": "Trilla", "City": "Carol City", "Lyrics": "the cheese let her see the pies\r\nMight say I'm foolish but we have a bond\r\nShe make moves on my behalf", "Artist": "Rick Ross", "Country": "USA", "Title": "Money Make Me Come", "Longitude": "-80.269920", "County": "Miami-Dade", "State": "Florida", "Latitude": "25.942121", "Type": "Solo M", "Release date": "2008-03-11"},{"Album": "Record Single", "City": "East Oakland", "Lyrics": "pie\r\nTwerk that ass, roll them eyes\r\nGirl you know I'm on the good\r\nClassy nigga from the hood\r\nPut", "Artist": "Too Short", "Country": "USA", "Title": "Booty Bounce Bopper (The Pack) (Ft. Lil B, Lil Uno, Stunnaman & Young L)", "Longitude": "-122.2591", "County": "Oakland", "State": "California", "Latitude": "37.8039", "Type": "Solo M", "Release date": null},{"Album": "Confessions of Fire", "City": "Harlem", "Lyrics": "slices pies\r\nA benz is what my wife drives\r\nYou know Qeet' nigga\r\nExecutive thug\r\nBut she respects", "Artist": "Camron", "Country": "USA", "Title": "Who's Nice", "Longitude": "-73.944862", "County": "Manhattan", "State": "New York", "Latitude": "40.806198", "Type": "Solo M", "Release date": "1998-01-01"},{"Album": "The Cookbook", "City": "Portsmouth", "Lyrics": "to get with\r\n{*beat changes*}\r\nI seen this cutie pie, so I pulled beside him\r\nSeen the size of his feet", "Artist": "Missy Elliott", "Country": "USA", "Title": "Irresistible Delicious", "Longitude": "-76.297715", "County": "Portsmouth", "State": "Virginia", "Latitude": "36.832642", "Type": "Solo F", "Release date": "2005-01-01"},{"Album": "Gunz N' Butta", "City": "Harlem", "Lyrics": "the door, no one coming\r\nYou peel onions, lets go pie for pie\r\nI hit 'em likeDolph Lundgren, if he dies", "Artist": "Camron", "Country": "USA", "Title": "Stop It 5", "Longitude": "-73.944862", "County": "Manhattan", "State": "New York", "Latitude": "40.806198", "Type": "Solo M", "Release date": "2011-01-01"},{"Album": "The Drought Is Over 4 Mixtape", "City": "New Orleans", "Lyrics": "It can't fit in my pocket and I don't have to cock it\r\nScarface bitch, cocaine by the pie\r\nGot them hoes", "Artist": "Lil Wayne", "Country": "USA", "Title": "Ask Dem Hoes", "Longitude": "-90.077714", "County": "Orleans", "State": "Louisiana", "Latitude": "29.95369", "Type": "Solo M", "Release date": "2007-10-31"},{"Album": "Blueprint 2.1", "City": "Brooklyn", "Lyrics": "' that ?__ ___?\r\nAnd the mirror pointin' at your reflection, killing yourself\r\nYou American Pie, stop feeling", "Artist": "Jay Z", "Country": "USA", "Title": "Stop 2.1", "Longitude": "-73.989872", "County": "Kings", "State": "New York", "Latitude": "40.692385", "Type": "Solo M", "Release date": "2003-04-08"},{"Album": "Beast Mode", "City": "Atlanta", "Lyrics": "on these niggas, ain't you?\r\nYou put designer on your eyes, ain't you?\r\nYou take the nine out them pies", "Artist": "Future", "Country": "USA", "Title": "Aintchu", "Longitude": "-84.41918", "County": "Fulton", "State": "Georgia", "Latitude": "33.77155", "Type": "Solo M", "Release date": "2015-01-01"},{"Album": "Jesus Piece", "City": "Compton", "Lyrics": "sweat drips into my eyes\r\nAnd if it burns like the kush, then I go back to sellin' pies\r\nSwitchin' lanes", "Artist": "Game", "Country": "USA", "Title": "Holy Water", "Longitude": "-118.224329", "County": "Los Angeles", "State": "California", "Latitude": "33.895285", "Type": "Solo M", "Release date": "2012-12-11"},{"Album": "Sucka Free (Mixtape)", "City": "Jamaica", "Lyrics": "fries\r\nFor a better price you can get some better pie\r\nStrawberry, apple, cherry, even lemon lime\r\nWhat", "Artist": "Nicki Minaj", "Country": "USA", "Title": "Cuchi Shop", "Longitude": "-73.80842", "County": "Queens", "State": "New York", "Latitude": "40.701782", "Type": "Solo F", "Release date": "2008-01-01"},{"Album": "Record Single", "City": "Harlem", "Lyrics": "-a-boo through a slit like blinds\r\nAnd seen his little meat like chicken pot pie\r\nHis chicken pox", "Artist": "Azelia Banks", "Country": "USA", "Title": "Can't Stop Me Now (Kicks Like A Mule Remix)", "Longitude": "-73.948372", "County": "Manhattan", "State": "New York", "Latitude": "40.809033", "Type": "Solo F", "Release date": null},{"Album": "Life Is Good", "City": "Queensbridge", "Lyrics": "slide, sly remarks\r\nYou must wanna die butyou frontin', why?\r\nWhen we all know you pumpkin pie\r\nWhen", "Artist": "Nas", "Country": "USA", "Title": "The Black Bond", "Longitude": "-73.937622", "County": "Queens", "State": "New York", "Latitude": "40.756279", "Type": "Solo M", "Release date": "2012-01-01"},{"Album": "House of Wax: The Vatican Mixtape, Vol. 3", "City": "Staten Island", "Lyrics": "big armor now it's horror\r\nMulti, Say it again, We regulate and take your pies\r\nRae had a mask", "Artist": "Raekwon", "Country": "USA", "Title": "Russian Cut", "Longitude": "-74.144839", "County": "Richmond", "State": "New York", "Latitude": "40.576281", "Type": "Solo M", "Release date": "2007-08-06"},{"Album": "No Ceilings", "City": "New Orleans", "Lyrics": "spar in bed\r\nShe got that pink pussy, I beat it orange/red\r\nI fuck American pie and I get foreign", "Artist": "Lil Wayne", "Country": "USA", "Title": "Wayne on Me", "Longitude": "-90.077714", "County": "Orleans", "State": "Louisiana", "Latitude": "29.95369", "Type": "Solo M", "Release date": "2009-10-31"},{"Album": "Watch the Throne", "City": "Chicago", "Lyrics": "of Americana\r\nOur apple pie was supplied through Arm and Hammer\r\nStraight out the kitchen, shh, don\u00e2", "Artist": "Kanye West", "Country": "USA", "Title": "Made in America", "Longitude": "-87.632409", "County": "Cook", "State": "Illinois", "Latitude": "41.88415", "Type": "Solo M", "Release date": "2011-08-08"},{"Album": "Purple Haze", "City": "Harlem", "Lyrics": "surprised, like we don't sell them pies\r\nThey way we hold up, papi hole up, mami roll up\r\n\r\n[Verse 2", "Artist": "Camron", "Country": "USA", "Title": "Hey Lady", "Longitude": "-73.944862", "County": "Manhattan", "State": "New York", "Latitude": "40.806198", "Type": "Solo M", "Release date": "2004-01-01"},{"Album": "Tha Carter II", "City": "New Orleans", "Lyrics": "masks\r\nStop throwing pebbles at a bulletproof glass\r\nThat'sCash Money, honey pie\r\nWe ain't running, we", "Artist": "Lil Wayne", "Country": "USA", "Title": "Carter II", "Longitude": "-90.077714", "County": "Orleans", "State": "Louisiana", "Latitude": "29.95369", "Type": "Solo M", "Release date": "2005-12-06"},{"Album": "Teflon Don", "City": "Carol City", "Lyrics": "' for the pie\r\n9 for the slice, dummy that's a Dan Marino\r\nTalkin' quarterbacks mean ya talkin' quarter", "Artist": "Rick Ross", "Country": "USA", "Title": "I'm Not a Star", "Longitude": "-80.269920", "County": "Miami-Dade", "State": "Florida", "Latitude": "25.942121", "Type": "Solo M", "Release date": "2010-07-20"},{"Album": "Fuck Da City Up", "City": "Atlanta", "Lyrics": "between ya ass and I'll blow it\r\nI'm talkin' Cool Whip, apple pie, chocolate cake or ice cream\r\nSpread", "Artist": "T.I.", "Country": "USA", "Title": "This Time Of Night", "Longitude": "-84.41918", "County": "Fulton", "State": "Georgia", "Latitude": "33.77155", "Type": "Solo M", "Release date": null},{"Album": "Record Single", "City": "Jamaica", "Lyrics": "pies better be hot\r\nShe got it twisted like a cock-eyed bitch\r\nThat's why I be in Mr.Chows\r\nYou", "Artist": "Nicki Minaj", "Country": "USA", "Title": "Beef Stew", "Longitude": "-73.80842", "County": "Queens", "State": "New York", "Latitude": "40.701782", "Type": "Solo F", "Release date": null},{"Album": "10", "City": "Queens", "Lyrics": "blast me for {HA!}\r\nI can't die for American Pie\r\nHypnotized cause somebody combined thighs and lies", "Artist": "LL Cool J", "Country": "USA", "Title": "Fa Ha", "Longitude": "-73.829959", "County": "Queens", "State": "New York", "Latitude": "40.713985", "Type": "Solo M", "Release date": "2003-01-01"},{"Album": "The Big Doe Rehab", "City": "Staten Island", "Lyrics": "Buying frosted bracelets, Louis Voutton duffles\r\nFrench vanilla ice cream and hot apple pie truffles", "Artist": "Ghostface Killah", "Country": "USA", "Title": "Slow Down", "Longitude": "-74.144839", "County": "Richmond", "State": "New York", "Latitude": "40.576281", "Type": "Solo M", "Release date": "2007-12-04"},{"Album": "Guess Who's Back", "City": "Queens", "Lyrics": "pies on me\r\n\r\n[Hook]\r\n\r\n[Outro]\r\nIt's gangsta, 2000 shit\r\nY'all know what you need to do, get", "Artist": "50 Cent", "Country": "USA", "Title": "Be a Gentleman", "Longitude": "-73.829959", "County": "Queens", "State": "New York", "Latitude": "40.713985", "Type": "Solo M", "Release date": "2002-01-01"},{"Album": "The Definition", "City": "Queens", "Lyrics": "pie?\r\nI said throw it to me - that apple cobbler\r\nBaby it, can I get (hey) can I get it deep fried", "Artist": "LL Cool J", "Country": "USA", "Title": "Apple Cobbler", "Longitude": "-73.829959", "County": "Queens", "State": "New York", "Latitude": "40.713985", "Type": "Solo M", "Release date": "2004-08-31"},{"Album": "Freshman Adjustment", "City": "Chicago", "Lyrics": "the only one eatin'\r\nShut your pie hole\r\nAnd wanna figure out why I'm gettin' it high though?\r\nWhy", "Artist": "Kanye West", "Country": "USA", "Title": "My Way", "Longitude": "-87.632409", "County": "Cook", "State": "Illinois", "Latitude": "41.88415", "Type": "Solo M", "Release date": "2005-03-21"},{"Album": "Def Jam S How To Be A Player Soundtrack", "City": "Brooklyn", "Lyrics": "?\r\nWork niggas, like you one of the live niggas\r\nFly niggas, known to handle a pie nigga\r\nChick", "Artist": "Foxy Brown", "Country": "USA", "Title": "Big Bad Mamma", "Longitude": "-73.989872", "County": "Kings", "State": "New York", "Latitude": "40.692385", "Type": "Solo F", "Release date": "1997-08-05"},{"Album": "S.D.E. (Sports Drugs and Entertainment)", "City": "Harlem", "Lyrics": "your shit wet like Noah's Ark\r\nWe order the pies, you sort of a lie\r\nYou ain't 730 nigga you 'bout", "Artist": "Camron", "Country": "USA", "Title": "What Do I Gotta Live For", "Longitude": "-73.944862", "County": "Manhattan", "State": "New York", "Latitude": "40.806198", "Type": "Solo M", "Release date": "2000-01-01"},{"Album": "Broke With Expensive Taste", "City": "Harlem", "Lyrics": ", hahaha\r\nMiss one, miss young, miss cutie pie\r\nYoung Nubi, young coochy tight\r\nYoung juicy, young Uzi", "Artist": "Azelia Banks", "Country": "USA", "Title": "1991", "Longitude": "-73.948372", "County": "Manhattan", "State": "New York", "Latitude": "40.809033", "Type": "Solo F", "Release date": "2014-01-01"},{"Album": "American Gangster", "City": "Brooklyn", "Lyrics": "change the target\r\nI got dreams of bagging snidd-ow, the size of pillows\r\nI see pies every time my eyes", "Artist": "Jay Z", "Country": "USA", "Title": "American Dreamin'", "Longitude": "-73.989872", "County": "Kings", "State": "New York", "Latitude": "40.692385", "Type": "Solo M", "Release date": "2007-11-06"},{"Album": "In My Lifetime, Vol. 1", "City": "Brooklyn", "Lyrics": "the I's\r\nNow that I got too popular to cop them pies\r\nI'm takin this rap shit serious, to my demise\r\nJay", "Artist": "Jay Z", "Country": "USA", "Title": "The City is Mine", "Longitude": "-73.989872", "County": "Kings", "State": "New York", "Latitude": "40.692385", "Type": "Solo M", "Release date": "1997-11-04"},{"Album": "Born Again", "City": "Bedford\u2013Stuyvesant", "Lyrics": "a grou-pie\r\nGirls call my telephone just to hang up\r\nWhile me and you is in the crib, laying up\r\nOh", "Artist": "The Notorious B.I.G.", "Country": "USA", "Title": "Would You Die For Me", "Longitude": "-73.963796", "County": "Kings", "State": "New York", "Latitude": "40.692385", "Type": "Solo M", "Release date": "1999-01-01"},{"Album": "Life After Death", "City": "Bedford\u2013Stuyvesant", "Lyrics": "weeks\r\nShe sniffed a whole half of cake up\r\nHeard she suck a good dick, and can hook a steak up\r\nGotta go gotta go, more pies to bake up, word up", "Artist": "The Notorious B.I.G.", "Country": "USA", "Title": "Ten Crack Commandments", "Longitude": "-73.963796", "County": "Kings", "State": "New York", "Latitude": "40.692385", "Type": "Solo M", "Release date": "1997-01-01"},{"Album": "Record Single", "City": "Portsmouth", "Lyrics": "bump uglies if you ain't got your monthly\r\nYes I, like \"American Pie\"\r\nTell 'em M-I-crooked letter", "Artist": "Missy Elliott", "Country": "USA", "Title": "Bring the Pain (Ft. Method Man) prod. by Timbaland", "Longitude": "-76.297715", "County": "Portsmouth", "State": "Virginia", "Latitude": "36.832642", "Type": "Solo F", "Release date": null},{"Album": "The Seventh Seal", "City": "Wyandanch", "Lyrics": "Stash the dollars, bag the product and get it cracking\r\nHe get pies, he flipping em\r\nTricks, he", "Artist": "Rakim", "Country": "USA", "Title": "Documentary of a Gangsta", "Longitude": "-73.357999", "County": "Suffolk", "State": "New York", "Latitude": "40.75986", "Type": "Solo M", "Release date": "2009-01-01"},{"Album": "Rich Forever (French Version)", "City": "Carol City", "Lyrics": "of the game, I put a ribbon on the pie\r\n\r\n[Refrain]\r\n\r\n[Outro: Rick Ross talking]\r\nIf I'm rich now", "Artist": "Rick Ross", "Country": "USA", "Title": "Key's To The Crib (French Version)", "Longitude": "-80.269920", "County": "Miami-Dade", "State": "Florida", "Latitude": "25.942121", "Type": "Solo M", "Release date": null},{"Album": "Doggumentary", "City": "Long Beach", "Lyrics": "on the black hand side\r\nNow try to stay fly with a piece of pie\r\nI heard fish don\u00e2\u20ac\u2122t burn in the kitchen", "Artist": "Snoop Dogg", "Country": "USA", "Title": "Wonder What It Do", "Longitude": "-118.195556", "County": "Los Angeles", "State": "California", "Latitude": "33.768333", "Type": "Solo M", "Release date": "2011-03-29"},{"Album": "Married to the Game", "City": "East Oakland", "Lyrics": "'Bout to take a trip up to the Eastside\r\nWhattup Nore? Give your boy half on a ho pie\r\nI love", "Artist": "Too Short", "Country": "USA", "Title": "You Can't Fuck With Us", "Longitude": "-122.2591", "County": "Oakland", "State": "California", "Latitude": "37.8039", "Type": "Solo M", "Release date": "2003-11-04"},{"Album": "Crime Pays", "City": "Harlem", "Lyrics": "box\r\n2 piece, apple pie, feds taking snap shots\r\nThey know I'm known for hot rims, fast drops\r\nBig", "Artist": "Camron", "Country": "USA", "Title": "Chalupa", "Longitude": "-73.944862", "County": "Manhattan", "State": "New York", "Latitude": "40.806198", "Type": "Solo M", "Release date": "2009-05-12"},{"Album": "Gunz N' Butta", "City": "Harlem", "Lyrics": "size\r\nShe's steak fries\r\nSweet as egg pies\r\nMake cake rise, up in my fav five\r\n\r\n[Hook]", "Artist": "Camron", "Country": "USA", "Title": "Put A Bird Up", "Longitude": "-73.944862", "County": "Manhattan", "State": "New York", "Latitude": "40.806198", "Type": "Solo M", "Release date": "2011-01-01"},{"Album": "The Blueprint", "City": "Brooklyn", "Lyrics": "24/7, 365\r\nOne CD or three hundred and sixty pies\r\nWhat's up to E and Kirk? Welcome home to Taj\r\nLet", "Artist": "Jay Z", "Country": "USA", "Title": "Never Change", "Longitude": "-73.989872", "County": "Kings", "State": "New York", "Latitude": "40.692385", "Type": "Solo M", "Release date": "2001-09-11"},{"Album": "The Blueprint 2 The Gift The Curse", "City": "Brooklyn", "Lyrics": "knew dude that loved apple pies from McDonalds\r\nWould soon be the boss of the Big Apple, ya know", "Artist": "Jay Z", "Country": "USA", "Title": "Guns & Roses", "Longitude": "-73.989872", "County": "Kings", "State": "New York", "Latitude": "40.692385", "Type": "Solo M", "Release date": "2002-01-01"},{"Album": "The Come Up Mixtape Vol. 1", "City": "Fayetteville", "Lyrics": "laughed girl I ain't scared of yo ass\r\nI don ate more pies than even sara lee has\r\nSo when I get done", "Artist": "J. Cole", "Country": "USA", "Title": "I Do My Thing (Bonus)", "Longitude": "-78.878056", "County": "Cumberland", "State": "North Carolina", "Latitude": "35.0525", "Type": "Solo M", "Release date": "2008-05-03"},{"Album": "Record Single", "City": "Queens", "Lyrics": "singin my wrist blingin what?\r\nI'm waiting on this nigga Wise, three loaves for two pies\r\nSon he", "Artist": "50 Cent", "Country": "USA", "Title": "50 Bars", "Longitude": "-73.829959", "County": "Queens", "State": "New York", "Latitude": "40.713985", "Type": "Solo M", "Release date": null},{"Album": "Record Single", "City": "South Bronx", "Lyrics": ", las olas a sus pies\r\n\r\n[Hook]\r\n\r\n[Frankie Cutlass sample x4]\r\nA Puerto Rico", "Artist": "Big Punisher", "Country": "USA", "Title": "100% (Ft. Tony Sunshine)", "Longitude": "-73.911789", "County": "Bronx", "State": "New York", "Latitude": "40.823318", "Type": "Solo M", "Release date": null},{"Album": "Quality", "City": "Park Slope", "Lyrics": "]\r\nYoyoyo, yo\r\nSome people cry, and some people try\r\nJust to get by, for a piece of the pie\r\nYou love", "Artist": "Talib Kweli", "Country": "USA", "Title": "Get By", "Longitude": "-73.977063", "County": "Kings", "State": "New York", "Latitude": "40.672404", "Type": "Solo M", "Release date": "2002-11-19"},{"Album": "The DaVinci Code: The Vatican Mixtape Volume 2", "City": "Staten Island", "Lyrics": "it amazing\r\nCuz every line is laid in\r\nCaught up, thoughts are sort a, an addiction\r\nBags of pies, smell", "Artist": "Raekwon", "Country": "USA", "Title": "Rakim Tribute", "Longitude": "-74.144839", "County": "Richmond", "State": "New York", "Latitude": "40.576281", "Type": "Solo M", "Release date": "2006-01-01"},{"Album": "Record Single", "City": "Wyandanch", "Lyrics": "Stash the dollars, bag the product and get it cracking\r\nHe get pies, he flipping em\r\nTricks, he", "Artist": "Rakim", "Country": "USA", "Title": "Documentary of a Gangsta", "Longitude": "-73.357999", "County": "Suffolk", "State": "New York", "Latitude": "40.75986", "Type": "Solo M", "Release date": null},{"Album": "The Seventh Seal", "City": "Wyandanch", "Lyrics": "and shine, real cream and pies\r\nChrome rims and rides, like ill teams and grinds\r\nLike identical designs", "Artist": "Rakim", "Country": "USA", "Title": "You and I", "Longitude": "-73.357999", "County": "Suffolk", "State": "New York", "Latitude": "40.75986", "Type": "Solo M", "Release date": "2009-01-01"},{"Album": "It Was Written", "City": "Queensbridge", "Lyrics": "pies up\r\nWhat's the flavour when your neighbors do jake favours?\r\nLock them real niggas down", "Artist": "Nas", "Country": "USA", "Title": "Silent Murder", "Longitude": "-73.937622", "County": "Queens", "State": "New York", "Latitude": "40.756279", "Type": "Solo M", "Release date": "1996-01-01"},{"Album": "MM.. Food", "City": "Roosevelt", "Lyrics": "guy\r\nThe one that's too fly to eat shoo pie, never too busy\r\nNever too busy when it comes down to you", "Artist": "MF DOOM", "Country": "USA", "Title": "Potholderz", "Longitude": "-73.585556", "County": "Nassau", "State": "New York", "Latitude": "40.679167", "Type": "Solo M", "Release date": "2004-11-16"},{"Album": "Dedication 2", "City": "New Orleans", "Lyrics": "Gettin' out twenty American pies an hour\r\nGoddamn, excuse ma'am but I'm the man\r\nAnd you better put my", "Artist": "Lil Wayne", "Country": "USA", "Title": "Dedication 2", "Longitude": "-90.077714", "County": "Orleans", "State": "Louisiana", "Latitude": "29.95369", "Type": "Solo M", "Release date": "2006-05-01"},{"Album": "The Pretty Toney Album", "City": "Staten Island", "Lyrics": ", I'm sittin' on Dino\r\nTone Stark, a poet's art, kiss the girls\r\nAnd bake them pies, clean up, some", "Artist": "Ghostface Killah", "Country": "USA", "Title": "Be This Way", "Longitude": "-74.144839", "County": "Richmond", "State": "New York", "Latitude": "40.576281", "Type": "Solo M", "Release date": "2004-04-20"},{"Album": "How to Be a Player soundtrack", "City": "Brooklyn", "Lyrics": ", what?\r\nWork niggas, like you one of the live niggas\r\nFly niggas, known to handle a pie nigga\r\nChick", "Artist": "Foxy Brown", "Country": "USA", "Title": "Big Bad Mamma", "Longitude": "-73.989872", "County": "Kings", "State": "New York", "Latitude": "40.692385", "Type": "Solo F", "Release date": "1997-08-05"},{"Album": "DS2", "City": "Atlanta", "Lyrics": "unemployed sellin' pot pies\r\nI serve the base, I serve the base\r\nI serve the base, I serve the base", "Artist": "Future", "Country": "USA", "Title": "I Serve The Base", "Longitude": "-84.41918", "County": "Fulton", "State": "Georgia", "Latitude": "33.77155", "Type": "Solo M", "Release date": "2015-07-17"},{"Album": "Fantasea", "City": "Harlem", "Lyrics": ", the jewels is bright\r\nAny way I move he likes\r\nHe is searching for cutie pie\r\nHe could scoop and sign", "Artist": "Azelia Banks", "Country": "USA", "Title": "Esta Noche", "Longitude": "-73.948372", "County": "Manhattan", "State": "New York", "Latitude": "40.809033", "Type": "Solo F", "Release date": "2012-07-11"},{"Album": "Yeeeah Baby", "City": "South Bronx", "Lyrics": "aha...\r\nUn cielo siempre nitido, que sirve de dosel\r\nY dan arrullos placidos, las olas a sus pies", "Artist": "Big Punisher", "Country": "USA", "Title": "100%", "Longitude": "-73.911789", "County": "Bronx", "State": "New York", "Latitude": "40.823318", "Type": "Solo M", "Release date": "2000-01-01"},{"Album": "8 Mile Soundtrack", "City": "Detroit", "Lyrics": "and stepped right in the next cipherBest believe somebody's paying the Pied PiperAll the pain inside", "Artist": "Eminem", "Country": "USA", "Title": "Lose Yourself", "Longitude": "-83.045833", "County": "Wayne", "State": "Michigan", "Latitude": "42.331389", "Type": "Solo M", "Release date": "2002-10-29"},{"Album": "Attack the Block", "City": "Park Slope", "Lyrics": "If dude is down to split the slice of pie... you like the master active fly\r\nUntil you hit it right\r\nHey", "Artist": "Talib Kweli", "Country": "USA", "Title": "Outstanding", "Longitude": "-73.977063", "County": "Kings", "State": "New York", "Latitude": "40.672404", "Type": "Solo M", "Release date": "2011-01-01"},{"Album": "Purp & Patron", "City": "Compton", "Lyrics": "was a project\r\nBut me need my project bitch got them pies flip\r\nNo patience, so I had to ride sick", "Artist": "Game", "Country": "USA", "Title": "LA Times", "Longitude": "-118.224329", "County": "Los Angeles", "State": "California", "Latitude": "33.895285", "Type": "Solo M", "Release date": "2011-01-24"},{"Album": "C4", "City": "Compton", "Lyrics": "be equivalent to about 15 pie\r\nI was 14 when I wrote a rhyme\r\nAll I seen was 13 ghosts every time I wrote", "Artist": "Kendrick Lamar", "Country": "USA", "Title": "Best Rapper Under 25", "Longitude": "-118.224329", "County": "Los Angeles", "State": "California", "Latitude": "33.895285", "Type": "Solo M", "Release date": "2009-01-01"},{"Album": "KRS-One", "City": "South Bronx", "Lyrics": ", \"peace/piece\" cause that's what we really want\r\nA piece of the pie that America flaunts\r\n\r\nReality", "Artist": "KRS-ONE", "Country": "USA", "Title": "R.E.A.L.I.T.Y.", "Longitude": "-73.91735", "County": "The Bronx", "State": "New York", "Latitude": "40.81621", "Type": "Solo M", "Release date": "1995-01-01"},{"Album": "Vol. 2... Hard Knock Life", "City": "Brooklyn", "Lyrics": "and cots\r\nTo King Size, dream machines,to green 5's\r\nI've seen pies,let the thing between my eyes", "Artist": "Jay Z", "Country": "USA", "Title": "Hard Knock Life (Ghetto Anthem)", "Longitude": "-73.989872", "County": "Kings", "State": "New York", "Latitude": "40.692385", "Type": "Solo M", "Release date": "1998-09-29"},{"Album": "Illmatic", "City": "Queensbridge", "Lyrics": "dropped out of Cooley High, gassed up by a cokehead cutie pie\r\nJungle survivor, fuck who's the live", "Artist": "Nas", "Country": "USA", "Title": "Memory Lane (Sittin' in Da Park)", "Longitude": "-73.937622", "County": "Queens", "State": "New York", "Latitude": "40.756279", "Type": "Solo M", "Release date": "1994-04-19"},{"Album": "Sucka Free (Mixtape)", "City": "Jamaica", "Lyrics": "them pies to them guys that say ay-yi-yii\r\nIm the head honcho\r\nGet work from papi\r\nAnd dead poncho put", "Artist": "Nicki Minaj", "Country": "USA", "Title": "Womp Womp", "Longitude": "-73.80842", "County": "Queens", "State": "New York", "Latitude": "40.701782", "Type": "Solo F", "Release date": "2008-01-01"},{"Album": "Record Single", "City": "Staten Island", "Lyrics": ", fronting in my key-lime pie Wallo's\r\nAnd I still got a half a ki indeed, Frank Lucas shit\r\nHid", "Artist": "Raekwon", "Country": "USA", "Title": "Antracit (Bore Balboa) (Ft. Ghostface Killah)", "Longitude": "-74.144839", "County": "Richmond", "State": "New York", "Latitude": "40.576281", "Type": "Solo M", "Release date": null},{"Album": "Shaolin vs. Wu-Tang", "City": "Staten Island", "Lyrics": ", it felt good to be made\r\nTurned murderer, extremely quick to upgrade\r\nBut he still baked pies", "Artist": "Raekwon", "Country": "USA", "Title": "Wu Crime", "Longitude": "-74.144839", "County": "Richmond", "State": "New York", "Latitude": "40.576281", "Type": "Solo M", "Release date": "2011-03-07"},{"Album": "Rich Forever", "City": "Carol City", "Lyrics": "or a bracelet\r\nNigga, you know I'm living fly\r\nFor the love of the game, I put a ribbon on the pie", "Artist": "Rick Ross", "Country": "USA", "Title": "Keys To The Crib", "Longitude": "-80.269920", "County": "Miami-Dade", "State": "Florida", "Latitude": "25.942121", "Type": "Solo M", "Release date": "2012-01-06"},{"Album": "Seven and Seven", "City": "Brooklyn", "Lyrics": "Supa Dupa as I\r\nFly, fly across the sky\r\nCut you like pie\r\nMe and, me and MC Lyte\r\nCuz you wack", "Artist": "MC Lyte", "Country": "USA", "Title": "In My Business", "Longitude": "-73.989872", "County": "Kings", "State": "New York", "Latitude": "40.692385", "Type": "Solo F", "Release date": "1998-01-01"},{"Album": "Life After Death ( french version)", "City": "Bedford\u2013Stuyvesant", "Lyrics": "a steak up\r\nGotta go gotta go, more pies to bake up, word up\r\n\r\nParoles r\u00c3\u00a9dig\u00c3\u00a9es et expliqu\u00c3\u00a9es par la communaut\u00c3\u00a9 RapGenius France", "Artist": "The Notorious B.I.G.", "Country": "USA", "Title": "Ten Crack Commandments (french version)", "Longitude": "-73.963796", "County": "Kings", "State": "New York", "Latitude": "40.692385", "Type": "Solo M", "Release date": "1997-03-25"},{"Album": "The Black Album", "City": "Brooklyn", "Lyrics": "verse, is like\r\nDevil's pie, save some dessert for us\r\n\r\n[Interlude]\r\nMan, I gotta get my soul right", "Artist": "Jay Z", "Country": "USA", "Title": "Lucifer", "Longitude": "-73.989872", "County": "Kings", "State": "New York", "Latitude": "40.692385", "Type": "Solo M", "Release date": "2003-11-14"},{"Album": "The Blueprint 2 The Gift The Curse", "City": "Brooklyn", "Lyrics": "niggas had learners permit\r\nWe bring the knives out\r\nOr we let them burners spit\r\nI bring them pies", "Artist": "Jay Z", "Country": "USA", "Title": "Some People Hate", "Longitude": "-73.989872", "County": "Kings", "State": "New York", "Latitude": "40.692385", "Type": "Solo M", "Release date": "2002-01-01"},{"Album": "S.D.E. (Sports Drugs and Entertainment)", "City": "Harlem", "Lyrics": ", tryin' a duck 'em, lyin' I love 'em\r\nHave em with a pie in their oven\r\nShit, to me, ya'll a dime", "Artist": "Camron", "Country": "USA", "Title": "Whatever", "Longitude": "-73.944862", "County": "Manhattan", "State": "New York", "Latitude": "40.806198", "Type": "Solo M", "Release date": "2000-01-01"},{"Album": "Record Single", "City": "Staten Island", "Lyrics": "in my key-lime pie Wallo's\r\nAnd I still got a half a ki indeed, Frank Lucas shit\r\nHid it in coffins", "Artist": "Ghostface Killah", "Country": "USA", "Title": "Antracit (Bore Balboa) (Ft. Raekwon)", "Longitude": "-74.144839", "County": "Richmond", "State": "New York", "Latitude": "40.576281", "Type": "Solo M", "Release date": null},{"Album": "American Gangster", "City": "Brooklyn", "Lyrics": "& Baileywith the pies\r\nNo matter how you slice itI'm your motherfuckin guy\r\nJust like a b-boy with 360 waves", "Artist": "Jay Z", "Country": "USA", "Title": "Blue Magic", "Longitude": "-73.989872", "County": "Kings", "State": "New York", "Latitude": "40.692385", "Type": "Solo M", "Release date": "2007-11-06"},{"Album": "Crime Pays", "City": "Harlem", "Lyrics": "pie flipper\r\nNever snitch, me, I'm in a bathrobe, fly slippers(I-80)\r\nLeft Chicago with good money", "Artist": "Camron", "Country": "USA", "Title": "Get It In Ohio", "Longitude": "-73.944862", "County": "Manhattan", "State": "New York", "Latitude": "40.806198", "Type": "Solo M", "Release date": "2009-05-12"},{"Album": "Purple Haze", "City": "Harlem", "Lyrics": "crazy\r\nIgot plans for you look in the sky baby\r\nFuck Sara Lee, Mrs. Smith;you the pie lady\r\nFly lady", "Artist": "Camron", "Country": "USA", "Title": "Soap Opera", "Longitude": "-73.944862", "County": "Manhattan", "State": "New York", "Latitude": "40.806198", "Type": "Solo M", "Release date": "2004-01-01"},{"Album": "Yeeeah Baby", "City": "South Bronx", "Lyrics": "aha...\r\nUn cielo siempre nitido, que sirve de dosel\r\nY dan arrullos placidos, las olas a sus pies", "Artist": "Big Punisher", "Country": "USA", "Title": "100%", "Longitude": "-73.911789", "County": "Bronx", "State": "New York", "Latitude": "40.823318", "Type": "Solo M", "Release date": "2000-01-01"},{"Album": "Prisoner of Conscious", "City": "Park Slope", "Lyrics": "If dude is down to split the slice of pie... you like the master active fly\r\nUntil you hit it right\r\nHey", "Artist": "Talib Kweli", "Country": "USA", "Title": "Outstanding", "Longitude": "-73.977063", "County": "Kings", "State": "New York", "Latitude": "40.672404", "Type": "Solo M", "Release date": "2013-05-07"},{"Album": "Untold Story: Volume II", "City": "Compton", "Lyrics": "more than flip pies\r\nGet money like them stick up guys\r\nThem \"Ocean 11\" licks got the young kid rich", "Artist": "Game", "Country": "USA", "Title": "The  Get Live", "Longitude": "-118.224329", "County": "Los Angeles", "State": "California", "Latitude": "33.895285", "Type": "Solo M", "Release date": "2005-07-26"},{"Album": "Self Made Vol.1", "City": "Carol City", "Lyrics": "Kicka\r\nYams on the stove I\u00e2\u20ac\u2122m fuckin your Favorite Strippa\r\nPies flyin out\r\nThem zips they grew", "Artist": "Rick Ross", "Country": "USA", "Title": "PillPacman", "Longitude": "-80.269920", "County": "Miami-Dade", "State": "Florida", "Latitude": "25.942121", "Type": "Solo M", "Release date": "2011-05-23"},{"Album": "Pink Friday", "City": "Jamaica", "Lyrics": "eat your face off\r\nYou niggas sweet as pie like this is a bake-off\r\nI love Nicki's curves, swing", "Artist": "Nicki Minaj", "Country": "USA", "Title": "Roman's Revenge 2.0", "Longitude": "-73.80842", "County": "Queens", "State": "New York", "Latitude": "40.701782", "Type": "Solo F", "Release date": "2010-11-19"},{"Album": "So Far Gone (EP)", "City": "Toronto", "Lyrics": "high\r\nI ain't cutting anybody slices outta my pie\r\nOutta this world though: I'm so sci-fi\r\nAnd I", "Artist": "Drake", "Country": "CAN", "Title": "I'm Goin In", "Longitude": "-79.4", "County": "", "State": "Ontario", "Latitude": "43.7", "Type": "Solo M", "Release date": "2009-09-15"},{"Album": "Crime Pays", "City": "Harlem", "Lyrics": "walt, walt who disseney\r\n\r\nYeah disseney, coke cakes, pot pies\r\nNo chicken in it cuco pollo be on fa", "Artist": "Camron", "Country": "USA", "Title": "Never Ever", "Longitude": "-73.944862", "County": "Manhattan", "State": "New York", "Latitude": "40.806198", "Type": "Solo M", "Release date": "2009-05-12"},{"Album": "Killa Season", "City": "Harlem", "Lyrics": "leave 'em 1st, 3rd\r\nStop lyin'? Lie for what?Steer a whip, drive it up\r\nSteer a brick, pie it up", "Artist": "Camron", "Country": "USA", "Title": "Get Ya Gun", "Longitude": "-73.944862", "County": "Manhattan", "State": "New York", "Latitude": "40.806198", "Type": "Solo M", "Release date": "2006-05-16"},{"Album": "Purple Haze", "City": "Harlem", "Lyrics": "at guys\r\nIt was, mainly slangin that caine by the pies\r\nAnd the, fiends was payin for dangerous high", "Artist": "Camron", "Country": "USA", "Title": "The Dope Man", "Longitude": "-73.944862", "County": "Manhattan", "State": "New York", "Latitude": "40.806198", "Type": "Solo M", "Release date": "2004-01-01"},{"Album": "Record Single", "City": "Brooklyn", "Lyrics": "of the year, what?\r\nWork niggas, like you one of the live niggas\r\nFly niggas, known to handle a pie", "Artist": "Foxy Brown", "Country": "USA", "Title": "Big Bad Mamma (Ft. Dru Hill)", "Longitude": "-73.989872", "County": "Kings", "State": "New York", "Latitude": "40.692385", "Type": "Solo F", "Release date": null},{"Album": "Record Single", "City": "Staten Island", "Lyrics": "Bubble baths, hash, zooted up, eyes closed\r\nSilk drawers, fronting in my key-lime pie Wallo's", "Artist": "Ghostface Killah", "Country": "USA", "Title": "Antracit", "Longitude": "-74.144839", "County": "Richmond", "State": "New York", "Latitude": "40.576281", "Type": "Solo M", "Release date": null},{"Album": "The Blueprint 2 The Gift The Curse", "City": "Brooklyn", "Lyrics": "the pie to keep the engine\r\nRunnin then I wake up in Martha's Vineyard\r\nSt. Bart's this year, I think I'm", "Artist": "Jay Z", "Country": "USA", "Title": "All Around the World", "Longitude": "-73.989872", "County": "Kings", "State": "New York", "Latitude": "40.692385", "Type": "Solo M", "Release date": "2002-01-01"},{"Album": "Broke With Expensive Taste", "City": "Harlem", "Lyrics": ", the jewels is bright\r\nAny way I move he likes\r\nHe is searching for cutie pie\r\nHe could scoop and sign", "Artist": "Azelia Banks", "Country": "USA", "Title": "Esta Noche", "Longitude": "-73.948372", "County": "Manhattan", "State": "New York", "Latitude": "40.809033", "Type": "Solo F", "Release date": "2014-01-01"},{"Album": "Guess Who's Back", "City": "Queens", "Lyrics": ",\" Nelly singin my wrist blingin what?\r\nI'm waiting on this nigga Wise, three loaves for two pies\r\nSon he", "Artist": "50 Cent", "Country": "USA", "Title": "50 Bars", "Longitude": "-73.829959", "County": "Queens", "State": "New York", "Latitude": "40.713985", "Type": "Solo M", "Release date": "2002-01-01"},{"Album": "Attack the Block", "City": "Park Slope", "Lyrics": "a piece of devil's pie, I'm...\r\n\r\n[Hook]\r\n\r\n[Verse 3: Talib]\r\nA dialectic\r\nAttract cofollowings like", "Artist": "Talib Kweli", "Country": "USA", "Title": "Congregation", "Longitude": "-73.977063", "County": "Kings", "State": "New York", "Latitude": "40.672404", "Type": "Solo M", "Release date": "2011-01-01"},{"Album": "Record Single", "City": "Park Slope", "Lyrics": "of the pie\r\nYou love to eat and get high\r\nWe decieve when we lie, and we keeping it fly\r\nWhen, the people", "Artist": "Talib Kweli", "Country": "USA", "Title": "Get By prod. by Kanye West", "Longitude": "-73.977063", "County": "Kings", "State": "New York", "Latitude": "40.672404", "Type": "Solo M", "Release date": null},{"Album": "Record Single", "City": "Bedford\u2013Stuyvesant", "Lyrics": "hook a steak up\r\nGotta go gotta go, more pies to bake up, word up", "Artist": "The Notorious B.I.G.", "Country": "USA", "Title": "Ten Crack Commandments prod. by DJ Premier", "Longitude": "-73.963796", "County": "Kings", "State": "New York", "Latitude": "40.692385", "Type": "Solo M", "Release date": null},{"Album": "Summer Knights", "City": "Bedford\u2013Stuyvesant", "Lyrics": "of the pie and it's finally sweet\r\nBut reverse on the speech, cause it ain't always sunny", "Artist": "Joey BADA$$", "Country": "USA", "Title": "Reign", "Longitude": "-73.963796", "County": "Kings", "State": "New York", "Latitude": "40.692385", "Type": "Solo M", "Release date": "2013-01-01"},{"Album": "Exit 13", "City": "Queens", "Lyrics": "need surprise, variety\r\nIs the spice of life, so I eat you up\r\nLike apple pie, I like your flow", "Artist": "LL Cool J", "Country": "USA", "Title": "I Fall in Love", "Longitude": "-73.829959", "County": "Queens", "State": "New York", "Latitude": "40.713985", "Type": "Solo M", "Release date": "2008-01-01"},{"Album": "Teflon Don", "City": "Carol City", "Lyrics": "in the sky if you ride for the wealth\r\nPeas on the block, pies on the shelf\r\nIf I ain't in the back", "Artist": "Rick Ross", "Country": "USA", "Title": "Maybach Music III", "Longitude": "-80.269920", "County": "Miami-Dade", "State": "Florida", "Latitude": "25.942121", "Type": "Solo M", "Release date": "2010-07-20"},{"Album": "Ego Trippin'", "City": "Long Beach", "Lyrics": ", pick a piece of American pie\r\nWhat kind of car do you drive?\r\nSuicide doors on the passenger side", "Artist": "Snoop Dogg", "Country": "USA", "Title": "Whateva U Do", "Longitude": "-118.195556", "County": "Los Angeles", "State": "California", "Latitude": "33.768333", "Type": "Solo M", "Release date": "2008-03-07"},{"Album": "Supa Dupa Fly", "City": "Portsmouth", "Lyrics": "get high\r\nThey want a piece of this pie\r\nBut I'm just too damn chill for them\r\nNo way I flip my", "Artist": "Missy Elliott", "Country": "USA", "Title": "They Don't Wanna Fuck Wit Me", "Longitude": "-76.297715", "County": "Portsmouth", "State": "Virginia", "Latitude": "36.832642", "Type": "Solo F", "Release date": "1997-01-01"},{"Album": "Under Construction", "City": "Portsmouth", "Lyrics": "monthly\r\nYes I, like \"American Pie\"\r\nTell 'em M-I-crooked letter-crooked letter-Y\r\n\r\n[Hook]\r\n\r\n[Missy", "Artist": "Missy Elliott", "Country": "USA", "Title": "Bring the Pain", "Longitude": "-76.297715", "County": "Portsmouth", "State": "Virginia", "Latitude": "36.832642", "Type": "Solo F", "Release date": "2002-01-01"},{"Album": "Hip Hop is Dead", "City": "Queensbridge", "Lyrics": "reign dies\r\nPitch, sling pies,and niggas they sing, \"why\"?\r\nGuess they ain't strong enough to handle", "Artist": "Nas", "Country": "USA", "Title": "Black Republican", "Longitude": "-73.937622", "County": "Queens", "State": "New York", "Latitude": "40.756279", "Type": "Solo M", "Release date": "2006-12-15"},{"Album": "The Corruptor soundtrack/Money, Cash, Hoes CD-5", "City": "Brooklyn", "Lyrics": "I'm dead wit the famDuck cops. Shake feds wit the famFlip them pies wit my hustlas (uh huh)\r\nRide", "Artist": "Jay Z", "Country": "USA", "Title": "More Money, More Cash, More Hoes (Remix)", "Longitude": "-73.989872", "County": "Kings", "State": "New York", "Latitude": "40.692385", "Type": "Solo M", "Release date": "1999-03-09"},{"Album": "Bootleg of the Bootleg EP", "City": "Brooklyn", "Lyrics": "to stop the leak in my eye\r\nI cry for the weak who have pride, but won't see a piece of the pie\r\nWho", "Artist": "Jean Grae", "Country": "USA", "Title": "Code Red", "Longitude": "-73.989872", "County": "Kings", "State": "New York", "Latitude": "40.692385", "Type": "Solo F", "Release date": "2003-01-01"},{"Album": "The Slim Shady EP", "City": "Detroit", "Lyrics": "escaping\r\nI want the whole pie, I won't be denied Nathan\r\nMaybe I need my head inside straightened", "Artist": "Eminem", "Country": "USA", "Title": "Murder Murder", "Longitude": "-83.045833", "County": "Wayne", "State": "Michigan", "Latitude": "42.331389", "Type": "Solo M", "Release date": "1997-12-06"},{"Album": "Come Home With Me", "City": "Harlem", "Lyrics": "wit' them bricks\r\nBetter yet the bakery I got pies and cakes\r\nNigga think doublin' is turnin' 5 to 8", "Artist": "Camron", "Country": "USA", "Title": "The ROC (Just Fire)", "Longitude": "-73.944862", "County": "Manhattan", "State": "New York", "Latitude": "40.806198", "Type": "Solo M", "Release date": "2002-05-14"},{"Album": "Record Single", "City": "Harlem", "Lyrics": ",Calogero\r\nRide the whip, 5 on the hip,live with the pies got 9 for the flip\r\nHigh with a bitch, she cry", "Artist": "Camron", "Country": "USA", "Title": "I Am Your Leader (Nicki Minaj) (Ft. Rick Ross) prod. by Hit-Boy", "Longitude": "-73.944862", "County": "Manhattan", "State": "New York", "Latitude": "40.806198", "Type": "Solo M", "Release date": null},{"Album": "At.Long.Last.A$AP", "City": "Harlem", "Lyrics": "to survive and get a piece of the pie\r\nIs to agree with a lot or just believe a facade bitch\r\nAnd I'll", "Artist": "A$AP Rocky", "Country": "USA", "Title": "Everyday", "Longitude": "-73.944862", "County": "Manhattan", "State": "New York", "Latitude": "40.806198", "Type": "Solo M", "Release date": "2015-05-26"},{"Album": "2014 Forest Hills Drive", "City": "Fayetteville", "Lyrics": "ain't aim too high\r\nThen you aim too low\r\n\r\n[Verse 3]\r\nI ain't serve no pies, I ain't slang no dope", "Artist": "J. Cole", "Country": "USA", "Title": "January 28th", "Longitude": "-78.878056", "County": "Cumberland", "State": "North Carolina", "Latitude": "35.0525", "Type": "Solo M", "Release date": "2014-01-01"},{"Album": "The Come Up Mixtape Vol. 1", "City": "Fayetteville", "Lyrics": "a piece for yourself, but they hogging up the whole pie\r\nFiegns in the street so high off", "Artist": "J. Cole", "Country": "USA", "Title": "Can't Cry", "Longitude": "-78.878056", "County": "Cumberland", "State": "North Carolina", "Latitude": "35.0525", "Type": "Solo M", "Release date": "2008-05-03"},{"Album": "Record Single", "City": "Long Beach", "Lyrics": "Nigga shut your pie hole, everybody know you do suck\r\nThis ain't a reality show, hungry niggas do touch", "Artist": "Snoop Dogg", "Country": "USA", "Title": "Anotha Killin' (Brotha Lynch Hung) (Ft. Tha Dogg Pound) prod. by Brotha Lynch Hung & Seven", "Longitude": "-118.195556", "County": "Los Angeles", "State": "California", "Latitude": "33.768333", "Type": "Solo M", "Release date": null},{"Album": "Players", "City": "East Oakland", "Lyrics": "realWorking that suckers everyday striving to be hardStacked with bean pies in the back", "Artist": "Too Short", "Country": "USA", "Title": "Don't Ever Stop", "Longitude": "-122.2591", "County": "Oakland", "State": "California", "Latitude": "37.8039", "Type": "Solo M", "Release date": "1985-05-27"},{"Album": "When Disaster Strikes...", "City": "Uniondale", "Lyrics": "in treats like giant sweet potato pies\r\nWise, sword shift and I spit on flies\r\nKilling all the tips from", "Artist": "Busta Rhymes", "Country": "USA", "Title": "We Could Take It Outside", "Longitude": "-73.593544", "County": "Nassau", "State": "New York", "Latitude": "40.717935", "Type": "Solo M", "Release date": "1997-09-16"},{"Album": "S.D.E. (Sports Drugs and Entertainment)", "City": "Harlem", "Lyrics": "in a heavy case like the type that pepsi make\r\nWho you fake got pies likebettybake\r\nTop balla in every state", "Artist": "Camron", "Country": "USA", "Title": "What Means the World to You", "Longitude": "-73.944862", "County": "Manhattan", "State": "New York", "Latitude": "40.806198", "Type": "Solo M", "Release date": "2000-01-01"},{"Album": "Hidden Darts: Special Edition", "City": "Staten Island", "Lyrics": "to recoup\r\nThat two point five million'll slice a Sicillian\r\nNext year we want the whole fuckin pie we", "Artist": "Ghostface Killah", "Country": "USA", "Title": "Return of Theodore Unit", "Longitude": "-74.144839", "County": "Richmond", "State": "New York", "Latitude": "40.576281", "Type": "Solo M", "Release date": "2007-03-13"},{"Album": "The Marshall Mathers LP 2 (Spanish Version)", "City": "Detroit", "Lyrics": "es tu tema, a menos que tengas mugre entre los dedos del pie...\r\n\r\n[Puente + Estribillo", "Artist": "Eminem", "Country": "USA", "Title": "Berzerk (Spanish Version)", "Longitude": "-83.045833", "County": "Wayne", "State": "Michigan", "Latitude": "42.331389", "Type": "Solo M", "Release date": "2013-11-05"},{"Album": "DS2", "City": "Atlanta", "Lyrics": "prayin' five times a day to catch a plug\r\nA few bean pies stashed in the trunk\r\nShoot dice all day", "Artist": "Future", "Country": "USA", "Title": "Trap Niggas", "Longitude": "-84.41918", "County": "Fulton", "State": "Georgia", "Latitude": "33.77155", "Type": "Solo M", "Release date": "2015-07-17"},{"Album": "Still I Rise", "City": "Marin City", "Lyrics": "more green; Gods ain't tryin to be trapped\r\nOn no block slangin no rocks like bean pies\r\nBrainstorm", "Artist": "2Pac", "Country": "USA", "Title": "Black Jesuz", "Longitude": "-122.516579", "County": "Marin", "State": "California", "Latitude": "37.87199", "Type": "Solo M", "Release date": "1999-12-14"},{"Album": "Power of the Dollar", "City": "Queens", "Lyrics": "a generous guy\r\nTake 'em off or die\r\nMan, we hurtin' 'round here, ain't nobody slingin' pies\r\nLook", "Artist": "50 Cent", "Country": "USA", "Title": "The Good Die Young", "Longitude": "-73.829959", "County": "Queens", "State": "New York", "Latitude": "40.713985", "Type": "Solo M", "Release date": "2000-07-04"},{"Album": "Curtain Call: The Hits", "City": "Detroit", "Lyrics": "cypher\r\nBest believe somebody's paying the Pied Piper\r\nAll the pain inside amplified by the\r\nFact", "Artist": "Eminem", "Country": "USA", "Title": "Lose Yourself", "Longitude": "-83.045833", "County": "Wayne", "State": "Michigan", "Latitude": "42.331389", "Type": "Solo M", "Release date": "2005-12-06"},{"Album": "Untold Story", "City": "Compton", "Lyrics": "how to do more than flip pies\r\nGet money like them stick up guys\r\nThem \"Ocean 11\" licks got", "Artist": "Game", "Country": "USA", "Title": "Neighborhood Supa Starz", "Longitude": "-118.224329", "County": "Los Angeles", "State": "California", "Latitude": "33.895285", "Type": "Solo M", "Release date": "2004-10-05"},{"Album": "good kid, m.A.A.d city", "City": "Compton", "Lyrics": "high\r\nNights like this, I could fuck up a pie\r\nStill be straight (still be straight)\r\nFall back, bitch", "Artist": "Kendrick Lamar", "Country": "USA", "Title": "Bitch, Don't Kill My Vibe Remix", "Longitude": "-118.224329", "County": "Los Angeles", "State": "California", "Latitude": "33.895285", "Type": "Solo M", "Release date": "2012-10-22"},{"Album": "Record Single", "City": "Queensbridge", "Lyrics": "many hands in your pie\r\nSeventy thirty, the nigga you work for work for me\r\nBottom line\r\n\r\n[Hook 2", "Artist": "Nas", "Country": "USA", "Title": "Analyze This", "Longitude": "-73.937622", "County": "Queens", "State": "New York", "Latitude": "40.756279", "Type": "Solo M", "Release date": null},{"Album": "Street's Disciple", "City": "Queensbridge", "Lyrics": "2: Nas]\r\nYou Homey The Clown, bowtie, apple pie, Bo Jangles\r\nBut we love Bo Jangles, we know what he", "Artist": "Nas", "Country": "USA", "Title": "These Are Our Heroes", "Longitude": "-73.937622", "County": "Queens", "State": "New York", "Latitude": "40.756279", "Type": "Solo M", "Release date": "2005-01-01"},{"Album": "Tha Blue Carpet Treatment", "City": "Long Beach", "Lyrics": "it's kinda' dry here\r\nYeah, I only gotta' couple of pies left that'll last me through the year\r\nYolla, (ewwww", "Artist": "Snoop Dogg", "Country": "USA", "Title": "Candy (Drippin' Like Water)", "Longitude": "-118.195556", "County": "Los Angeles", "State": "California", "Latitude": "33.768333", "Type": "Solo M", "Release date": "2006-11-21"},{"Album": "Dedication 2", "City": "New Orleans", "Lyrics": "me the Pied Piper man\r\nStill get the coke through the pipeline, then off to the piper stem\r\nAnd I'm", "Artist": "Lil Wayne", "Country": "USA", "Title": "No Other", "Longitude": "-90.077714", "County": "Orleans", "State": "Louisiana", "Latitude": "29.95369", "Type": "Solo M", "Release date": "2006-05-01"},{"Album": "Life After Death", "City": "Bedford\u2013Stuyvesant", "Lyrics": "married to the game but never have a kid with it\r\nAdvice from the wise, slice the pies\r\nToo many", "Artist": "The Notorious B.I.G.", "Country": "USA", "Title": "Last Day", "Longitude": "-73.963796", "County": "Kings", "State": "New York", "Latitude": "40.692385", "Type": "Solo M", "Release date": "1997-01-01"},{"Album": "Cellar Door Terminus Ut Exordium", "City": "Flatbush", "Lyrics": "that\u00e2\u20ac\u2122s inside\r\nMotherfuck one slice I'ma slaughter the pie\r\nCame for the light but maneuver the night", "Artist": "The Underachievers", "Country": "USA", "Title": "Caprice", "Longitude": "-73.962083", "County": "Kings", "State": "New York", "Latitude": "40.640417", "Type": "Group M", "Release date": "2014-01-01"},{"Album": "Evermore The Art Of Duality", "City": "Flatbush", "Lyrics": "! bitch can't kill my vibe, I'm on an everlasting high\r\nWant peace of mind and piece of pie", "Artist": "The Underachievers", "Country": "USA", "Title": "Allusions", "Longitude": "-73.962083", "County": "Kings", "State": "New York", "Latitude": "40.640417", "Type": "Group M", "Release date": "2015-01-01"},{"Album": "Record Single", "City": "Compton", "Lyrics": "I cop rides for my bitches\r\nDollar menu fries, apple pies, other bitches\r\nI drop a freestyle", "Artist": "YG", "Country": "USA", "Title": "My Nigga (Remix)", "Longitude": "-118.224329", "County": "Los Angeles", "State": "California", "Latitude": "33.895285", "Type": "Solo M", "Release date": null},{"Album": "S.D.E. (Sports Drugs and Entertainment)", "City": "Harlem", "Lyrics": ", gon ride in the five\r\nKeep pies in our eyes, stay high til we die\r\nYou wanna kill me come and do it I", "Artist": "Camron", "Country": "USA", "Title": "Come Kill Me", "Longitude": "-73.944862", "County": "Manhattan", "State": "New York", "Latitude": "40.806198", "Type": "Solo M", "Release date": "2000-01-01"},{"Album": "S.D.E. (Sports Drugs and Entertainment)", "City": "Harlem", "Lyrics": "45th and Lennox\r\n3 piece suit bean pies the final call\r\nGun up in the spinal cord\r\nI got no time", "Artist": "Camron", "Country": "USA", "Title": "Where I'm From", "Longitude": "-73.944862", "County": "Manhattan", "State": "New York", "Latitude": "40.806198", "Type": "Solo M", "Release date": "2000-01-01"},{"Album": "Record Single", "City": "Chicago", "Lyrics": "go HAM, nigga, finna go in\r\nNigga you get it when pigs fly\r\nWhen Yeezy fake,Devil\u00e2\u20ac\u2122s pie\r\nPiece", "Artist": "Kanye West", "Country": "USA", "Title": "Amen (Pusha T) (Ft. Young Jeezy) prod. by Shawty Redd", "Longitude": "-87.632409", "County": "Cook", "State": "Illinois", "Latitude": "41.88415", "Type": "Solo M", "Release date": null},{"Album": "The Best of Both Worlds", "City": "Brooklyn", "Lyrics": "honies to my suite like I'm, the pied piper\r\nHave they ass, hittin high notes, like they Mariah\r\nGet", "Artist": "Jay Z", "Country": "USA", "Title": "Shorty", "Longitude": "-73.989872", "County": "Kings", "State": "New York", "Latitude": "40.692385", "Type": "Solo M", "Release date": "2002-03-26"},{"Album": "Queensbridge: The Album", "City": "Queensbridge", "Lyrics": "size\r\nA bully to little guys\r\nWith chocolate miks and apple pies\r\nThe playground was mine\r\nI stayed", "Artist": "Nas", "Country": "USA", "Title": "Kids in Da P.J.'s", "Longitude": "-73.937622", "County": "Queens", "State": "New York", "Latitude": "40.756279", "Type": "Solo M", "Release date": "2000-11-21"},{"Album": "Pink Friday", "City": "Jamaica", "Lyrics": ", like a dungeon dragon\r\n[Lil Wayne]I eat your face off\r\nYou niggas sweet as pie like this is a bake", "Artist": "Nicki Minaj", "Country": "USA", "Title": "Roman's Revenge (Remix)", "Longitude": "-73.80842", "County": "Queens", "State": "New York", "Latitude": "40.701782", "Type": "Solo F", "Release date": "2010-11-19"},{"Album": "Trilla", "City": "Carol City", "Lyrics": "of the pie fo five six\r\nAs I throw my dice in the sky\r\nHead crack nigga\r\nBread stack nigga", "Artist": "Rick Ross", "Country": "USA", "Title": "This Me", "Longitude": "-80.269920", "County": "Miami-Dade", "State": "Florida", "Latitude": "25.942121", "Type": "Solo M", "Release date": "2008-03-11"},{"Album": "Christmas On Death Row", "City": "Long Beach", "Lyrics": "the sky, hella pies and cakes gettin' baked\r\nTo be ate after everything gone off your plate", "Artist": "Snoop Dogg", "Country": "USA", "Title": "Santa Claus Goes Straight to the Ghetto", "Longitude": "-118.195556", "County": "Los Angeles", "State": "California", "Latitude": "33.768333", "Type": "Solo M", "Release date": "1996-12-05"},{"Album": "Record Single", "City": "Roosevelt", "Lyrics": "fiction with my man the live lifer\r\nA pied piper holler a rhyme, a dollar and a dime\r\nDo his thing", "Artist": "MF DOOM", "Country": "USA", "Title": "Doomsday (Ft. Pebbles the Invisible Girl)", "Longitude": "-73.585556", "County": "Nassau", "State": "New York", "Latitude": "40.679167", "Type": "Solo M", "Release date": null},{"Album": "Record Single", "City": "Portsmouth", "Lyrics": "all like a bean pie\r\nTakin 'em, burnin 'em down like I'm Left Eye\r\n(YEAH!) Futuristic\r\nY'all can pack", "Artist": "Missy Elliott", "Country": "USA", "Title": "9th Inning (Ft. Timbaland)", "Longitude": "-76.297715", "County": "Portsmouth", "State": "Virginia", "Latitude": "36.832642", "Type": "Solo F", "Release date": null},{"Album": "This is Not a Test!", "City": "Portsmouth", "Lyrics": "of this good pie\r\nWhy you don't fuck me like before (yeah)\r\n\r\nI like the first time, I like the first time", "Artist": "Missy Elliott", "Country": "USA", "Title": "Is This Our Last Time", "Longitude": "-76.297715", "County": "Portsmouth", "State": "Virginia", "Latitude": "36.832642", "Type": "Solo F", "Release date": "2003-11-25"},{"Album": "You Know What it Is Volume 3", "City": "Compton", "Lyrics": "to ride wit' em'\r\nSlice up the pie wit' em'\r\nGot kicked out the group\r\nCause I wasn't gon' die wit", "Artist": "Game", "Country": "USA", "Title": "Down", "Longitude": "-118.224329", "County": "Los Angeles", "State": "California", "Latitude": "33.895285", "Type": "Solo M", "Release date": "2006-01-01"},{"Album": "Vol. 2... Hard Knock Life", "City": "Brooklyn", "Lyrics": ", don't try to switch up your style\r\nY'all niggas is pumpkin pie, and that's plain as I\r\nMuch better", "Artist": "Jay Z", "Country": "USA", "Title": "Ride or Die", "Longitude": "-73.989872", "County": "Kings", "State": "New York", "Latitude": "40.692385", "Type": "Solo M", "Release date": "1998-09-29"},{"Album": "Record Single", "City": "Brooklyn", "Lyrics": "Leavin' you full like breakfast\r\n\r\n[Meat Pie]:\r\nYo would you look at these two dickheads out here act", "Artist": "Jean Grae", "Country": "USA", "Title": "Dynamic (Remix) (Pumpkinhead) (Ft. Makin' Records Family)", "Longitude": "-73.989872", "County": "Kings", "State": "New York", "Latitude": "40.692385", "Type": "Solo F", "Release date": null},{"Album": "What A Time To Be Alive", "City": "Toronto", "Lyrics": "that it never happened?\r\nWe just supposed to get the pie and then split it in two?\r\nSupposed to forget", "Artist": "Drake", "Country": "CAN", "Title": "30 for 30 Freestyle", "Longitude": "-79.4", "County": "", "State": "Ontario", "Latitude": "43.7", "Type": "Solo M", "Release date": "2015-01-01"},{"Album": "Supreme Clientele", "City": "Staten Island", "Lyrics": "at, Wu til they bury me\r\nNever tell a lie, like George with the cherry tree\r\nNow it's cherry pie", "Artist": "Ghostface Killah", "Country": "USA", "Title": "Buck 50", "Longitude": "-74.144839", "County": "Richmond", "State": "New York", "Latitude": "40.576281", "Type": "Solo M", "Release date": "2000-02-08"},{"Album": "Relapse", "City": "Detroit", "Lyrics": "as pie, and as simple as cake\r\nDre, get on the mic and make 'em tremble and shake\r\n\r\n[Verse 3c - Dr", "Artist": "Eminem", "Country": "USA", "Title": "Old Time's Sake", "Longitude": "-83.045833", "County": "Wayne", "State": "Michigan", "Latitude": "42.331389", "Type": "Solo M", "Release date": "2009-05-19"},{"Album": "E.L.E. (Extinction Level Event): The Final World Front", "City": "Uniondale", "Lyrics": "still double masking\r\nAnd get the gambit and eat super pie niggas\r\nAll over the track with a kick", "Artist": "Busta Rhymes", "Country": "USA", "Title": "Iz They Wildin' Wit' Us & Getting' Rowdy Wit' Us", "Longitude": "-73.593544", "County": "Nassau", "State": "New York", "Latitude": "40.717935", "Type": "Solo M", "Release date": "1998-01-01"},{"Album": "Don Cartagena", "City": "South Bronx", "Lyrics": "jiggable pie\r\nLet this lyrical guy scuba dive right between your thighs\r\nI satisfy like a Snickers", "Artist": "Big Punisher", "Country": "USA", "Title": "Bet Ya Man Can't (Triz)", "Longitude": "-73.911789", "County": "Bronx", "State": "New York", "Latitude": "40.823318", "Type": "Solo M", "Release date": "1998-01-01"},{"Album": "Record Single", "City": "South Bronx", "Lyrics": "with big [balls] that bend it\r\nNow let's get, physical, my jiggable pie\r\nLet this lyrical guy scuba dive", "Artist": "Big Punisher", "Country": "USA", "Title": "Bet Ya Man Can't (Triz) (Fat Joe) (Ft. Cuban Link & Triple Seis) prod. by JAO", "Longitude": "-73.911789", "County": "Bronx", "State": "New York", "Latitude": "40.823318", "Type": "Solo M", "Release date": null},{"Album": "Record Single", "City": "Detroit", "Lyrics": "But I kept rhyming and stepped right in the next cypher\r\nBest believe somebody's paying the Pied", "Artist": "Eminem", "Country": "USA", "Title": "Lose Yourself (Ft. Jeff Bass) prod. by Jeff Bass & Luis Resto", "Longitude": "-83.045833", "County": "Wayne", "State": "Michigan", "Latitude": "42.331389", "Type": "Solo M", "Release date": null},{"Album": "Right About Now: The Official Sucka Free Mix CD", "City": "Park Slope", "Lyrics": "of guns in they head like the Pied Piper\r\nWhen I bust they start to disappear like my lighters\r\n'Cuz", "Artist": "Talib Kweli", "Country": "USA", "Title": "Two And Two", "Longitude": "-73.977063", "County": "Kings", "State": "New York", "Latitude": "40.672404", "Type": "Solo M", "Release date": "2005-11-22"},{"Album": "Record Single", "City": "Portsmouth", "Lyrics": "high\r\nTil you see my apple pie\r\nTell me if you like, tell me if you like *rrrrrrrooooof!*\r\nAhhh", "Artist": "Missy Elliott", "Country": "USA", "Title": "Can We (SWV)", "Longitude": "-76.297715", "County": "Portsmouth", "State": "Virginia", "Latitude": "36.832642", "Type": "Solo F", "Release date": null},{"Album": "It Was Written", "City": "Queensbridge", "Lyrics": "spark a New York night\r\nRossi and Martini sipping, Sergio Tacchini flipping mad pies\r\nLow price, I", "Artist": "Nas", "Country": "USA", "Title": "Take It In Blood", "Longitude": "-73.937622", "County": "Queens", "State": "New York", "Latitude": "40.756279", "Type": "Solo M", "Release date": "1996-01-01"},{"Album": "Shaolin vs. Wu-Tang", "City": "Staten Island", "Lyrics": "Bubble baths, hash, zooted up, eyes closed\r\nSilk drawers, fronting in my key-lime pie Wallo's\r\nAnd I", "Artist": "Raekwon", "Country": "USA", "Title": "Molasses", "Longitude": "-74.144839", "County": "Richmond", "State": "New York", "Latitude": "40.576281", "Type": "Solo M", "Release date": "2011-03-07"},{"Album": "Record Single", "City": "Queensbridge", "Lyrics": "time, too hot, too many hands in your pie\r\nSeventy thirty, the nigga you work for work for me", "Artist": "Nas", "Country": "USA", "Title": "Analyze This (Jay Z) (Ft. Lord Tariq)", "Longitude": "-73.937622", "County": "Queens", "State": "New York", "Latitude": "40.756279", "Type": "Solo M", "Release date": null},{"Album": "Record Single", "City": "Detroit", "Lyrics": "their G spot\r\nMy grandma sold pies and I ain't talkin' 'bout no key lime\r\nJunkies at the side door", "Artist": "DeJ Loaf", "Country": "USA", "Title": "Detroit VS Everybody (Remix)", "Longitude": "-83.045833", "County": "Wayne", "State": "Michigan", "Latitude": "42.331389", "Type": "Solo F", "Release date": null},{"Album": "Purple Haze", "City": "Harlem", "Lyrics": "guys, hate to keep waistin ya lives\r\nLove to keep bakin new pies, strapin the scrapes off the side", "Artist": "Camron", "Country": "USA", "Title": "More Gangsta Music", "Longitude": "-73.944862", "County": "Manhattan", "State": "New York", "Latitude": "40.806198", "Type": "Solo M", "Release date": "2004-01-01"},{"Album": "Be", "City": "Chicago", "Lyrics": "500,000\r\nBe-nign, be you, be mom's mean pie, be little black sambo With bad hair\r\nBe aware of Willie", "Artist": "Common", "Country": "USA", "Title": "It's Your World (Part 1 & 2)", "Longitude": "-87.632409", "County": "Cook", "State": "Illinois", "Latitude": "41.88415", "Type": "Solo M", "Release date": "2005-05-24"},{"Album": "Record Single", "City": "Staten Island", "Lyrics": "really high, the vivid laser eye guy\r\nJump in the Harley ride, Clarks I freak a lemon pie\r\nI'm bout", "Artist": "Ghostface Killah", "Country": "USA", "Title": "Nutmeg (Ft. RZA) prod. by Black Moes-Art", "Longitude": "-74.144839", "County": "Richmond", "State": "New York", "Latitude": "40.576281", "Type": "Solo M", "Release date": null},{"Album": "Supreme Clientele", "City": "Staten Island", "Lyrics": "guy\r\nJump in the Harley ride, Clarks I freak a lemon pie\r\nI'm bout it, bout it - Lord forgive me, Ms", "Artist": "Ghostface Killah", "Country": "USA", "Title": "Nutmeg", "Longitude": "-74.144839", "County": "Richmond", "State": "New York", "Latitude": "40.576281", "Type": "Solo M", "Release date": "2000-02-08"},{"Album": "Record Single", "City": "Brooklyn", "Lyrics": "or die like me\r\nOr go see the board then and frown like me\r\nGot niggas takin' pictures throwin' pies", "Artist": "Jay Z", "Country": "USA", "Title": "4 My Niggaz (Lil' Cease) (Ft. Blake C & Mr. Bristal)", "Longitude": "-73.989872", "County": "Kings", "State": "New York", "Latitude": "40.692385", "Type": "Solo M", "Release date": null},{"Album": "Vol. 2... Hard Knock Life", "City": "Brooklyn", "Lyrics": "of the drought I flipped pies my niggas\r\nI did joints with Mary J. Blige my niggas\r\nI've eluded", "Artist": "Jay Z", "Country": "USA", "Title": "If I Should Die", "Longitude": "-73.989872", "County": "Kings", "State": "New York", "Latitude": "40.692385", "Type": "Solo M", "Release date": "1998-09-29"},{"Album": "Wonderful World Of Cease A Leo", "City": "Brooklyn", "Lyrics": "then and frown like me\r\nGot niggas takin' pictures throwin' pies on me\r\nMotherfuckers' All Eyez", "Artist": "Jay Z", "Country": "USA", "Title": "4 My Niggaz", "Longitude": "-73.989872", "County": "Kings", "State": "New York", "Latitude": "40.692385", "Type": "Solo M", "Release date": "1999-01-01"},{"Album": "Power of the Dollar", "City": "Queens", "Lyrics": "Wallace to Baby Wise, don't be surprised\r\nOf how freely I throw out names of guys who dealt with pies", "Artist": "50 Cent", "Country": "USA", "Title": "Ghetto Qu'ran (Forgive Me)", "Longitude": "-73.829959", "County": "Queens", "State": "New York", "Latitude": "40.713985", "Type": "Solo M", "Release date": "2000-07-04"},{"Album": "50 Cent is the Future", "City": "Queens", "Lyrics": ")\r\nNo champagne, just strictly rum nigga (uh huh)\r\nNo pies, no cake, couldn't get a crum nigga (crum nigga", "Artist": "50 Cent", "Country": "USA", "Title": "Call Me", "Longitude": "-73.829959", "County": "Queens", "State": "New York", "Latitude": "40.713985", "Type": "Solo M", "Release date": "2002-01-01"},{"Album": "Guess Who's Back", "City": "Queens", "Lyrics": "Wallace to Baby Wise, don't be surprised\r\nOf how freely I throw out names of guys who dealt with pies", "Artist": "50 Cent", "Country": "USA", "Title": "Ghetto Qu'ran (Forgive Me)", "Longitude": "-73.829959", "County": "Queens", "State": "New York", "Latitude": "40.713985", "Type": "Solo M", "Release date": "2002-01-01"},{"Album": "Right About Now", "City": "Park Slope", "Lyrics": "be sounding like liarsGot visions of guns in they head like the Pied PiperWhen I bust they start", "Artist": "Talib Kweli", "Country": "USA", "Title": "Two & Two", "Longitude": "-73.977063", "County": "Kings", "State": "New York", "Latitude": "40.672404", "Type": "Solo M", "Release date": "2005-11-22"},{"Album": "California Republic", "City": "Compton", "Lyrics": "South Beach, fuck with Ross and Timbo\r\nThe world is cherry pie, and we can slice it up like Kimbo", "Artist": "Game", "Country": "USA", "Title": "Cats and Dogs", "Longitude": "-118.224329", "County": "Los Angeles", "State": "California", "Latitude": "33.895285", "Type": "Solo M", "Release date": "2012-04-05"},{"Album": "Born Again", "City": "Bedford\u2013Stuyvesant", "Lyrics": "Some pied pipers, squeezin life out y'all\r\nIt's all out war, be all wild as all outdoor\r\nIf a coward", "Artist": "The Notorious B.I.G.", "Country": "USA", "Title": "If I Should Die Before I Wake", "Longitude": "-73.963796", "County": "Kings", "State": "New York", "Latitude": "40.692385", "Type": "Solo M", "Release date": "1999-01-01"},{"Album": "Notorious Soundtrack", "City": "Bedford\u2013Stuyvesant", "Lyrics": "fake it\r\nI say go buy a pie, the girl would go bake it\r\nMakin a record was important to me\r\nMore", "Artist": "The Notorious B.I.G.", "Country": "USA", "Title": "Love No Ho (Demo)", "Longitude": "-73.963796", "County": "Kings", "State": "New York", "Latitude": "40.692385", "Type": "Solo M", "Release date": "2009-01-13"},{"Album": "Unreleased", "City": "Bedford\u2013Stuyvesant", "Lyrics": "that got me on the floor\r\nI know that she loved me, I couldn't ever fake it\r\nI say: \"Go buy a pie", "Artist": "The Notorious B.I.G.", "Country": "USA", "Title": "Love No Hoe", "Longitude": "-73.963796", "County": "Kings", "State": "New York", "Latitude": "40.692385", "Type": "Solo M", "Release date": null},{"Album": "I Am", "City": "Queensbridge", "Lyrics": "who cut pies, but none of them can touch Nas\r\nThug ones to those soft as baby shit\r\nShe been", "Artist": "Nas", "Country": "USA", "Title": "K-I-S-S-I-N-G", "Longitude": "-73.937622", "County": "Queens", "State": "New York", "Latitude": "40.756279", "Type": "Solo M", "Release date": "2013-01-01"},{"Album": "Operation: Doomsday", "City": "Roosevelt", "Lyrics": "lifer\r\nA pied piper holler a rhyme, a dollar and a dime\r\nDo his thing, ring around the white collar", "Artist": "MF DOOM", "Country": "USA", "Title": "Doomsday", "Longitude": "-73.585556", "County": "Nassau", "State": "New York", "Latitude": "40.679167", "Type": "Solo M", "Release date": "1999-01-01"},{"Album": "9th Inning - Single", "City": "Portsmouth", "Lyrics": "pie\r\nTakin 'em, burnin 'em down like I'm Left Eye\r\n(YEAH!) Futuristic\r\nY'all can pack it up, I done", "Artist": "Missy Elliott", "Country": "USA", "Title": "9th Inning", "Longitude": "-76.297715", "County": "Portsmouth", "State": "Virginia", "Latitude": "36.832642", "Type": "Solo F", "Release date": "2012-09-18"},{"Album": "Players", "City": "East Oakland", "Lyrics": "that rap realer way real\r\nWorking that suckers everyday striving to be hard\r\nStacked with bean pies", "Artist": "Too Short", "Country": "USA", "Title": "Don't Even Stop", "Longitude": "-122.2591", "County": "Oakland", "State": "California", "Latitude": "37.8039", "Type": "Solo M", "Release date": "1985-05-27"},{"Album": "Record Single", "City": "Brooklyn", "Lyrics": "take the day, flossing icecycles\r\nWho am I to trust, Pablo, he copped the pie from us\r\nYour wifeys", "Artist": "Foxy Brown", "Country": "USA", "Title": "Desperados 2", "Longitude": "-73.989872", "County": "Kings", "State": "New York", "Latitude": "40.692385", "Type": "Solo F", "Release date": null},{"Album": "Lyricist Lounge - Volume One", "City": "Park Slope", "Lyrics": "soulY'all control the core cipherYou know we drop this, and got emcees following like the Pied PiperYou", "Artist": "Talib Kweli", "Country": "USA", "Title": "Outside the Lounge", "Longitude": "-73.977063", "County": "Kings", "State": "New York", "Latitude": "40.672404", "Type": "Solo M", "Release date": "1998-05-05"},{"Album": "Record Single", "City": "Staten Island", "Lyrics": "'till you taste the devil's pie\r\nThey say his laugh sounds like an angel when he cries\r\nWhat better", "Artist": "Raekwon", "Country": "USA", "Title": "Tick, Tock (Pusha T) (Ft. Danny Brown & Joell Ortiz) prod. by Frank Dukes & S1", "Longitude": "-74.144839", "County": "Richmond", "State": "New York", "Latitude": "40.576281", "Type": "Solo M", "Release date": null},{"Album": "Record Single", "City": "Queensbridge", "Lyrics": ", no cash, no cars\r\nNo jail bars Jigga, no pies, no case\r\nJust Hawaiian shirts, hanging with little", "Artist": "Nas", "Country": "USA", "Title": "Ether prod. by Ron Browz", "Longitude": "-73.937622", "County": "Queens", "State": "New York", "Latitude": "40.756279", "Type": "Solo M", "Release date": null},{"Album": "Record Single", "City": "Uniondale", "Lyrics": ", as sweet as pumpkin pie\r\nCiroc and Sprite on a private flight, bitch I been tight since Guiding Light", "Artist": "Busta Rhymes", "Country": "USA", "Title": "Look At Me Now (Chris Brown) (Ft. Lil Wayne) prod. by Afrojack, Diplo & Free School", "Longitude": "-73.593544", "County": "Nassau", "State": "New York", "Latitude": "40.717935", "Type": "Solo M", "Release date": null},{"Album": "Trouble Man: Heavy Is the Head", "City": "Atlanta", "Lyrics": "January, July, fly to Dubai\r\nA broke nigga telling me 'bout how I'm dividing the pies\r\nLike a blind", "Artist": "T.I.", "Country": "USA", "Title": "Sorry", "Longitude": "-84.41918", "County": "Fulton", "State": "Georgia", "Latitude": "33.77155", "Type": "Solo M", "Release date": "2012-12-18"},{"Album": "Tha Carter II", "City": "New Orleans", "Lyrics": "it taste, pie to your face, you a bitch nigga\r\nAll pussy, stop comin\u00e2\u20ac\u2122 out your lips nigga\r\nI", "Artist": "Lil Wayne", "Country": "USA", "Title": "Hit Em Up", "Longitude": "-90.077714", "County": "Orleans", "State": "Louisiana", "Latitude": "29.95369", "Type": "Solo M", "Release date": "2005-12-06"},{"Album": "Record Single", "City": "Atlanta", "Lyrics": "A broke nigga telling me 'bout how I'm dividing the pies\r\nLike a blind nigga telling me it's an eye", "Artist": "Andre 3000", "Country": "USA", "Title": "Sorry (T.I.) (Ft. Stacy Barthe) prod. by Jazze Pha, Po Johns & Sir Clef", "Longitude": "-84.296548", "County": "DeKalb", "State": "Georgia", "Latitude": "33.775746", "Type": "Solo M", "Release date": null},{"Album": "The Dynasty: Roc La Familia", "City": "Brooklyn", "Lyrics": "for some pies and a couple of things\r\nTil the bullet.. ah, motherfuckers!! Yeah..", "Artist": "Jay Z", "Country": "USA", "Title": "Streets is Talking", "Longitude": "-73.989872", "County": "Kings", "State": "New York", "Latitude": "40.692385", "Type": "Solo M", "Release date": "2000-01-01"},{"Album": "Late Registration", "City": "Chicago", "Lyrics": "a piece of the pie and\r\nYou can ask George or Regina\r\nThe whole West Side I explore with the Beemer", "Artist": "Kanye West", "Country": "USA", "Title": "Gone", "Longitude": "-87.632409", "County": "Cook", "State": "Illinois", "Latitude": "41.88415", "Type": "Solo M", "Release date": "2005-01-01"},{"Album": "Vol. 3... Life and Times of S. Carter", "City": "Brooklyn", "Lyrics": "in the kitchen balloon in the pie\r\nY'all from whom to buy\r\nY'all niggas know if y'all cross Mac\r\nY'all soon", "Artist": "Jay Z", "Country": "USA", "Title": "Pop 4 Roc", "Longitude": "-73.989872", "County": "Kings", "State": "New York", "Latitude": "40.692385", "Type": "Solo M", "Release date": "1999-12-28"},{"Album": "Record Single", "City": "Harlem", "Lyrics": "And that ain't even a lie, please believe me\r\nGave Weezie a piece of the pie and\r\nYou can ask George", "Artist": "Camron", "Country": "USA", "Title": "Gone (Kanye West) (Ft. Consequence) prod. by Kanye West", "Longitude": "-73.944862", "County": "Manhattan", "State": "New York", "Latitude": "40.806198", "Type": "Solo M", "Release date": null},{"Album": "More Fish", "City": "Staten Island", "Lyrics": ", that the four-five\r\nYo Ghost, don't even do it, I got some more pie\r\n\r\n[Outro: Ghostface Killah", "Artist": "Ghostface Killah", "Country": "USA", "Title": "Ghost is Back", "Longitude": "-74.144839", "County": "Richmond", "State": "New York", "Latitude": "40.576281", "Type": "Solo M", "Release date": "2006-01-01"},{"Album": "Gettin' It (Album Number Ten)", "City": "East Oakland", "Lyrics": "to that\r\nExpensive broad I seen you with, that little cutie-pie\r\nThat little\r\nBaby girl?\r\nSir Charles: Oh you", "Artist": "Too Short", "Country": "USA", "Title": "Pimp Me", "Longitude": "-122.2591", "County": "Oakland", "State": "California", "Latitude": "37.8039", "Type": "Solo M", "Release date": "1996-01-01"},{"Album": "Stillmatic", "City": "Queensbridge", "Lyrics": "No jail bars Jigga, no pies, no case\r\nJust Hawaiian shirts, hanging with little Chase\r\nYou a fan", "Artist": "Nas", "Country": "USA", "Title": "Ether", "Longitude": "-73.937622", "County": "Queens", "State": "New York", "Latitude": "40.756279", "Type": "Solo M", "Release date": "2001-01-01"},{"Album": "Record Single", "City": "Queens", "Lyrics": "was through, I wiped the sweat from my eyes\r\nWhen to the kitchen and got some sweet potato pies\r\nTina", "Artist": "LL Cool J", "Country": "USA", "Title": "Big Ole Butt prod. by Dwayne Simon", "Longitude": "-73.829959", "County": "Queens", "State": "New York", "Latitude": "40.713985", "Type": "Solo M", "Release date": null},{"Album": "In My Lifetime, Vol. 1", "City": "Brooklyn", "Lyrics": "of the few people\r\nThat I can trust\r\nAnd the fact of the matterI slang\r\nThese pies for us\r\nYou put", "Artist": "Jay Z", "Country": "USA", "Title": "You Must Love Me", "Longitude": "-73.989872", "County": "Kings", "State": "New York", "Latitude": "40.692385", "Type": "Solo M", "Release date": "1997-11-04"},{"Album": "Still I Rise", "City": "Marin City", "Lyrics": "the pie with the homie,ball at the same time\r\nAny nigga splippin', fall at the same time\r\nWe all", "Artist": "2Pac", "Country": "USA", "Title": "Secretz of War", "Longitude": "-122.516579", "County": "Marin", "State": "California", "Latitude": "37.87199", "Type": "Solo M", "Release date": "1999-12-14"},{"Album": "I'm Good", "City": "Chicago", "Lyrics": "daaah\r\n\r\n[Talib Kweli]\r\nSome people try\r\nSome people try just to get by\r\nFor my piece of the pie\r\nYou", "Artist": "Kanye West", "Country": "USA", "Title": "Get By (Remix)", "Longitude": "-87.632409", "County": "Cook", "State": "Illinois", "Latitude": "41.88415", "Type": "Solo M", "Release date": "2007-09-11"},{"Album": "Walking With a Panther", "City": "Queens", "Lyrics": "the sweat from my eyes\r\nWhen to the kitchen and got some sweet potato pies\r\nTina busted in my house while I", "Artist": "LL Cool J", "Country": "USA", "Title": "Big Ole Butt", "Longitude": "-73.829959", "County": "Queens", "State": "New York", "Latitude": "40.713985", "Type": "Solo M", "Release date": "1989-01-01"},{"Album": "Record Single", "City": "Atlanta", "Lyrics": "have a piece of my pie! I'm the shit!\r\nI'm that guy! I'm the shit!\r\nI don't know why! But I'm", "Artist": "Andre 3000", "Country": "USA", "Title": "DoYaThing (Gorillaz) (Ft. James Murphy)", "Longitude": "-84.296548", "County": "DeKalb", "State": "Georgia", "Latitude": "33.775746", "Type": "Solo M", "Release date": null},{"Album": "Record Single", "City": "Bedford\u2013Stuyvesant", "Lyrics": "that, it's that boom bap flow they need back\r\nWhat I gotta do for a piece of pie though? I need", "Artist": "Joey BADA$$", "Country": "USA", "Title": "Blackkk Krown (Capital STEEZ) (Ft. CJ Fly, Dessy Hinds, Dirty Sanchez & Rokamouth)", "Longitude": "-73.963796", "County": "Kings", "State": "New York", "Latitude": "40.692385", "Type": "Solo M", "Release date": null},{"Album": "Record Single", "City": "Harlem", "Lyrics": "palier\r\nVos promos d'rats et d'rateliers le temps l'\u00c3\u00a9tat [\u00c3\u00a7a ras-le-pied?]\r\nT'inqui\u00c3\u00a8te qu'il", "Artist": "Camron", "Country": "USA", "Title": "#25 T\u00c3\u0192\u00c2\u00a9l\u00c3\u0192\u00c2\u00a9 Rap", "Longitude": "-73.944862", "County": "Manhattan", "State": "New York", "Latitude": "40.806198", "Type": "Solo M", "Release date": null},{"Album": "Record Single", "City": "New Orleans", "Lyrics": "'til I die\r\nMuhfucka bust one in your eye\r\nFlip pies, I used to do that shit in like '95\r\nBut I'ma", "Artist": "Lil Wayne", "Country": "USA", "Title": "10,000 Bars", "Longitude": "-90.077714", "County": "Orleans", "State": "Louisiana", "Latitude": "29.95369", "Type": "Solo M", "Release date": null}]