[{"Album": "Shaolin vs. Wu-Tang", "City": "Staten Island", "Lyrics": "with Swahilian dough\r\nGuaranteed we dose that, in the beast like pizzas\r\nAll I know is reefer and street", "Artist": "Raekwon", "Country": "USA", "Title": "Silver Rings", "Longitude": "-74.144839", "County": "Richmond", "State": "New York", "Latitude": "40.576281", "Type": "Solo M", "Release date": "2011-03-07"},{"Album": "California Republic", "City": "Compton", "Lyrics": "pizzas\r\nWhen it come to all this money we divide it like pizza\r\nWhen it comes to fuckin' hoes we gon", "Artist": "Game", "Country": "USA", "Title": "The Logo", "Longitude": "-118.224329", "County": "Los Angeles", "State": "California", "Latitude": "33.895285", "Type": "Solo M", "Release date": "2012-04-05"},{"Album": "American Gangster", "City": "Brooklyn", "Lyrics": "Argentina\r\nI mobbed the Beamer\r\nTook trips abroad, got mobbed in Sardina\r\nIn Ibiza I had pizza", "Artist": "Jay Z", "Country": "USA", "Title": "American Gangster", "Longitude": "-73.989872", "County": "Kings", "State": "New York", "Latitude": "40.692385", "Type": "Solo M", "Release date": "2007-11-06"},{"Album": "Born Like This", "City": "Staten Island", "Lyrics": ", who's he see in the lobby\r\nPeace\r\nPeace, pizza man\r\nChange a hundred\r\nStopped and looked\r\nWhoops, left", "Artist": "Ghostface Killah", "Country": "USA", "Title": "Angelz", "Longitude": "-74.144839", "County": "Richmond", "State": "New York", "Latitude": "40.576281", "Type": "Solo M", "Release date": "2009-01-01"},{"Album": "Born Like This", "City": "Roosevelt", "Lyrics": "he see in the lobby\r\nPeace\r\nPeace, pizza man\r\nChange a hundred\r\nStopped and looked\r\nWhoops, left", "Artist": "MF DOOM", "Country": "USA", "Title": "Angelz", "Longitude": "-73.585556", "County": "Nassau", "State": "New York", "Latitude": "40.679167", "Type": "Solo M", "Release date": "2009-01-01"},{"Album": "Sorry 4 The Wait", "City": "New Orleans", "Lyrics": "in the morning Eat that pussy like cold pizza\r\nHater ass niggas be balla blocking, Acting like some", "Artist": "Lil Wayne", "Country": "USA", "Title": "Racks on Racks", "Longitude": "-90.077714", "County": "Orleans", "State": "Louisiana", "Latitude": "29.95369", "Type": "Solo M", "Release date": "2011-07-13"},{"Album": "Record Single", "City": "Roosevelt", "Lyrics": "Feeling woozy, no uzi, who's he see in the lobby\r\nPeace\r\nPeace, pizza man\r\nChange a hundred\r\nStopped", "Artist": "MF DOOM", "Country": "USA", "Title": "Angelz (Ft. Ghostface Killah)", "Longitude": "-73.585556", "County": "Nassau", "State": "New York", "Latitude": "40.679167", "Type": "Solo M", "Release date": null},{"Album": "Pink Friday", "City": "Jamaica", "Lyrics": "no muthafuckin pizza pie\r\nCaus' I keep a bad bitch, booty big and the waist thin\r\nSeen his little weiner, but we", "Artist": "Nicki Minaj", "Country": "USA", "Title": "Muny", "Longitude": "-73.80842", "County": "Queens", "State": "New York", "Latitude": "40.701782", "Type": "Solo F", "Release date": "2010-11-19"},{"Album": "Record Single", "City": "Staten Island", "Lyrics": "Feeling woozy, no uzi, who's he see in the lobby\r\nPeace\r\nPeace, pizza man\r\nChange a hundred\r\nStopped", "Artist": "Ghostface Killah", "Country": "USA", "Title": "Angelz (MF Doom) prod. by MF Doom", "Longitude": "-74.144839", "County": "Richmond", "State": "New York", "Latitude": "40.576281", "Type": "Solo M", "Release date": null},{"Album": "Relapse", "City": "Detroit", "Lyrics": "inside my refrigerator freezer\r\nBe used as extra topping then next time I make a pizza\r\nHow many", "Artist": "Eminem", "Country": "USA", "Title": "Must Be the Ganja", "Longitude": "-83.045833", "County": "Wayne", "State": "Michigan", "Latitude": "42.331389", "Type": "Solo M", "Release date": "2009-05-19"},{"Album": "Jesus Piece", "City": "Compton", "Lyrics": "of the murder dog\r\nI dress up like the pizza man, load the desert eagle and\r\nI don't just hit ya team", "Artist": "Game", "Country": "USA", "Title": "Scared Now", "Longitude": "-118.224329", "County": "Los Angeles", "State": "California", "Latitude": "33.895285", "Type": "Solo M", "Release date": "2012-12-11"},{"Album": "Before I Self Destruct", "City": "Queens", "Lyrics": "own a sneaker\r\nI had her eatin lobster, now she eatin pizza\r\nI think about Easter when I think about", "Artist": "50 Cent", "Country": "USA", "Title": "Do You Think About Me", "Longitude": "-73.829959", "County": "Queens", "State": "New York", "Latitude": "40.713985", "Type": "Solo M", "Release date": "2009-11-09"},{"Album": "Sunday Service", "City": "Compton", "Lyrics": "it blow the speaker\r\nFrom eating Reese's Pieces to pulling guns out\r\nFor that Little Caesar's Pizza", "Artist": "Game", "Country": "USA", "Title": "Blood of Christ", "Longitude": "-118.224329", "County": "Los Angeles", "State": "California", "Latitude": "33.895285", "Type": "Solo M", "Release date": "2012-01-01"},{"Album": "Paranormal Activity", "City": "New Orleans", "Lyrics": "these hoes neither\r\nWake up early in the morning\r\nEat that pussy like cold pizza\r\nHater ass niggas", "Artist": "Lil Wayne", "Country": "USA", "Title": "Lite It Up", "Longitude": "-90.077714", "County": "Orleans", "State": "Louisiana", "Latitude": "29.95369", "Type": "Solo M", "Release date": "2011-11-01"},{"Album": "Jesus Piece", "City": "Compton", "Lyrics": "it blow the speaker\r\nFrom eating Reese's Pieces to pulling guns out\r\nFor that Little Caesar's Pizza", "Artist": "Game", "Country": "USA", "Title": "Blood of Christ", "Longitude": "-118.224329", "County": "Los Angeles", "State": "California", "Latitude": "33.895285", "Type": "Solo M", "Release date": "2012-12-11"},{"Album": "MM.. Food", "City": "Roosevelt", "Lyrics": "as an old fart\r\nStudy how to eat to die, by the pizza guy\r\nNo he's not too fly to skeet in a skezzers", "Artist": "MF DOOM", "Country": "USA", "Title": "One Beer", "Longitude": "-73.585556", "County": "Nassau", "State": "New York", "Latitude": "40.679167", "Type": "Solo M", "Release date": "2004-11-16"},{"Album": "Record Single", "City": "Wilson", "Lyrics": "earned myself another breather\r\nI'll skip the souffle and probably just order some pizza\r\nMy neighbor", "Artist": "Rapsody", "Country": "USA", "Title": "A Song About Nothing prod. by Eric G", "Longitude": "-77.923611", "County": "Wilson", "State": "North Carolina", "Latitude": "35.731111", "Type": "Solo F", "Release date": null},{"Album": "She Got Game", "City": "Wilson", "Lyrics": "another breather\r\nI'll skip the souffle and probably just order some pizza\r\nMy neighbor two doors down son", "Artist": "Rapsody", "Country": "USA", "Title": "A Song About Nothing", "Longitude": "-77.923611", "County": "Wilson", "State": "North Carolina", "Latitude": "35.731111", "Type": "Solo F", "Release date": "2013-01-01"},{"Album": "So Far Gone", "City": "Toronto", "Lyrics": "boy got fly without Peter Pan\r\nAnd my delivery just got me buzzing like the pizza man\r\nIn-person I am", "Artist": "Drake", "Country": "CAN", "Title": "Successful", "Longitude": "-79.4", "County": "", "State": "Ontario", "Latitude": "43.7", "Type": "Solo M", "Release date": "2009-09-15"},{"Album": "2014 Forest Hills Drive", "City": "Fayetteville", "Lyrics": "great\r\nOrder Domino's and she take off all her clothes\r\nNigga you know how it goes, make the pizza man", "Artist": "J. Cole", "Country": "USA", "Title": "G.O.M.D.", "Longitude": "-78.878056", "County": "Cumberland", "State": "North Carolina", "Latitude": "35.0525", "Type": "Solo M", "Release date": "2014-01-01"},{"Album": "Dark Sky Paradise", "City": "Detroit", "Lyrics": "to Little Caesar's\r\nPiece of pizza with Tanisha now I'm with a Boniqua\r\nShe finna blow at that\r\nI got", "Artist": "Big Sean", "Country": "USA", "Title": "All Your Fault", "Longitude": "-83.045833", "County": "Wayne", "State": "Michigan", "Latitude": "42.331389", "Type": "Solo M", "Release date": "2015-02-24"},{"Album": "The R.E.D. Album", "City": "Compton", "Lyrics": "Latifah\r\nI love your ass like Milhouse loved Lisa\r\nI love your ass like the Ninja Turtles love pizza", "Artist": "Game", "Country": "USA", "Title": "Good Girls Go Bad", "Longitude": "-118.224329", "County": "Los Angeles", "State": "California", "Latitude": "33.895285", "Type": "Solo M", "Release date": "2011-08-19"},{"Album": "Record Single", "City": "Fayetteville", "Lyrics": "your momma ain't at home cause she got a second job\r\nDelivering pizzas you think she out here", "Artist": "J. Cole", "Country": "USA", "Title": "Rich Niggaz", "Longitude": "-78.878056", "County": "Cumberland", "State": "North Carolina", "Latitude": "35.0525", "Type": "Solo M", "Release date": null},{"Album": "Capital Punishment", "City": "South Bronx", "Lyrics": "Fuck it, I'd rather sell reefer than do pizza delivery\r\nThat's how the city be, everybody gettin", "Artist": "Big Punisher", "Country": "USA", "Title": "Capital Punishment", "Longitude": "-73.911789", "County": "Bronx", "State": "New York", "Latitude": "40.823318", "Type": "Solo M", "Release date": "1998-01-01"},{"Album": "Record Single", "City": "South Bronx", "Lyrics": "' off negativity\r\nFuck it, I'd rather sell reefer than do pizza delivery\r\nThat's how the city", "Artist": "Big Punisher", "Country": "USA", "Title": "Capital Punishment (Ft. Prospect)", "Longitude": "-73.911789", "County": "Bronx", "State": "New York", "Latitude": "40.823318", "Type": "Solo M", "Release date": null},{"Album": "Blood on Chef's Apron", "City": "Staten Island", "Lyrics": "there\r\nEverybody young as fuck, in the pizza shop, What up\r\nBrooklyn niggas rap with a cuffle\r\nCall", "Artist": "Raekwon", "Country": "USA", "Title": "Flashback Memories", "Longitude": "-74.144839", "County": "Richmond", "State": "New York", "Latitude": "40.576281", "Type": "Solo M", "Release date": "2009-05-06"},{"Album": "Love Don't Cost a Thing Soundtrack", "City": "Uniondale", "Lyrics": "to meet ya\r\nYou be lucky if you even get a slice of pizza, from me (c'mon)\r\nBefore you ever try", "Artist": "Busta Rhymes", "Country": "USA", "Title": "Shorty", "Longitude": "-73.593544", "County": "Nassau", "State": "New York", "Latitude": "40.717935", "Type": "Solo M", "Release date": "2003-12-09"},{"Album": "So Far Gone (EP)", "City": "Toronto", "Lyrics": "boy got fly without Peter Pan\r\nAnd my delivery just got me buzzing like the pizza man\r\nIn-person I am", "Artist": "Drake", "Country": "CAN", "Title": "Successful", "Longitude": "-79.4", "County": "", "State": "Ontario", "Latitude": "43.7", "Type": "Solo M", "Release date": "2009-09-15"},{"Album": "Born Sinner", "City": "Fayetteville", "Lyrics": "your momma ain't at home cause she got a second job\r\nDelivering pizzas you think she out here", "Artist": "J. Cole", "Country": "USA", "Title": "Rich Niggaz", "Longitude": "-78.878056", "County": "Cumberland", "State": "North Carolina", "Latitude": "35.0525", "Type": "Solo M", "Release date": "2013-01-01"},{"Album": "She Got Game", "City": "Wilson", "Lyrics": "another breather\r\nI'll skip the souffle and probably just order some pizza\r\nMy neighbor two doors down", "Artist": "Rapsody", "Country": "USA", "Title": "A Song About Nothing", "Longitude": "-77.923611", "County": "Wilson", "State": "North Carolina", "Latitude": "35.731111", "Type": "Solo F", "Release date": "2013-09-17"},{"Album": "Bulletproof Wallets", "City": "Staten Island", "Lyrics": "catch her for a pizza\r\n\r\n[Superb]\r\nYou can be as good as the rest of 'em or as bad as the worst\r\nSo", "Artist": "Ghostface Killah", "Country": "USA", "Title": "Flowers", "Longitude": "-74.144839", "County": "Richmond", "State": "New York", "Latitude": "40.576281", "Type": "Solo M", "Release date": "2001-11-13"},{"Album": "Better Dayz", "City": "Marin City", "Lyrics": "of pizza with my last dime\r\nCan't explain, just what attracts me to this dirty game\r\nGold chains, some", "Artist": "2Pac", "Country": "USA", "Title": "My Block (Remix)", "Longitude": "-122.516579", "County": "Marin", "State": "California", "Latitude": "37.87199", "Type": "Solo M", "Release date": "2002-01-01"},{"Album": "Walking With a Panther", "City": "Queens", "Lyrics": "than a piping hot pizza\r\nWhat's your name, she said my tag says Lisa\r\nI said, O.K., you're smart", "Artist": "LL Cool J", "Country": "USA", "Title": "Big Ole Butt", "Longitude": "-73.829959", "County": "Queens", "State": "New York", "Latitude": "40.713985", "Type": "Solo M", "Release date": "1989-01-01"},{"Album": "Dedication 2", "City": "New Orleans", "Lyrics": "that dick good and make a mean cheese pizza\r\nOne time it was so good, I told her to order one mo'\r\nShe", "Artist": "Lil Wayne", "Country": "USA", "Title": "Walk it Off", "Longitude": "-90.077714", "County": "Orleans", "State": "Louisiana", "Latitude": "29.95369", "Type": "Solo M", "Release date": "2006-05-01"},{"Album": "Can't Stay Away", "City": "East Oakland", "Lyrics": "bomb-ass head\r\nBitch said her name was Theresa\r\nAll on my dick like cheese on pizza\r\nIn the A-T-L", "Artist": "Too Short", "Country": "USA", "Title": "More Freaky Tales", "Longitude": "-122.2591", "County": "Oakland", "State": "California", "Latitude": "37.8039", "Type": "Solo M", "Release date": "1999-07-13"},{"Album": "The Slim Shady LP", "City": "Detroit", "Lyrics": "to a Faygo and a slice of pizza\r\nBut I'm broke as fuck and I don't get paid 'til the first of next month", "Artist": "Eminem", "Country": "USA", "Title": "As the World Turns", "Longitude": "-83.045833", "County": "Wayne", "State": "Michigan", "Latitude": "42.331389", "Type": "Solo M", "Release date": "1999-02-23"},{"Album": "Record Single", "City": "Queens", "Lyrics": "like you're tastier than a piping hot pizza\r\nWhat's your name, she said my tag says Lisa\r\nI said", "Artist": "LL Cool J", "Country": "USA", "Title": "Big Ole Butt prod. by Dwayne Simon", "Longitude": "-73.829959", "County": "Queens", "State": "New York", "Latitude": "40.713985", "Type": "Solo M", "Release date": null}]