[{"Album": "Playtime is Over (Mixtape)", "City": "Jamaica", "Lyrics": "named Tiki Diamond\r\nYeah, chicken noodle bitches\r\nLike a pack of Ramen\r\nThey had it out for me", "Artist": "Nicki Minaj", "Country": "USA", "Title": "Hood Story", "Longitude": "-73.80842", "County": "Queens", "State": "New York", "Latitude": "40.701782", "Type": "Solo F", "Release date": "2007-01-01"},{"Album": "Record Single", "City": "Roosevelt", "Lyrics": "ramen' you ain\u00e2\u20ac\u2122t used to\r\nKeep it neutral to scruple and tell \u00e2\u20ac\u02dcem no beef like noodles!!\r\n\r\nKeep", "Artist": "MF DOOM", "Country": "USA", "Title": "World Domination (Joey BADA$$)", "Longitude": "-73.585556", "County": "Nassau", "State": "New York", "Latitude": "40.679167", "Type": "Solo M", "Release date": null},{"Album": "Pink Friday: Roman Reloaded - The Re-Up", "City": "Jamaica", "Lyrics": "approval?\r\nPretty soon, they'll be back up on them Ramen Noodles\r\nB-B-B-bible, Queen is the title", "Artist": "Nicki Minaj", "Country": "USA", "Title": "Freedom", "Longitude": "-73.80842", "County": "Queens", "State": "New York", "Latitude": "40.701782", "Type": "Solo F", "Release date": "2012-11-19"},{"Album": "The Re-Up", "City": "Jamaica", "Lyrics": "approval?\r\nPretty soon, they'll be back up on them Ramen Noodles\r\nB-B-B-bible, Queen is the title", "Artist": "Nicki Minaj", "Country": "USA", "Title": "Freedom", "Longitude": "-73.80842", "County": "Queens", "State": "New York", "Latitude": "40.701782", "Type": "Solo F", "Release date": "2012-11-19"},{"Album": "Finally Famous Vol. 3", "City": "Detroit", "Lyrics": "it\r\nWith only top ramen noodles up in my cabinet\r\nNow I'm killing this motherfucker, beating", "Artist": "Big Sean", "Country": "USA", "Title": "Money and Sex", "Longitude": "-83.045833", "County": "Wayne", "State": "Michigan", "Latitude": "42.331389", "Type": "Solo M", "Release date": "2010-10-20"},{"Album": "The Come Up Mixtape Vol. 1", "City": "Fayetteville", "Lyrics": "'\r\nAnd just think I was raised on ramen -- chicken noodle soup\r\nNow I'm filet mignon-in'\r\nI promised my", "Artist": "J. Cole", "Country": "USA", "Title": "The Come Up", "Longitude": "-78.878056", "County": "Cumberland", "State": "North Carolina", "Latitude": "35.0525", "Type": "Solo M", "Release date": "2008-05-03"},{"Album": "Finally Famous Vol. 3", "City": "Detroit", "Lyrics": "from not having to having itFrom dreaming to grabing itWith only top ramen noodles up in my cabinetNow", "Artist": "Big Sean", "Country": "USA", "Title": "Money and Sex", "Longitude": "-83.045833", "County": "Wayne", "State": "Michigan", "Latitude": "42.331389", "Type": "Solo M", "Release date": "2010-08-31"},{"Album": "Dreams Worth More than Money", "City": "Philadelphia", "Lyrics": "Ramen\r\nOodles n'Oodles, when you're hungry them killers'll do you\r\nAnd when you're gettin", "Artist": "Meek Mill", "Country": "USA", "Title": "Stand Up", "Longitude": "-75.166667", "County": "Philadelphia", "State": "Pennsylvania", "Latitude": "39.95", "Type": "Solo M", "Release date": "2015-01-01"},{"Album": "The Red Room", "City": "Compton", "Lyrics": "testify, peace to Common\r\nBut Game keep it hood like weaves and Top Ramen\r\nNever stop coming", "Artist": "Game", "Country": "USA", "Title": "It Must Be Me", "Longitude": "-118.224329", "County": "Los Angeles", "State": "California", "Latitude": "33.895285", "Type": "Solo M", "Release date": "2010-04-26"},{"Album": "good kid, m.A.A.d city", "City": "Compton", "Lyrics": "Top Ramen, ya bish\r\nPark the car then we start rhyming, ya bish\r\nThe only thing we had to free our", "Artist": "Kendrick Lamar", "Country": "USA", "Title": "Money Trees", "Longitude": "-118.224329", "County": "Los Angeles", "State": "California", "Latitude": "33.895285", "Type": "Solo M", "Release date": "2012-10-22"},{"Album": "Gutter Rainbows", "City": "Park Slope", "Lyrics": "Mystik Journeymen introduced me to Top Ramen\r\nOn the bus, Kanye West would never stop rhyming\r\nAin't", "Artist": "Talib Kweli", "Country": "USA", "Title": "Friends & Family", "Longitude": "-73.977063", "County": "Kings", "State": "New York", "Latitude": "40.672404", "Type": "Solo M", "Release date": "2011-01-25"},{"Album": "Record Single", "City": "Compton", "Lyrics": "Raymond Let it Burn came on\r\nHot sauce all in our Top Ramen, ya bish\r\nPark the car then we start rhyming", "Artist": "Kendrick Lamar", "Country": "USA", "Title": "Money Trees (Ft. Anna Wise & Jay Rock) prod. by DJ Dahi", "Longitude": "-118.224329", "County": "Los Angeles", "State": "California", "Latitude": "33.895285", "Type": "Solo M", "Release date": null},{"Album": "Caught Up soundtrack", "City": "Long Beach", "Lyrics": ") bouncin (swervin)Blaze up a whole ounce and get the ramen with the cotton candy\r\nChorus: SnoopYeah", "Artist": "Snoop Dogg", "Country": "USA", "Title": "Ride On/Caught Up", "Longitude": "-118.195556", "County": "Los Angeles", "State": "California", "Latitude": "33.768333", "Type": "Solo M", "Release date": "1998-02-24"},{"Album": "The Marshall Mathers LP 2", "City": "Detroit", "Lyrics": "floating\r\nBut I got your mom deep throating\r\nI'm out my ramen noodle, we have nothing in common", "Artist": "Eminem", "Country": "USA", "Title": "Rap God", "Longitude": "-83.045833", "County": "Wayne", "State": "Michigan", "Latitude": "42.331389", "Type": "Solo M", "Release date": "2013-11-05"},{"Album": "Record Single", "City": "Detroit", "Lyrics": "head, a zombie floating\r\nBut I got your mom deep throating\r\nI'm out my ramen noodle, we have nothing", "Artist": "Eminem", "Country": "USA", "Title": "Rap God prod. by DVLP", "Longitude": "-83.045833", "County": "Wayne", "State": "Michigan", "Latitude": "42.331389", "Type": "Solo M", "Release date": null},{"Album": "Record Single", "City": "Compton", "Lyrics": "on the corner like Common\r\nNow that ain't common, it's more like Top Ramen\r\nThe flow is noodles, I throw", "Artist": "Game", "Country": "USA", "Title": "300 Bars & Runnin'", "Longitude": "-118.224329", "County": "Los Angeles", "State": "California", "Latitude": "33.895285", "Type": "Solo M", "Release date": null},{"Album": "You Know What it Is Volume 3", "City": "Compton", "Lyrics": "on the corner like Common\r\nNow that ain't common, it's more like Top Ramen\r\nThe flow is noodles, I throw it up", "Artist": "Game", "Country": "USA", "Title": "300 Bars & Runnin'", "Longitude": "-118.224329", "County": "Los Angeles", "State": "California", "Latitude": "33.895285", "Type": "Solo M", "Release date": "2006-01-01"},{"Album": "You Know What it Is Volume 3", "City": "Compton", "Lyrics": "on the corner like Common\r\nNow that ain't common, it's more like Top Ramen\r\nThe flow is noodles, I throw", "Artist": "Game", "Country": "USA", "Title": "300 Bars & Runnin'", "Longitude": "-118.224329", "County": "Los Angeles", "State": "California", "Latitude": "33.895285", "Type": "Solo M", "Release date": "2006-01-01"}]