[{"Album": "Keep Right", "City": "South Bronx", "Lyrics": "it to, Tony Joe White, when he did \"Poke Salad Annie\"\r\nThis is all dealin with the rap\r\nRap has always been there... {*echoes*}", "Artist": "KRS-ONE", "Country": "USA", "Title": "Rap History", "Longitude": "-73.91735", "County": "The Bronx", "State": "New York", "Latitude": "40.81621", "Type": "Solo M", "Release date": "2004-07-13"},{"Album": "The Sneak Attack", "City": "South Bronx", "Lyrics": "replied, \"with potato salad on the side.\"\r\nAnd the teacher replied, \"Well where do you reside?\"\r\nShe", "Artist": "KRS-ONE", "Country": "USA", "Title": "False Pride", "Longitude": "-73.91735", "County": "The Bronx", "State": "New York", "Latitude": "40.81621", "Type": "Solo M", "Release date": "2001-01-01"},{"Album": "Record Single", "City": "Miami", "Lyrics": "tossing my salad\r\nWhen I pet my parrot, all you see is colorful carrots\r\nI be singing them ballads", "Artist": "Trina", "Country": "USA", "Title": "Dang A Lang (Ft. Lady Saw & Nicki Minaj)", "Longitude": "-80.237419", "County": "Miami-Dade", "State": "Florida", "Latitude": "25.728985", "Type": "Solo F", "Release date": null},{"Album": "MM.. Food", "City": "Roosevelt", "Lyrics": "swallowed the ham\r\nHe'd rather eat a sand sandwich salad\r\nIt might need salt like your man's bland", "Artist": "MF DOOM", "Country": "USA", "Title": "Vomitspit", "Longitude": "-73.585556", "County": "Nassau", "State": "New York", "Latitude": "40.679167", "Type": "Solo M", "Release date": "2004-11-16"},{"Album": "AMAZIN'", "City": "Miami", "Lyrics": "'\r\nBlack Miley Cyrus, sayin' hi to pirates\r\nI be singing them ballads when he tossing my salad\r\nWhen", "Artist": "Trina", "Country": "USA", "Title": "Dang A Lang", "Longitude": "-80.237419", "County": "Miami-Dade", "State": "Florida", "Latitude": "25.728985", "Type": "Solo F", "Release date": "2010-01-01"},{"Album": "Dedication 4", "City": "New Orleans", "Lyrics": "and thumbed through that pussy like a catalog\r\nAll my niggas wanna fuck, and she gon let us like a salad", "Artist": "Lil Wayne", "Country": "USA", "Title": "Dont Like", "Longitude": "-90.077714", "County": "Orleans", "State": "Louisiana", "Latitude": "29.95369", "Type": "Solo M", "Release date": "2012-09-03"},{"Album": "Dreams and Nightmares (French Version)", "City": "Philadelphia", "Lyrics": "the war\r\nNever worn, always on, y'all niggas luke warm\r\nTalking cash over salads, heavy cro\u00c3\u00bbtons", "Artist": "Meek Mill", "Country": "USA", "Title": "Maybach Curtains (French Version)", "Longitude": "-75.166667", "County": "Philadelphia", "State": "Pennsylvania", "Latitude": "39.95", "Type": "Solo M", "Release date": "2012-10-30"},{"Album": "Seven and Seven", "City": "Brooklyn", "Lyrics": "now I'm high like a pilot\r\nSpendin' more cheese than you throw on a salad\r\nHand me my mike, if you", "Artist": "MC Lyte", "Country": "USA", "Title": "Want What I Got", "Longitude": "-73.989872", "County": "Kings", "State": "New York", "Latitude": "40.692385", "Type": "Solo F", "Release date": "1998-01-01"},{"Album": "Trilla", "City": "Carol City", "Lyrics": "it on my occupation\r\nCeasar salad, Caesar's Palace\r\nYou not a boss little nigga cause your cheese", "Artist": "Rick Ross", "Country": "USA", "Title": "Speedin'", "Longitude": "-80.269920", "County": "Miami-Dade", "State": "Florida", "Latitude": "25.942121", "Type": "Solo M", "Release date": "2008-03-11"},{"Album": "When Disaster Strikes...", "City": "Uniondale", "Lyrics": "to play it off but you know you can't\r\nNow a nigga dick hard like wood\r\nYou tried the macaroni-salad", "Artist": "Busta Rhymes", "Country": "USA", "Title": "It's All Good", "Longitude": "-73.593544", "County": "Nassau", "State": "New York", "Latitude": "40.717935", "Type": "Solo M", "Release date": "1997-09-16"},{"Album": "The College Dropout", "City": "Chicago", "Lyrics": "in work, move your ass, go berserk\r\nEat your salad, no dessert\r\nGet that man you deserve\r\nIt's Kanye's workout plan", "Artist": "Kanye West", "Country": "USA", "Title": "The New Workout Plan", "Longitude": "-87.632409", "County": "Cook", "State": "Illinois", "Latitude": "41.88415", "Type": "Solo M", "Release date": "2004-02-10"},{"Album": "Dreams and Nightmares", "City": "Philadelphia", "Lyrics": "on, y'all niggas luke warm\r\nTalking cash over salads, heavy cro\u00c3\u00bbtons\r\nCuban links equivalent", "Artist": "Meek Mill", "Country": "USA", "Title": "Maybach Curtains", "Longitude": "-75.166667", "County": "Philadelphia", "State": "Pennsylvania", "Latitude": "39.95", "Type": "Solo M", "Release date": "2012-10-30"},{"Album": "Record Single", "City": "South Orange", "Lyrics": "salad\r\n\r\n[Hook x2]\r\nYou can get the money\r\nYou can get the power\r\nBut keep your eyes on the Final", "Artist": "Lauryn Hill", "Country": "USA", "Title": "Final Hour", "Longitude": "-74.257783", "County": "Essex", "State": "New Jersey", "Latitude": "40.745681", "Type": "Solo F", "Release date": null},{"Album": "Ironman", "City": "Staten Island", "Lyrics": "into ruin\r\n\r\n[Ghostface Killah]\r\nWe eat fish, toss salads and make rap ballads\r\nThe biochemical", "Artist": "Ghostface Killah", "Country": "USA", "Title": "Fish", "Longitude": "-74.144839", "County": "Richmond", "State": "New York", "Latitude": "40.576281", "Type": "Solo M", "Release date": "1996-01-01"},{"Album": "Tha Carter II", "City": "New Orleans", "Lyrics": ", take a walk with Satan, yeah\r\nCome on mama, let The Carter make ya\r\nToss you like a fruit salad", "Artist": "Lil Wayne", "Country": "USA", "Title": "Fireman", "Longitude": "-90.077714", "County": "Orleans", "State": "Louisiana", "Latitude": "29.95369", "Type": "Solo M", "Release date": "2005-12-06"},{"Album": "Tha Carter IV", "City": "New Orleans", "Lyrics": "hungry, my bitches greedy\r\nWill I die a bloody murder? Dear Mr. Ouija\r\nNigga, I'm straight, my girl a faggot\r\nPotato on the barrel, pop pop potato salad", "Artist": "Lil Wayne", "Country": "USA", "Title": "It's good ( French Version )", "Longitude": "-90.077714", "County": "Orleans", "State": "Louisiana", "Latitude": "29.95369", "Type": "Solo M", "Release date": "2011-08-29"},{"Album": "Fuck Da City Up", "City": "Atlanta", "Lyrics": "to back\r\nWhile she tossin' her salad, they call me big dick daddy\r\nThey love this wood, they say \"we", "Artist": "T.I.", "Country": "USA", "Title": "Pimp", "Longitude": "-84.41918", "County": "Fulton", "State": "Georgia", "Latitude": "33.77155", "Type": "Solo M", "Release date": null},{"Album": "The Miseducation of Lauryn Hill", "City": "South Orange", "Lyrics": "tossed salad\r\n\r\n[Hook x2]\r\nYou can get the money\r\nYou can get the power\r\nBut keep your eyes on the Final", "Artist": "Lauryn Hill", "Country": "USA", "Title": "Final Hour", "Longitude": "-74.257783", "County": "Essex", "State": "New Jersey", "Latitude": "40.745681", "Type": "Solo F", "Release date": "1998-01-01"},{"Album": "1999", "City": "Bedford\u2013Stuyvesant", "Lyrics": "talents\r\nThey ain't fit for this green, they just caesar salad\r\nYou think because you avid they just gonna", "Artist": "Joey BADA$$", "Country": "USA", "Title": "Snakes", "Longitude": "-73.963796", "County": "Kings", "State": "New York", "Latitude": "40.692385", "Type": "Solo M", "Release date": "2012-06-12"},{"Album": "Take Care", "City": "Toronto", "Lyrics": "eating salad\r\nSound so smart like you graduated college\r\nLike you went to Yale but you probably went", "Artist": "Drake", "Country": "CAN", "Title": "Make Me Proud", "Longitude": "-79.4", "County": "", "State": "Ontario", "Latitude": "43.7", "Type": "Solo M", "Release date": "2011-11-15"},{"Album": "Record Single", "City": "Bedford\u2013Stuyvesant", "Lyrics": ", toss your clothes like a salad\r\nWhen it's all over put your vote in my ballot\r\nIt's my diner, I'm Mel", "Artist": "Lil Kim", "Country": "USA", "Title": "Crush On You (Ft. Junior M.A.F.I.A.)", "Longitude": "-73.944444", "County": "Kings", "State": "New York", "Latitude": "40.688889", "Type": "Solo F", "Release date": null},{"Album": "Dedication 4", "City": "New Orleans", "Lyrics": "like a catalog\r\nAll my niggas wanna fuck, and she gon let us like a salad bar\r\nYeah that's right, real", "Artist": "Lil Wayne", "Country": "USA", "Title": "I Don't Like", "Longitude": "-90.077714", "County": "Orleans", "State": "Louisiana", "Latitude": "29.95369", "Type": "Solo M", "Release date": "2012-09-03"},{"Album": "Tha Carter IV", "City": "New Orleans", "Lyrics": "Will I die a bloody murder? Dear Mr. Ouija\r\nNigga, I'm straight, my girl a faggot\r\nPotato on the barrel, pop pop potato salad", "Artist": "Lil Wayne", "Country": "USA", "Title": "It's Good", "Longitude": "-90.077714", "County": "Orleans", "State": "Louisiana", "Latitude": "29.95369", "Type": "Solo M", "Release date": "2011-08-29"},{"Album": "Quality", "City": "Park Slope", "Lyrics": "fucked a skate\r\nYou ain't even pay that's why you flunked the date\r\nAll you heard was eat salad, talk", "Artist": "Talib Kweli", "Country": "USA", "Title": "Put it in the Air", "Longitude": "-73.977063", "County": "Kings", "State": "New York", "Latitude": "40.672404", "Type": "Solo M", "Release date": "2002-11-19"},{"Album": "The Leak", "City": "New Orleans", "Lyrics": "icy like carrot cake\r\nDifferent coloured diamonds make me look like a salad plate\r\nI'm straight out", "Artist": "Lil Wayne", "Country": "USA", "Title": "Love Me or Hate Me", "Longitude": "-90.077714", "County": "Orleans", "State": "Louisiana", "Latitude": "29.95369", "Type": "Solo M", "Release date": "2006-01-12"},{"Album": "Only Built 4 Cuban Linx...", "City": "Staten Island", "Lyrics": "the ring, plus the Wallabees\r\nCheck the status, soon to see me at\r\nCaesar's Palace eating salads\r\nWe", "Artist": "Raekwon", "Country": "USA", "Title": "Incarcerated Scarfaces", "Longitude": "-74.144839", "County": "Richmond", "State": "New York", "Latitude": "40.576281", "Type": "Solo M", "Release date": "1995-08-01"},{"Album": "Anarchy", "City": "Uniondale", "Lyrics": "Dressy, salad bar style Nestle\r\nFour white niggas, covered in vest pieces\r\nThink like a mob flick", "Artist": "Busta Rhymes", "Country": "USA", "Title": "The Heist", "Longitude": "-73.593544", "County": "Nassau", "State": "New York", "Latitude": "40.717935", "Type": "Solo M", "Release date": "2000-01-01"},{"Album": "Yeeeah Baby", "City": "South Bronx", "Lyrics": "still gon' hit cha'll niggas\r\nBecause up north you be tossin salads with maple syrup\r\nI know you hate", "Artist": "Big Punisher", "Country": "USA", "Title": "You Was Wrong", "Longitude": "-73.911789", "County": "Bronx", "State": "New York", "Latitude": "40.823318", "Type": "Solo M", "Release date": "2000-01-01"},{"Album": "Gutter Rainbows", "City": "Park Slope", "Lyrics": "Yeah, those was the salad days, my career's appetizer\r\nThe main course a casserole, a jambalaya", "Artist": "Talib Kweli", "Country": "USA", "Title": "Friends & Family", "Longitude": "-73.977063", "County": "Kings", "State": "New York", "Latitude": "40.672404", "Type": "Solo M", "Release date": "2011-01-25"},{"Album": "Born Again", "City": "Bedford\u2013Stuyvesant", "Lyrics": "your salad tossed\r\nOverhearing niggas situations, singing like we thought\r\nSitting on the stand", "Artist": "The Notorious B.I.G.", "Country": "USA", "Title": "Tonight", "Longitude": "-73.963796", "County": "Kings", "State": "New York", "Latitude": "40.692385", "Type": "Solo M", "Release date": "1999-01-01"},{"Album": "Da Drought 3", "City": "New Orleans", "Lyrics": "day\r\nShe'll have the salad, just put her on Wayne's plate\r\nWhat you know bout having syrup poured", "Artist": "Lil Wayne", "Country": "USA", "Title": "Promise", "Longitude": "-90.077714", "County": "Orleans", "State": "Louisiana", "Latitude": "29.95369", "Type": "Solo M", "Release date": "2007-04-13"},{"Album": "Deeper Than Rap", "City": "Carol City", "Lyrics": "That boy get salad, beef bowel movements\r\nBMWs on them big thangs lookin' foolish\r\nShawty sittin low, big", "Artist": "Rick Ross", "Country": "USA", "Title": "Mafia Music", "Longitude": "-80.269920", "County": "Miami-Dade", "State": "Florida", "Latitude": "25.942121", "Type": "Solo M", "Release date": "2009-01-01"},{"Album": "The Pinkprint", "City": "Jamaica", "Lyrics": "that bang, bang, bang\r\nI let him hit it cause he slang cocaine\r\nHe toss my salad like his name", "Artist": "Nicki Minaj", "Country": "USA", "Title": "Anaconda", "Longitude": "-73.80842", "County": "Queens", "State": "New York", "Latitude": "40.701782", "Type": "Solo F", "Release date": "2014-01-01"},{"Album": "1 Player", "City": "Bedford\u2013Stuyvesant", "Lyrics": "[Red Hot Lover Tone]\r\nWord, and Red Hot Lover Tone tossing suckers like salad\r\nIncredible", "Artist": "The Notorious B.I.G.", "Country": "USA", "Title": "4 My Niggaz (4 My Peeps)", "Longitude": "-73.963796", "County": "Kings", "State": "New York", "Latitude": "40.692385", "Type": "Solo M", "Release date": "1995-01-01"},{"Album": "Record Single", "City": "Harlem", "Lyrics": "Lazarus\r\nShark salad with carrots, pork chops and applesauce\r\nTwin connection, disrespect watch your body", "Artist": "Camron", "Country": "USA", "Title": "Banned From TV (N.O.R.E.) (Ft. Big Punisher, The LOX & Nature) prod. by Swizz Beatz", "Longitude": "-73.944862", "County": "Manhattan", "State": "New York", "Latitude": "40.806198", "Type": "Solo M", "Release date": null},{"Album": "Record Single", "City": "Bedford\u2013Stuyvesant", "Lyrics": "acting ratchet\r\nTwenty-four karats, no dressing with my salads\r\nNigga with the Patch kids, steady talking", "Artist": "Joey BADA$$", "Country": "USA", "Title": "BET Cypher 2012: Man With the Iron Fists (A$AP Rocky) (Ft. Angel Haze, Childish Gambino & Driiky Graham)", "Longitude": "-73.963796", "County": "Kings", "State": "New York", "Latitude": "40.692385", "Type": "Solo M", "Release date": null},{"Album": "N O R E", "City": "South Bronx", "Lyrics": ", sporting a Fort Knox Lazarus\r\nShark salad with carrots, pork chops and applesauce\r\nTwin connection", "Artist": "Big Punisher", "Country": "USA", "Title": "Banned From TV", "Longitude": "-73.911789", "County": "Bronx", "State": "New York", "Latitude": "40.823318", "Type": "Solo M", "Release date": "1998-01-01"},{"Album": "Record Single", "City": "South Bronx", "Lyrics": "Lazarus\r\nShark salad with carrots, pork chops and applesauce\r\nTwin connection, disrespect watch your body", "Artist": "Big Punisher", "Country": "USA", "Title": "Banned From TV (N.O.R.E.) (Ft. Cam'ron, The LOX & Nature) prod. by Swizz Beatz", "Longitude": "-73.911789", "County": "Bronx", "State": "New York", "Latitude": "40.823318", "Type": "Solo M", "Release date": null},{"Album": "AndSeeThatsTheThing", "City": "Detroit", "Lyrics": "that's tailored, homie\r\nYeah I'm overdressed and ain't no salad on me\r\nMe and DeJ together, holy", "Artist": "DeJ Loaf", "Country": "USA", "Title": "Back Up", "Longitude": "-83.045833", "County": "Wayne", "State": "Michigan", "Latitude": "42.331389", "Type": "Solo F", "Release date": "2015-01-01"},{"Album": "Ghostdini: Wizard of Poetry in Emerald City", "City": "Staten Island", "Lyrics": "the salmon\r\nIt's coming down pouring, he watching BBC, eating a salad\r\nI'm on the couch hitting", "Artist": "Ghostface Killah", "Country": "USA", "Title": "Guest House", "Longitude": "-74.144839", "County": "Richmond", "State": "New York", "Latitude": "40.576281", "Type": "Solo M", "Release date": "2009-09-29"},{"Album": "Friday Night Lights", "City": "Fayetteville", "Lyrics": "a blessin'\r\nSoon as I got salad, I spent it all on dressin'\r\nFrench, to be exact, that Balmain", "Artist": "J. Cole", "Country": "USA", "Title": "Kanye WestLooking for Trouble", "Longitude": "-78.878056", "County": "Cumberland", "State": "North Carolina", "Latitude": "35.0525", "Type": "Solo M", "Release date": "2010-01-01"},{"Album": "Record Single", "City": "Bedford\u2013Stuyvesant", "Lyrics": "salad\r\nIncredible vocabulary coming from the Brooklyn freak\r\nPeace to Fulton Street", "Artist": "The Notorious B.I.G.", "Country": "USA", "Title": "4 My Peeps (Red Hot Lover Tone) (Ft. M.O.P. & Prince Po)", "Longitude": "-73.963796", "County": "Kings", "State": "New York", "Latitude": "40.692385", "Type": "Solo M", "Release date": null},{"Album": "GOOD Friday", "City": "Chicago", "Lyrics": "as I got salad, I spent it all on dressin'\r\nFrench, to be exact, that Balmain was impressive\r\nHedi", "Artist": "Kanye West", "Country": "USA", "Title": "Looking for Trouble", "Longitude": "-87.632409", "County": "Cook", "State": "Illinois", "Latitude": "41.88415", "Type": "Solo M", "Release date": "2010-08-20"},{"Album": "N O R E", "City": "Harlem", "Lyrics": ", sporting a Fort Knox Lazarus\r\nShark salad with carrots, pork chops and applesauce\r\nTwin connection", "Artist": "Camron", "Country": "USA", "Title": "Banned From TV", "Longitude": "-73.944862", "County": "Manhattan", "State": "New York", "Latitude": "40.806198", "Type": "Solo M", "Release date": "1998-01-01"},{"Album": "The Lost Tapes", "City": "Marin City", "Lyrics": "to battle just step the hell up\r\nI'll toss your ass like a salad and eat you all up\r\nYou climb", "Artist": "2Pac", "Country": "USA", "Title": "Never Be Beat", "Longitude": "-122.516579", "County": "Marin", "State": "California", "Latitude": "37.87199", "Type": "Solo M", "Release date": "2007-01-01"},{"Album": "Record Single", "City": "Staten Island", "Lyrics": "is fresh, straight out of Bermuda yo\r\nOr chilling on a beach in Boca Chica with tuna\r\nSalads and palaces", "Artist": "Raekwon", "Country": "USA", "Title": "Tick, Tock (Pusha T) (Ft. Danny Brown & Joell Ortiz) prod. by Frank Dukes & S1", "Longitude": "-74.144839", "County": "Richmond", "State": "New York", "Latitude": "40.576281", "Type": "Solo M", "Release date": null},{"Album": "Record Single", "City": "Compton", "Lyrics": "on\r\nFaggot ass nigga let men toss his salad like croutons\r\nI fuck with Fab, get my DJ Clue on\r\nSit inside", "Artist": "Game", "Country": "USA", "Title": "200 Bars & Runnin'", "Longitude": "-118.224329", "County": "Los Angeles", "State": "California", "Latitude": "33.895285", "Type": "Solo M", "Release date": null},{"Album": "Record Single", "City": "Compton", "Lyrics": "on\r\nFaggot ass nigga let men toss his salad like croutons\r\nI fuck with Fab, get my DJ Clue on\r\nSit inside", "Artist": "Game", "Country": "USA", "Title": "200 Bars & Runnin'", "Longitude": "-118.224329", "County": "Los Angeles", "State": "California", "Latitude": "33.895285", "Type": "Solo M", "Release date": null},{"Album": "Record Single", "City": "Harlem", "Lyrics": ", et tu zappes, affal\u00c3\u00a9 dans le canap'\r\nToujours les m\u00c3\u00aames blabla que tu mattes, les m\u00c3\u00aames salades", "Artist": "Camron", "Country": "USA", "Title": "#25 T\u00c3\u0192\u00c2\u00a9l\u00c3\u0192\u00c2\u00a9 Rap (Pi\u00c3\u0192\u00c2\u00a8ge de freestyle) (Ft. 2ksee, 2-zer, A2H, Aladoum, Amy, Artik, BARHOW, Billie Brelok, Blackapar, Cheeko, Dandyguel, D'Click, Exnilo, Fibo, Gab, Gizzle, Gyst\u00c3\u0192\u00c2\u00a8re, Heazzy, Hippocampe Fou, Kenyon, K-LY, KOF, Kombo, Laetitia Dana, L", "Longitude": "-73.944862", "County": "Manhattan", "State": "New York", "Latitude": "40.806198", "Type": "Solo M", "Release date": null},{"Album": "Record Single", "City": "Harlem", "Lyrics": "le canap'\r\nToujours les m\u00c3\u00aames blabla que tu mattes, les m\u00c3\u00aames salades qu'ils nous jactent\r\nQui", "Artist": "Camron", "Country": "USA", "Title": "#25 T\u00c3\u0192\u00c2\u00a9l\u00c3\u0192\u00c2\u00a9 Rap", "Longitude": "-73.944862", "County": "Manhattan", "State": "New York", "Latitude": "40.806198", "Type": "Solo M", "Release date": null},{"Album": "Record Single", "City": "Compton", "Lyrics": "(Yo, gimme a couple of them napkins, a salad fork... I'm starvin' nigga!)\r\nJune 15th, one of us gotta", "Artist": "Game", "Country": "USA", "Title": "400 Bars", "Longitude": "-118.224329", "County": "Los Angeles", "State": "California", "Latitude": "33.895285", "Type": "Solo M", "Release date": null},{"Album": "The Red Room", "City": "Compton", "Lyrics": "course\r\n(Yo, gimme a couple of them napkins, a salad fork... I'm starvin' nigga!)\r\nJune 15th, one of us", "Artist": "Game", "Country": "USA", "Title": "400 Bars", "Longitude": "-118.224329", "County": "Los Angeles", "State": "California", "Latitude": "33.895285", "Type": "Solo M", "Release date": "2010-04-26"}]