[{"Album": "Maximum Strength 2008", "City": "South Bronx", "Lyrics": "to\r\nHead moves, windmills, and yes uprockin to\r\nFrom Mr. Wiggles, Boogaloo Shrimp, and Shabba Doo\r\nUh-oh", "Artist": "KRS-ONE", "Country": "USA", "Title": "The Kool Herc", "Longitude": "-73.91735", "County": "The Bronx", "State": "New York", "Latitude": "40.81621", "Type": "Solo M", "Release date": "2008-06-10"},{"Album": "You Know What It Is Vol 4 - Murda Game Chronicles", "City": "Compton", "Lyrics": "', ballin'\r\n(Hey yo nigga you ain't supposed to open them fuckin' shrimps with your hands, nigga", "Artist": "Game", "Country": "USA", "Title": "Get Dollaz", "Longitude": "-118.224329", "County": "Los Angeles", "State": "California", "Latitude": "33.895285", "Type": "Solo M", "Release date": "2007-04-08"},{"Album": "Record Single", "City": "South Bronx", "Lyrics": "Doug E. Fresh in my double breast\r\nLike a pimp, eatin shrimp, gumbo, bubble bathin\r\nIn the jumbo", "Artist": "Big Punisher", "Country": "USA", "Title": "Fat Joe & Punisher Freestyle (Funkmaster Flex) (Ft. Fat Joe)", "Longitude": "-73.911789", "County": "Bronx", "State": "New York", "Latitude": "40.823318", "Type": "Solo M", "Release date": null},{"Album": "500 Degreez", "City": "New Orleans", "Lyrics": "and shrimps\r\nKool-Aid and chicken\r\nFlashy things and women\r\nAll I need\r\nIs Remy and weed\r\nSomebody", "Artist": "Lil Wayne", "Country": "USA", "Title": "Gangstas and Pimps", "Longitude": "-90.077714", "County": "Orleans", "State": "Louisiana", "Latitude": "29.95369", "Type": "Solo M", "Release date": "2002-01-01"},{"Album": "Pluto 3D", "City": "Atlanta", "Lyrics": "\u20ac\u2122 on Texas, parkin\u00e2\u20ac\u2122 lot flexin'\r\nBumpin\u00e2\u20ac\u2122 UGK, motherfucka\r\nEatin on shrimps, motherfucka\r\nLong live", "Artist": "Future", "Country": "USA", "Title": "Long Live the Pimp", "Longitude": "-84.41918", "County": "Fulton", "State": "Georgia", "Latitude": "33.77155", "Type": "Solo M", "Release date": "2012-11-27"},{"Album": "Sell Sole", "City": "Detroit", "Lyrics": "in the sky\r\nWe been eatin' good, hater how you like me now?\r\nAll that steak and all that shrimp, I done", "Artist": "DeJ Loaf", "Country": "USA", "Title": "Ayo", "Longitude": "-83.045833", "County": "Wayne", "State": "Michigan", "Latitude": "42.331389", "Type": "Solo F", "Release date": "2014-10-01"},{"Album": "Pluto", "City": "Atlanta", "Lyrics": "\u20ac\u2122 on Texas, parkin\u00e2\u20ac\u2122 lot flexin'\r\nBumpin\u00e2\u20ac\u2122 UGK, motherfucka\r\nEatin on shrimps, motherfucka\r\nLong live", "Artist": "Future", "Country": "USA", "Title": "Long Live the Pimp", "Longitude": "-84.41918", "County": "Fulton", "State": "Georgia", "Latitude": "33.77155", "Type": "Solo M", "Release date": "2012-01-01"},{"Album": "Record Single", "City": "Harlem", "Lyrics": "want this real good dick\r\nI'm bait, I reel them in like fish\r\nBig pimp, oh, she taste like shrimp\r\nAll", "Artist": "Camron", "Country": "USA", "Title": "Billboard Bitch", "Longitude": "-73.944862", "County": "Manhattan", "State": "New York", "Latitude": "40.806198", "Type": "Solo M", "Release date": null},{"Album": "Ill Na Na", "City": "Brooklyn", "Lyrics": ", suited up in Bendel, Boogie\r\nOh well, could tell, I floss well, uhh\r\nPeep the hustle, steamed shrimps", "Artist": "Foxy Brown", "Country": "USA", "Title": "No One's", "Longitude": "-73.989872", "County": "Kings", "State": "New York", "Latitude": "40.692385", "Type": "Solo F", "Release date": "1996-11-19"},{"Album": "Live.Love.A$AP", "City": "Harlem", "Lyrics": "bald head rogaineCode red codeine, nose red cocainePimpin bitches since lemon chicken shrimp lo", "Artist": "A$AP Rocky", "Country": "USA", "Title": "Houston Old Head", "Longitude": "-73.944862", "County": "Manhattan", "State": "New York", "Latitude": "40.806198", "Type": "Solo M", "Release date": "2011-10-31"},{"Album": "Ghostdini: Wizard of Poetry in Emerald City", "City": "Staten Island", "Lyrics": "But if it means anything, I can get you some food\r\nCheese crackers, in the back there's saut\u00c3\u00a9ed shrimp", "Artist": "Ghostface Killah", "Country": "USA", "Title": "Paragraphs of Love", "Longitude": "-74.144839", "County": "Richmond", "State": "New York", "Latitude": "40.576281", "Type": "Solo M", "Release date": "2009-09-29"},{"Album": "House of Wax: The Vatican Mixtape, Vol. 3", "City": "Staten Island", "Lyrics": "predicted it, We just ill wizards, Live with it\r\nWe caviar, Popin shrimp with it\r\nWhatever pimp did", "Artist": "Raekwon", "Country": "USA", "Title": "Make You Pay", "Longitude": "-74.144839", "County": "Richmond", "State": "New York", "Latitude": "40.576281", "Type": "Solo M", "Release date": "2007-08-06"},{"Album": "DJ Mustard - 4 Hunnid Degreez (Mixtape)", "City": "Compton", "Lyrics": "ain't fucking, then she flying off a cliff\r\nNigga never sleep, nigga never eat shrimp\r\nShe heard", "Artist": "YG", "Country": "USA", "Title": "I'm a Thug", "Longitude": "-118.224329", "County": "Los Angeles", "State": "California", "Latitude": "33.895285", "Type": "Solo M", "Release date": "1994-09-13"},{"Album": "Finally Famous Vol. 3", "City": "Detroit", "Lyrics": "even find an empty spot inside my safeI got carties on my eyes, Louis on my caseLobster, shrimp", "Artist": "Big Sean", "Country": "USA", "Title": "Too Fake", "Longitude": "-83.045833", "County": "Wayne", "State": "Michigan", "Latitude": "42.331389", "Type": "Solo M", "Release date": "2010-08-31"},{"Album": "UKNOWBIGSEAN", "City": "Detroit", "Lyrics": "cock tail like a motherfuckin' shrimp\r\nSo yeah I'mma leave the door open\r\nAll night pokin' till my dick broke in, bitch!\r\n\r\n[Hook]", "Artist": "Big Sean", "Country": "USA", "Title": "Cum Over", "Longitude": "-83.045833", "County": "Wayne", "State": "Michigan", "Latitude": "42.331389", "Type": "Solo M", "Release date": "2009-04-21"},{"Album": "Nothing Was The Same", "City": "Toronto", "Lyrics": "lobsters and shrimp\r\nYou smart and you know it, I get it I get it, you outdo these pimps\r\nI hope", "Artist": "Drake", "Country": "CAN", "Title": "305 to My City", "Longitude": "-79.4", "County": "", "State": "Ontario", "Latitude": "43.7", "Type": "Solo M", "Release date": "2013-01-01"},{"Album": "Hall of Fame", "City": "Detroit", "Lyrics": "eating lobster with my shrimp hand\r\nFeeling on her with my pimp hand\r\nI'm talking to her like her Daddy", "Artist": "Big Sean", "Country": "USA", "Title": "Mona Lisa", "Longitude": "-83.045833", "County": "Wayne", "State": "Michigan", "Latitude": "42.331389", "Type": "Solo M", "Release date": "2013-08-27"},{"Album": "Purple Haze", "City": "Harlem", "Lyrics": "the yay\r\nAnd it's 2 clips, I get out to play for\r\nFew chips, I get out n' spray\r\nIt's more then shrimps", "Artist": "Camron", "Country": "USA", "Title": "Leave Me Alone, Pt. 2", "Longitude": "-73.944862", "County": "Manhattan", "State": "New York", "Latitude": "40.806198", "Type": "Solo M", "Release date": "2004-01-01"},{"Album": "More Fish", "City": "Staten Island", "Lyrics": "guys that kill Bulotti, catching bodies, earnin' respect\r\nThe waiter came in a dropped off the shrimp", "Artist": "Ghostface Killah", "Country": "USA", "Title": "Alex (Stolen Script)", "Longitude": "-74.144839", "County": "Richmond", "State": "New York", "Latitude": "40.576281", "Type": "Solo M", "Release date": "2006-01-01"},{"Album": "Put it on the Line", "City": "Staten Island", "Lyrics": ", cuz the family was large\r\nNo fancy cars, no shrimp scampi or caviar\r\nJust a cold plate of agony", "Artist": "Ghostface Killah", "Country": "USA", "Title": "Hustle Hard", "Longitude": "-74.144839", "County": "Richmond", "State": "New York", "Latitude": "40.576281", "Type": "Solo M", "Release date": "2005-11-18"},{"Album": "Finally Famous Vol. 3", "City": "Detroit", "Lyrics": "an empty spot inside my safe\r\nI got Carties on my eyes, Louis on my case\r\nLobster, shrimp", "Artist": "Big Sean", "Country": "USA", "Title": "Too Fake", "Longitude": "-83.045833", "County": "Wayne", "State": "Michigan", "Latitude": "42.331389", "Type": "Solo M", "Release date": "2010-10-20"},{"Album": "More Fish", "City": "Roosevelt", "Lyrics": "guys that kill Bulotti, catching bodies, earnin' respect\r\nThe waiter came in a dropped off the shrimp", "Artist": "MF DOOM", "Country": "USA", "Title": "Alex (Stolen Script)", "Longitude": "-73.585556", "County": "Nassau", "State": "New York", "Latitude": "40.679167", "Type": "Solo M", "Release date": "2006-01-01"},{"Album": "50 Cent is the Future", "City": "Queens", "Lyrics": "and noodles to lobster and shrimp\r\nI went from bare bubble coats, to brand new minks\r\nAnd yo my neck upgraded", "Artist": "50 Cent", "Country": "USA", "Title": "A Little Bit of Everything U.T.P.", "Longitude": "-73.829959", "County": "Queens", "State": "New York", "Latitude": "40.713985", "Type": "Solo M", "Release date": "2002-01-01"},{"Album": "Untold Story: Volume II", "City": "Compton", "Lyrics": "wanna eat shrimp, and get my salary\r\nThey ain't knowin I'm tight laced in my shoestrings\r\nHate the way", "Artist": "Game", "Country": "USA", "Title": "Money Over Bitches", "Longitude": "-118.224329", "County": "Los Angeles", "State": "California", "Latitude": "33.895285", "Type": "Solo M", "Release date": "2005-07-26"},{"Album": "Record Single", "City": "Roosevelt", "Lyrics": "in a dropped off the shrimp fried rice he ordered\r\nI said thanks as he poured my water\r\nThen out came", "Artist": "MF DOOM", "Country": "USA", "Title": "Alex (Stolen Script) (Ghostface Killah)", "Longitude": "-73.585556", "County": "Nassau", "State": "New York", "Latitude": "40.679167", "Type": "Solo M", "Release date": null},{"Album": "Hotel California", "City": "New Orleans", "Lyrics": "probably get seasick\r\nOn the yacht eat shrimp, see my name on a blimp\r\nIt read T-Raww's a pimp\r\nNigga I", "Artist": "Lil Wayne", "Country": "USA", "Title": "500 Degrees", "Longitude": "-90.077714", "County": "Orleans", "State": "Louisiana", "Latitude": "29.95369", "Type": "Solo M", "Release date": "2013-01-01"},{"Album": "Record Single", "City": "New Orleans", "Lyrics": "probably get seasick\r\nOn the yacht eat shrimp,see my name on a blimp\r\nIt read T-Raww's a pimp\r\nNigga", "Artist": "Lil Wayne", "Country": "USA", "Title": "500 Degrees (Tyga)", "Longitude": "-90.077714", "County": "Orleans", "State": "Louisiana", "Latitude": "29.95369", "Type": "Solo M", "Release date": null},{"Album": "The Lords of Flatbush", "City": "Flatbush", "Lyrics": "dough of the shrimp\r\nMy money not taxed, nigga fuck that shit\r\nBreaking down the work, watch", "Artist": "The Underachievers", "Country": "USA", "Title": "Midnight Augusto", "Longitude": "-73.962083", "County": "Kings", "State": "New York", "Latitude": "40.640417", "Type": "Group M", "Release date": "2013-08-29"},{"Album": "More Fish", "City": "Staten Island", "Lyrics": "guys that kill Bulotti, catching bodies, earnin' respect\r\nThe waiter came in a dropped off the shrimp", "Artist": "Ghostface Killah", "Country": "USA", "Title": "Alex (Stolen Script)", "Longitude": "-74.144839", "County": "Richmond", "State": "New York", "Latitude": "40.576281", "Type": "Solo M", "Release date": "2006-01-01"},{"Album": "Purple Haze", "City": "Harlem", "Lyrics": "a slim tramp. Order steak, shrimp scamp\r\nOk-k-kay, you g-g-gay\r\nI'll souffl\u00c3\u00a9 ya toup\u00c3\u00a9eandbottles", "Artist": "Camron", "Country": "USA", "Title": "Family Ties", "Longitude": "-73.944862", "County": "Manhattan", "State": "New York", "Latitude": "40.806198", "Type": "Solo M", "Release date": "2004-01-01"},{"Album": "500 Degreez", "City": "New Orleans", "Lyrics": "quick if ya hate the pimp\r\nThink it's all big fish I don ate the shrimp\r\nRoll out with the hood cuz", "Artist": "Lil Wayne", "Country": "USA", "Title": "Worry Me", "Longitude": "-90.077714", "County": "Orleans", "State": "Louisiana", "Latitude": "29.95369", "Type": "Solo M", "Release date": "2002-01-01"},{"Album": "Operation: Doomsday", "City": "Roosevelt", "Lyrics": "the dough's quick, hoes that mess with 5-O shrimp like, \"What?\"\r\nLike they wanna shmoosh us, just", "Artist": "MF DOOM", "Country": "USA", "Title": "Operation: Greenbacks", "Longitude": "-73.585556", "County": "Nassau", "State": "New York", "Latitude": "40.679167", "Type": "Solo M", "Release date": "1999-01-01"},{"Album": "Just Re'd Up 2 (Mixtape)", "City": "Compton", "Lyrics": ", bam\r\n\r\n[Verse 2]\r\nMaybe I should drink the whole fifth\r\nNiggas always eatin' on shrimp\r\nI ain't", "Artist": "YG", "Country": "USA", "Title": "This Yick", "Longitude": "-118.224329", "County": "Los Angeles", "State": "California", "Latitude": "33.895285", "Type": "Solo M", "Release date": "2013-01-21"},{"Album": "Record Single", "City": "Staten Island", "Lyrics": "in a dropped off the shrimp fried rice he ordered\r\nI said thanks as he poured my water\r\nThen out came", "Artist": "Ghostface Killah", "Country": "USA", "Title": "Alex (Stolen Script) prod. by MF Doom", "Longitude": "-74.144839", "County": "Richmond", "State": "New York", "Latitude": "40.576281", "Type": "Solo M", "Release date": null},{"Album": "50 Cent is the Future", "City": "Queens", "Lyrics": "to lobster and shrimp\r\nI went from bare bubble coats, to brand new minks\r\nAnd yo my neck upgraded, my", "Artist": "50 Cent", "Country": "USA", "Title": "A Lil Bit of Everything U.T.P", "Longitude": "-73.829959", "County": "Queens", "State": "New York", "Latitude": "40.713985", "Type": "Solo M", "Release date": "2002-01-01"},{"Album": "California Republic", "City": "Compton", "Lyrics": "!\r\nLobster, shrimp, Roscoes and steak\r\nWhen my nigga come home\r\nHe can have any damn thing that he", "Artist": "Game", "Country": "USA", "Title": "When My Niggas Come Home", "Longitude": "-118.224329", "County": "Los Angeles", "State": "California", "Latitude": "33.895285", "Type": "Solo M", "Release date": "2012-04-05"},{"Album": "heart breakers", "City": "Long Beach", "Lyrics": "dawg, I'm tryin' to find my shrimp\r\nIn the cabbage patch, pink spaghetti\r\n500 crackers I was saving", "Artist": "Snoop Dogg", "Country": "USA", "Title": "Miley CyrusBlack umbrella", "Longitude": "-118.195556", "County": "Los Angeles", "State": "California", "Latitude": "33.768333", "Type": "Solo M", "Release date": null},{"Album": "The Aftermath", "City": "Compton", "Lyrics": "the Sega\r\nAnd in the PJ's I DJ and blow amps\r\nBad as Shrimp Scampi with the food stamps\r\nHuh, I'm", "Artist": "Dr. Dre", "Country": "USA", "Title": "Shittin' on the World", "Longitude": "-118.224329", "County": "Los Angeles", "State": "California", "Latitude": "33.895285", "Type": "Solo M", "Release date": "1996-11-26"},{"Album": "Record Single", "City": "Queens", "Lyrics": ", y'all won't get served at all\r\n\r\n[Tony Yayo]\r\nI went from oodles and noodles to lobster and shrimp", "Artist": "50 Cent", "Country": "USA", "Title": "A Little Bit of Everything U.T.P. (Ft. Juvenile, Lloyd Banks, Skip, Tony Yayo (G-Unit) & Young Buck (U.T.P.))", "Longitude": "-73.829959", "County": "Queens", "State": "New York", "Latitude": "40.713985", "Type": "Solo M", "Release date": null},{"Album": "Record Single", "City": "Flatbush", "Lyrics": "dough of the shrimp\r\nMy money not taxed, nigga fuck that shit\r\nBreaking down the work, watch", "Artist": "The Underachievers", "Country": "USA", "Title": "Midnight Augusto", "Longitude": "-73.962083", "County": "Kings", "State": "New York", "Latitude": "40.640417", "Type": "Group M", "Release date": null},{"Album": "The Drought Is Over 4 Mixtape", "City": "New Orleans", "Lyrics": "pasta\r\nOnly fuck with the shrimp and the lobster\r\nMurder that pussy holy ghed boy, while I'm dressed up", "Artist": "Lil Wayne", "Country": "USA", "Title": "Burn This City", "Longitude": "-90.077714", "County": "Orleans", "State": "Louisiana", "Latitude": "29.95369", "Type": "Solo M", "Release date": "2007-10-31"},{"Album": "No Ceilings", "City": "New Orleans", "Lyrics": "fucking percentage\r\nI cuss a lot cause bitch I'm seers\r\nYoung no beard, get soup\r\nLike gumbo with shrimp", "Artist": "Lil Wayne", "Country": "USA", "Title": "That's All I Have", "Longitude": "-90.077714", "County": "Orleans", "State": "Louisiana", "Latitude": "29.95369", "Type": "Solo M", "Release date": "2009-10-31"},{"Album": "Record Single", "City": "Queens", "Lyrics": ", so I'm leaving you\r\n\r\n[Verse 3]\r\nI went to Red Lobster for shrimp and steak\r\nAround the time whe", "Artist": "LL Cool J", "Country": "USA", "Title": "Big Ole Butt prod. by Dwayne Simon", "Longitude": "-73.829959", "County": "Queens", "State": "New York", "Latitude": "40.713985", "Type": "Solo M", "Release date": null},{"Album": "Walking With a Panther", "City": "Queens", "Lyrics": "[Verse 3]\r\nI went to Red Lobster for shrimp and steak\r\nAround the time whe the waitress", "Artist": "LL Cool J", "Country": "USA", "Title": "Big Ole Butt", "Longitude": "-73.829959", "County": "Queens", "State": "New York", "Latitude": "40.713985", "Type": "Solo M", "Release date": "1989-01-01"},{"Album": "The Pretty Toney Album", "City": "Staten Island", "Lyrics": ", and you start actin' funny\r\nShrimp's every night, ordering steaks\r\nThem jumbo joints, them shits cost", "Artist": "Ghostface Killah", "Country": "USA", "Title": "Tooken Back", "Longitude": "-74.144839", "County": "Richmond", "State": "New York", "Latitude": "40.576281", "Type": "Solo M", "Release date": "2004-04-20"},{"Album": "Record Single", "City": "Brooklyn", "Lyrics": "Baileys\r\nDon't give a fuck about how you move with them other mamis\r\nI push the Z, eating shrimp", "Artist": "Foxy Brown", "Country": "USA", "Title": "Ain't No Nigga (Jay Z) prod. by Jaz-O", "Longitude": "-73.989872", "County": "Kings", "State": "New York", "Latitude": "40.692385", "Type": "Solo F", "Release date": null},{"Album": "Record Single", "City": "Atlanta", "Lyrics": "right\r\nI got 2 choppas that\u00e2\u20ac\u2122s chopsticks\r\nEat yo block up like shrimp fried rice\r\nBeen so long since", "Artist": "T.I.", "Country": "USA", "Title": "FuckWitMeYouKnowIGotIt (Lil Wayne)", "Longitude": "-84.41918", "County": "Fulton", "State": "Georgia", "Latitude": "33.77155", "Type": "Solo M", "Release date": null},{"Album": "Port of Miami", "City": "Carol City", "Lyrics": "ima wonderful dad\r\nExcellent pimp salty the shrimp\r\nI went and bought the benz\r\nSame kind thatcha", "Artist": "Rick Ross", "Country": "USA", "Title": "Hit U From the Back", "Longitude": "-80.269920", "County": "Miami-Dade", "State": "Florida", "Latitude": "25.942121", "Type": "Solo M", "Release date": "2006-08-08"},{"Album": "Tha Last Meal", "City": "Long Beach", "Lyrics": "with the proper crop of jumbo shrimp\r\nSince I'm prepare with my ho, got it crackin with my ho\r\nStudy mackin", "Artist": "Snoop Dogg", "Country": "USA", "Title": "Bring it On", "Longitude": "-118.195556", "County": "Los Angeles", "State": "California", "Latitude": "33.768333", "Type": "Solo M", "Release date": "2000-12-19"},{"Album": "Reasonable Doubt", "City": "Brooklyn", "Lyrics": ", eating shrimp scampi with rocks larger than life\r\nFuck them Reebok broads, you made it known who your", "Artist": "Foxy Brown", "Country": "USA", "Title": "Ain't No Nigga", "Longitude": "-73.989872", "County": "Kings", "State": "New York", "Latitude": "40.692385", "Type": "Solo F", "Release date": "1996-01-01"},{"Album": "Tha Carter III", "City": "New Orleans", "Lyrics": "shrimp\r\nIt's been a good year, maybe I should ride blimp\r\nCause your boy just stay above the game", "Artist": "Lil Wayne", "Country": "USA", "Title": "You Ain't Got Nuthin'", "Longitude": "-90.077714", "County": "Orleans", "State": "Louisiana", "Latitude": "29.95369", "Type": "Solo M", "Release date": "2008-01-01"},{"Album": "Phenomenon", "City": "Queens", "Lyrics": "She slid up my whip, like the queen of New York\r\nWe jetted to city island to eat shrimp and talk", "Artist": "LL Cool J", "Country": "USA", "Title": "Hot Hot Hot", "Longitude": "-73.829959", "County": "Queens", "State": "New York", "Latitude": "40.713985", "Type": "Solo M", "Release date": "1997-01-01"},{"Album": "What's My Favorite Word?", "City": "East Oakland", "Lyrics": "back and eat some immaculate shrimp\r\nStackin chips as a mack and a pimp, in the club you gon' bounce", "Artist": "Too Short", "Country": "USA", "Title": "Quit Hatin' Pt. 1", "Longitude": "-122.2591", "County": "Oakland", "State": "California", "Latitude": "37.8039", "Type": "Solo M", "Release date": "2002-09-10"},{"Album": "When Disaster Strikes...", "City": "Uniondale", "Lyrics": "dream\r\nPack a shorty black or Phillipian\r\nThe way I eat my shrimp with steam\r\nI'm the man", "Artist": "Busta Rhymes", "Country": "USA", "Title": "The Body Rock", "Longitude": "-73.593544", "County": "Nassau", "State": "New York", "Latitude": "40.717935", "Type": "Solo M", "Release date": "1997-09-16"},{"Album": "The Wallabee Champ", "City": "Staten Island", "Lyrics": "sweater on\r\nYall be lying !\r\n\r\nLord Superb\r\n\r\nA big mansion\r\nReal props and shrimp scampy\r\nSailboat", "Artist": "Ghostface Killah", "Country": "USA", "Title": "Good times pt 2", "Longitude": "-74.144839", "County": "Richmond", "State": "New York", "Latitude": "40.576281", "Type": "Solo M", "Release date": "2008-03-25"},{"Album": "Reasonable Doubt", "City": "Brooklyn", "Lyrics": "you move with them other mamis\r\nI push the Z, eating shrimp scampi with rocks larger than life\r\nFuck", "Artist": "Jay Z", "Country": "USA", "Title": "Ain't No Nigga", "Longitude": "-73.989872", "County": "Kings", "State": "New York", "Latitude": "40.692385", "Type": "Solo M", "Release date": "1996-01-01"},{"Album": "Eardrum", "City": "Park Slope", "Lyrics": "walkin the beat\r\nHoes believin the pimps who eatin the shrimps\r\nSo John's walkin the street\r\nLookin", "Artist": "Talib Kweli", "Country": "USA", "Title": "The Perfect Beat", "Longitude": "-73.977063", "County": "Kings", "State": "New York", "Latitude": "40.672404", "Type": "Solo M", "Release date": "2007-08-21"},{"Album": "Power of the Dollar", "City": "Queens", "Lyrics": "and E Money Bags\r\nIn a conversation over shrimp and lobster\r\nAt Benihana's, heard Chico stopped", "Artist": "50 Cent", "Country": "USA", "Title": "Ghetto Qu'ran (Forgive Me)", "Longitude": "-73.829959", "County": "Queens", "State": "New York", "Latitude": "40.713985", "Type": "Solo M", "Release date": "2000-07-04"},{"Album": "50 Cent is the Future", "City": "Queens", "Lyrics": "', and Ewing could dunk\r\nOf course, you can fuck now, you was buyin' the shrimp then\r\nMe on the other", "Artist": "50 Cent", "Country": "USA", "Title": "50/Banks", "Longitude": "-73.829959", "County": "Queens", "State": "New York", "Latitude": "40.713985", "Type": "Solo M", "Release date": "2002-01-01"},{"Album": "Guess Who's Back", "City": "Queens", "Lyrics": "and E Money Bags\r\nIn a conversation over shrimp and lobster\r\nAt Benihana's, heard Chico stopped", "Artist": "50 Cent", "Country": "USA", "Title": "Ghetto Qu'ran (Forgive Me)", "Longitude": "-73.829959", "County": "Queens", "State": "New York", "Latitude": "40.713985", "Type": "Solo M", "Release date": "2002-01-01"},{"Album": "Tha Carter", "City": "New Orleans", "Lyrics": "a m-m-mack mack a p-p-pimp\r\nI sp-sp-sp-spit out shrimp\r\nI pull up clean I get out limp\r\nI walk like", "Artist": "Lil Wayne", "Country": "USA", "Title": "Cash Money Millionaires", "Longitude": "-90.077714", "County": "Orleans", "State": "Louisiana", "Latitude": "29.95369", "Type": "Solo M", "Release date": "2002-07-23"},{"Album": "Greatest Hits", "City": "Long Beach", "Lyrics": "' the party\r\nEver they go gonna pop-lock on the flo'\r\nWell do the Boogaloo shrimp and pimp the ho\r\nI got", "Artist": "Snoop Dogg", "Country": "USA", "Title": "Death Row Eastside Party", "Longitude": "-118.195556", "County": "Los Angeles", "State": "California", "Latitude": "33.768333", "Type": "Solo M", "Release date": "1998-11-24"},{"Album": "Whiteboys soundtrack", "City": "Long Beach", "Lyrics": "ass feetWhile my vogues burn, up and down the streetEatin steak and shrimp, got my name", "Artist": "Snoop Dogg", "Country": "USA", "Title": "White Boyz", "Longitude": "-118.195556", "County": "Los Angeles", "State": "California", "Latitude": "33.768333", "Type": "Solo M", "Release date": "1999-07-20"},{"Album": "Pimpin' Incorporated", "City": "East Oakland", "Lyrics": "Benz S Class, know what the fuck I mean?\r\nA pimper, I stay in shrimp-ah, like Jack Tripper\r\nA candy", "Artist": "Too Short", "Country": "USA", "Title": "I'm a Pimp", "Longitude": "-122.2591", "County": "Oakland", "State": "California", "Latitude": "37.8039", "Type": "Solo M", "Release date": "2006-01-17"},{"Album": "Record Single", "City": "Detroit", "Lyrics": "D. Rose or Kobe, it's Kobe the beef and it's shrimp ravioli\r\nSean Don, you know me, my cash", "Artist": "Big Sean", "Country": "USA", "Title": "1st Quarter Freestyle", "Longitude": "-83.045833", "County": "Wayne", "State": "Michigan", "Latitude": "42.331389", "Type": "Solo M", "Release date": null},{"Album": "California Republic", "City": "Compton", "Lyrics": "shrimp while I throw these ones\r\nJas drunk as fuck cause every time I look he show his gun\r\nEvery time we", "Artist": "Game", "Country": "USA", "Title": "God Speed", "Longitude": "-118.224329", "County": "Los Angeles", "State": "California", "Latitude": "33.895285", "Type": "Solo M", "Release date": "2012-04-05"},{"Album": "Record Single", "City": "New Orleans", "Lyrics": "her friend eat me in this bitch up like shrimp plates\r\nBounce in the club rollin' on X, eyes pitch", "Artist": "Lil Wayne", "Country": "USA", "Title": "Act a Ass (Ft. B.G.)", "Longitude": "-90.077714", "County": "Orleans", "State": "Louisiana", "Latitude": "29.95369", "Type": "Solo M", "Release date": null},{"Album": "Beam Me Up Scotty (Mixtape)", "City": "Jamaica", "Lyrics": "yet, like Bubba know shrimp\r\nBut he don't say shit when the gun on his lip\r\nAnd I don't say shit, put", "Artist": "Nicki Minaj", "Country": "USA", "Title": "Go Hard", "Longitude": "-73.80842", "County": "Queens", "State": "New York", "Latitude": "40.701782", "Type": "Solo F", "Release date": "2009-04-18"},{"Album": "Lights Out", "City": "New Orleans", "Lyrics": "eat me in this bitch up like shrimp plates\r\nBounce in the club rollin' on X, eyes pitch black\r\nI got 2", "Artist": "Lil Wayne", "Country": "USA", "Title": "Act a Ass", "Longitude": "-90.077714", "County": "Orleans", "State": "Louisiana", "Latitude": "29.95369", "Type": "Solo M", "Release date": "2000-12-19"},{"Album": "Record Single", "City": "Chicago", "Lyrics": "to mi casa,shrimp scampi and lobster\r\nBig bowl of OG kush,watching Shottas\r\nNigga take a hit", "Artist": "Kanye West", "Country": "USA", "Title": "500 Bars (Otis Freestyle) (Game)", "Longitude": "-87.632409", "County": "Cook", "State": "Illinois", "Latitude": "41.88415", "Type": "Solo M", "Release date": null},{"Album": "Record Single", "City": "Compton", "Lyrics": ", welcome to the opera!\r\nWelcome to mi casa, shrimp scampi and lobster\r\nBig bowl of OG kush, watching", "Artist": "Game", "Country": "USA", "Title": "500 Bars (Otis Freestyle) prod. by Kanye West", "Longitude": "-118.224329", "County": "Los Angeles", "State": "California", "Latitude": "33.895285", "Type": "Solo M", "Release date": null},{"Album": "Record Single", "City": "Compton", "Lyrics": "!\r\nWelcome to mi casa, shrimp scampi and lobster\r\nBig bowl of OG kush, watching Shottas\r\nNigga take a hit", "Artist": "Game", "Country": "USA", "Title": "500 Bars (Otis Freestyle)", "Longitude": "-118.224329", "County": "Los Angeles", "State": "California", "Latitude": "33.895285", "Type": "Solo M", "Release date": null}]