[{"Album": "Eminem Presents: The Re-Up", "City": "Detroit", "Lyrics": "BizarreMurder\n\r\n[Intro: Bizarre]\r\nDetroit, Motown\r\nHey, guess what\r\nThey gave us a soup bowl", "Artist": "Eminem", "Country": "USA", "Title": "BizarreMurder", "Longitude": "-83.045833", "County": "Wayne", "State": "Michigan", "Latitude": "42.331389", "Type": "Solo M", "Release date": "2006-12-05"},{"Album": "Doggumentary", "City": "Long Beach", "Lyrics": "I'm talkin 'bout?\r\n\r\n[Snoop Dogg]\r\nI blew my throat and I blew my tour\r\nI wound up sippin on soup du", "Artist": "Snoop Dogg", "Country": "USA", "Title": "Superman", "Longitude": "-118.195556", "County": "Los Angeles", "State": "California", "Latitude": "33.768333", "Type": "Solo M", "Release date": "2011-03-29"},{"Album": "Purple Haze", "City": "Harlem", "Lyrics": "the grams in the boot\r\nDamn, I would shoot but fam I would soup\r\nThought Cam was too cute to stand", "Artist": "Camron", "Country": "USA", "Title": "Intro (Purple Haze)", "Longitude": "-73.944862", "County": "Manhattan", "State": "New York", "Latitude": "40.806198", "Type": "Solo M", "Release date": "2004-01-01"},{"Album": "Tha Carter IV", "City": "New Orleans", "Lyrics": "the mythical truth\r\nDrowning in the political soup\r\nThey shoot missiles and nukes\r\nTaking out such a pivotal", "Artist": "Lil Wayne", "Country": "USA", "Title": "President Carter", "Longitude": "-90.077714", "County": "Orleans", "State": "Louisiana", "Latitude": "29.95369", "Type": "Solo M", "Release date": "2011-08-29"},{"Album": "Broke With Expensive Taste", "City": "Harlem", "Lyrics": "of this lit\r\nHe\u00e2\u20ac\u2122s souping his drip, from the roof of this clit\r\n\r\n[Hook]\r\nBrrrrrrrr-brrrrrr", "Artist": "Azelia Banks", "Country": "USA", "Title": "Yung Rapunxel", "Longitude": "-73.948372", "County": "Manhattan", "State": "New York", "Latitude": "40.809033", "Type": "Solo F", "Release date": "2014-01-01"},{"Album": "Rebirth", "City": "New Orleans", "Lyrics": "Suck me like soup and I'mma eat you like surf n' turf\r\nHah! Just let me know when you comin\r\nAnd my", "Artist": "Lil Wayne", "Country": "USA", "Title": "One Way Trip", "Longitude": "-90.077714", "County": "Orleans", "State": "Louisiana", "Latitude": "29.95369", "Type": "Solo M", "Release date": "2010-02-02"},{"Album": "Late Registration", "City": "Chicago", "Lyrics": "You fixed me up something that was good for my soul\r\nFamous homemade chicken soup, can I have", "Artist": "Kanye West", "Country": "USA", "Title": "Hey Mama", "Longitude": "-87.632409", "County": "Cook", "State": "Illinois", "Latitude": "41.88415", "Type": "Solo M", "Release date": "2005-01-01"},{"Album": "Back Up Off Me!", "City": "Compton", "Lyrics": "like a storm door\r\n(Ka-PLAOW!) I guess ya souped you want some more here's a scoop\r\nDon't weep, don't", "Artist": "Dr. Dre", "Country": "USA", "Title": "East Coast Sound", "Longitude": "-118.224329", "County": "Los Angeles", "State": "California", "Latitude": "33.895285", "Type": "Solo M", "Release date": "1994-11-08"},{"Album": "God Forgives, I Don't (French Version)", "City": "Carol City", "Lyrics": "Everything whipped well, I'm eatin' steak, no more soup\r\nThen I parked the Caprice, I went and bought me", "Artist": "Rick Ross", "Country": "USA", "Title": "Hold Me Back (French Version)", "Longitude": "-80.269920", "County": "Miami-Dade", "State": "Florida", "Latitude": "25.942121", "Type": "Solo M", "Release date": "2012-07-30"},{"Album": "Return of the Boom Bap", "City": "South Bronx", "Lyrics": "Cause the next day them gone, and you sit alone\r\nGot em soup up your mic, pon de micraphone\r\n\r\nChorus", "Artist": "KRS-ONE", "Country": "USA", "Title": "Brown Skin Woman", "Longitude": "-73.91735", "County": "The Bronx", "State": "New York", "Latitude": "40.81621", "Type": "Solo M", "Release date": "1993-09-28"},{"Album": "Record Single", "City": "Uniondale", "Lyrics": "yuh waistline\r\nFollow di bassline, right now, stir it\r\n\u00e2\u20ac\u02dcRound like, a bowl of soup, \u00e2\u20ac\u2122round like", "Artist": "Busta Rhymes", "Country": "USA", "Title": "Twerk It (Remix) (Ft. Nicki Minaj) prod. by Pharrell Williams", "Longitude": "-73.593544", "County": "Nassau", "State": "New York", "Latitude": "40.717935", "Type": "Solo M", "Release date": null},{"Album": "The R.E.D. Album", "City": "Compton", "Lyrics": "video shoot\r\nI was sucking that pussy like it was wonton soup\r\nThen I hit Lebron's mom in bron-bron's", "Artist": "Game", "Country": "USA", "Title": "Martians vs. Goblins", "Longitude": "-118.224329", "County": "Los Angeles", "State": "California", "Latitude": "33.895285", "Type": "Solo M", "Release date": "2011-08-19"},{"Album": "Only Built 4 Cuban Linx Pt Ii", "City": "Staten Island", "Lyrics": "Who drive Exeleros with jewels\r\nBrolic boots on, olive Goose, calamari soups and noodles", "Artist": "Raekwon", "Country": "USA", "Title": "Catalina", "Longitude": "-74.144839", "County": "Richmond", "State": "New York", "Latitude": "40.576281", "Type": "Solo M", "Release date": "2009-01-01"},{"Album": "God Forgives, I Don't", "City": "Carol City", "Lyrics": "eatin' steak, no more soup\r\nThen I parked the Caprice, I went and bought me a coupe\r\nEverything", "Artist": "Rick Ross", "Country": "USA", "Title": "Hold Me Back", "Longitude": "-80.269920", "County": "Miami-Dade", "State": "Florida", "Latitude": "25.942121", "Type": "Solo M", "Release date": "2012-07-30"},{"Album": "Kon the Louis Vuitton Don", "City": "Chicago", "Lyrics": "curious\r\nIt got you souped up like the cars on The Fast & Furious\r\nYou going through moving critters", "Artist": "Kanye West", "Country": "USA", "Title": "Keep the Receipt", "Longitude": "-87.632409", "County": "Cook", "State": "Illinois", "Latitude": "41.88415", "Type": "Solo M", "Release date": "2000-01-01"},{"Album": "Tha Carter III", "City": "New Orleans", "Lyrics": "the roof, so the coupe don't melt\r\nMan, theflow so cold chicken soup won't help\r\nWe need fo' mo' hoes", "Artist": "Lil Wayne", "Country": "USA", "Title": "Lollipop (Remix)", "Longitude": "-90.077714", "County": "Orleans", "State": "Louisiana", "Latitude": "29.95369", "Type": "Solo M", "Release date": "2008-01-01"},{"Album": "The Sneak Attack", "City": "South Bronx", "Lyrics": "they felt so glorified\r\nShe made steamed fish, baked fish, fish that was fried\r\nSoup, steamed", "Artist": "KRS-ONE", "Country": "USA", "Title": "False Pride", "Longitude": "-73.91735", "County": "The Bronx", "State": "New York", "Latitude": "40.81621", "Type": "Solo M", "Release date": "2001-01-01"},{"Album": "No Ceilings", "City": "New Orleans", "Lyrics": "fucking percentage\r\nI cuss a lot cause bitch I'm seers\r\nYoung no beard, get soup\r\nLike gumbo with shrimp", "Artist": "Lil Wayne", "Country": "USA", "Title": "That's All I Have", "Longitude": "-90.077714", "County": "Orleans", "State": "Louisiana", "Latitude": "29.95369", "Type": "Solo M", "Release date": "2009-10-31"},{"Album": "The Come Up Mixtape Vol. 1", "City": "Fayetteville", "Lyrics": "'\r\nAnd just think I was raised on ramen -- chicken noodle soup\r\nNow I'm filet mignon-in'\r\nI promised my", "Artist": "J. Cole", "Country": "USA", "Title": "The Come Up", "Longitude": "-78.878056", "County": "Cumberland", "State": "North Carolina", "Latitude": "35.0525", "Type": "Solo M", "Release date": "2008-05-03"},{"Album": "Record Single", "City": "Uniondale", "Lyrics": ", a bowl of soup, \u00e2\u20ac\u2122round like a hula hoop\r\n\u00e2\u20ac\u02dcRound like yuh batty cute and do it, on purpose\r\nWine", "Artist": "Busta Rhymes", "Country": "USA", "Title": "Twerk It prod. by Pharrell Williams", "Longitude": "-73.593544", "County": "Nassau", "State": "New York", "Latitude": "40.717935", "Type": "Solo M", "Release date": null},{"Album": "Dead Man Walkin", "City": "Long Beach", "Lyrics": "Pound out the moon, Johnny longing for soup\r\n\r\nChorus 2x\r\n\r\nEverybody in my family is nervous and waitin", "Artist": "Snoop Dogg", "Country": "USA", "Title": "Change Gone Come", "Longitude": "-118.195556", "County": "Los Angeles", "State": "California", "Latitude": "33.768333", "Type": "Solo M", "Release date": "2000-10-31"},{"Album": "Phenomenon", "City": "Queens", "Lyrics": "daddy)\r\n\r\nHe was all souped up, but played it just right\r\nMami I was full blown, my game was air", "Artist": "LL Cool J", "Country": "USA", "Title": "Phenomenon", "Longitude": "-73.829959", "County": "Queens", "State": "New York", "Latitude": "40.713985", "Type": "Solo M", "Release date": "1997-01-01"},{"Album": "Hidden Darts: Special Edition", "City": "Staten Island", "Lyrics": "chunky like I'm advertising soup from Campbell's\r\nBowl legged old man give me props, all I do is buy", "Artist": "Ghostface Killah", "Country": "USA", "Title": "Murda Goons", "Longitude": "-74.144839", "County": "Richmond", "State": "New York", "Latitude": "40.576281", "Type": "Solo M", "Release date": "2007-03-13"},{"Album": "Eardrum", "City": "Park Slope", "Lyrics": "hotter than Tuscon when the soup's on\r\nMy son like \"Daddy, I be missing you when you gone\"\r\nI said I", "Artist": "Talib Kweli", "Country": "USA", "Title": "Oh My Stars", "Longitude": "-73.977063", "County": "Kings", "State": "New York", "Latitude": "40.672404", "Type": "Solo M", "Release date": "2007-08-21"},{"Album": "Record Single", "City": "Compton", "Lyrics": "like it was wonton soup\r\nThen I hit Lebron's mom in bron-bron's coupe\r\nWith Delonte West taping, we", "Artist": "Game", "Country": "USA", "Title": "Martians vs. Goblins (Ft. Lil Wayne & Tyler The Creator) prod. by 1500 or Nothin'", "Longitude": "-118.224329", "County": "Los Angeles", "State": "California", "Latitude": "33.895285", "Type": "Solo M", "Release date": null},{"Album": "Untold Story", "City": "Compton", "Lyrics": "Have you eatin soup for months, broken jaw, lick your shit out of straws\r\nI guess I got that same", "Artist": "Game", "Country": "USA", "Title": "Drama is Real", "Longitude": "-118.224329", "County": "Los Angeles", "State": "California", "Latitude": "33.895285", "Type": "Solo M", "Release date": "2004-10-05"},{"Album": "Oz soundtrack", "City": "Long Beach", "Lyrics": "a cup of soup and some woop woopMuch love O.G. Big SnoopI sent a nigga a package, on MondayI got a G", "Artist": "Snoop Dogg", "Country": "USA", "Title": "Land of Oz", "Longitude": "-118.195556", "County": "Los Angeles", "State": "California", "Latitude": "33.768333", "Type": "Solo M", "Release date": "2001-01-09"},{"Album": "Da Drought 3", "City": "New Orleans", "Lyrics": "no Donovan\r\nBoy you better go eat some soup with your mom n' them\r\nAnd my mind is on another continent\r\nI", "Artist": "Lil Wayne", "Country": "USA", "Title": "Black Republicans", "Longitude": "-90.077714", "County": "Orleans", "State": "Louisiana", "Latitude": "29.95369", "Type": "Solo M", "Release date": "2007-04-13"},{"Album": "Da Drought 3", "City": "New Orleans", "Lyrics": "World\r\nCampbell's soup on the wrist, just call me Earl\r\nLil' Marl, don't shoot em, ya heard\r\nI get", "Artist": "Lil Wayne", "Country": "USA", "Title": "Get High Rule The World", "Longitude": "-90.077714", "County": "Orleans", "State": "Louisiana", "Latitude": "29.95369", "Type": "Solo M", "Release date": "2007-04-13"},{"Album": "More Fish", "City": "Staten Island", "Lyrics": "Blackstreet, suede wallets, Wallabees\r\nPea soup Clarks, music blastin', laughin' with the whip in park", "Artist": "Ghostface Killah", "Country": "USA", "Title": "Outta Town Shit", "Longitude": "-74.144839", "County": "Richmond", "State": "New York", "Latitude": "40.576281", "Type": "Solo M", "Release date": "2006-01-01"},{"Album": "10", "City": "Queens", "Lyrics": "heart, it can never be erased\r\nThank you so much, you taught me well\r\nHow to not get souped up, because", "Artist": "LL Cool J", "Country": "USA", "Title": "Big Mama (Unconditional Love)", "Longitude": "-73.829959", "County": "Queens", "State": "New York", "Latitude": "40.713985", "Type": "Solo M", "Release date": "2003-01-01"},{"Album": "This is Not a Test!", "City": "Portsmouth", "Lyrics": ". Young One\r\nMr. Young One had a big ding-dong\r\nBalls the size of ping-pong\r\nI had him souped like", "Artist": "Missy Elliott", "Country": "USA", "Title": "Let Me Fix My Weave", "Longitude": "-76.297715", "County": "Portsmouth", "State": "Virginia", "Latitude": "36.832642", "Type": "Solo F", "Release date": "2003-11-25"},{"Album": "S.D.E. (Sports Drugs and Entertainment)", "City": "Harlem", "Lyrics": "was whoa whoa\r\nNow we got that cocoa\r\nChon ton won ton\r\nChincs call us wantan\r\nCuz we all souped", "Artist": "Camron", "Country": "USA", "Title": "(Where the) Fuck You At", "Longitude": "-73.944862", "County": "Manhattan", "State": "New York", "Latitude": "40.806198", "Type": "Solo M", "Release date": "2000-01-01"},{"Album": "Relapse", "City": "Detroit", "Lyrics": "puke\r\nAnd just as soon as you pass out in your alphabet soup\r\nI'm 'bout to make a new outfit outta", "Artist": "Eminem", "Country": "USA", "Title": "Same Song & Dance", "Longitude": "-83.045833", "County": "Wayne", "State": "Michigan", "Latitude": "42.331389", "Type": "Solo M", "Release date": "2009-05-19"},{"Album": "D.I.G.I.T.A.L.", "City": "South Bronx", "Lyrics": "like veggie soup\r\nSmashin any group or solo\r\nYou better go yo, my style is def, your style is so-so", "Artist": "KRS-ONE", "Country": "USA", "Title": "When the Moon...", "Longitude": "-73.91735", "County": "The Bronx", "State": "New York", "Latitude": "40.81621", "Type": "Solo M", "Release date": "2003-01-01"},{"Album": "Eardrum", "City": "Park Slope", "Lyrics": "Beach though, all these rappers soup like miso, we go\r\nBack in the days like reminiscing with Pete yo", "Artist": "Talib Kweli", "Country": "USA", "Title": "Stay Around", "Longitude": "-73.977063", "County": "Kings", "State": "New York", "Latitude": "40.672404", "Type": "Solo M", "Release date": "2007-08-21"},{"Album": "10", "City": "Queens", "Lyrics": "heart, it can never be erased\r\nThank you so much, you taught me well\r\nHow to not get souped up, because", "Artist": "LL Cool J", "Country": "USA", "Title": "Big Mama (Unconditional Love)", "Longitude": "-73.829959", "County": "Queens", "State": "New York", "Latitude": "40.713985", "Type": "Solo M", "Release date": "2003-01-01"},{"Album": "Bigger and Deffer", "City": "Queens", "Lyrics": ", cut 'em up in chunks\r\nYou were souped, you heard me, and your ego shrunk\r\nI'm devastating I'm so good", "Artist": "LL Cool J", "Country": "USA", "Title": "I'm Bad", "Longitude": "-73.829959", "County": "Queens", "State": "New York", "Latitude": "40.713985", "Type": "Solo M", "Release date": "1987-01-01"},{"Album": "Hidden Darts: Special Edition", "City": "Staten Island", "Lyrics": "in stones\r\nChunky and I ain't talkin chicken noodle soup\r\nGot a V for Vendetta this year and need", "Artist": "Ghostface Killah", "Country": "USA", "Title": "Return of Theodore Unit", "Longitude": "-74.144839", "County": "Richmond", "State": "New York", "Latitude": "40.576281", "Type": "Solo M", "Release date": "2007-03-13"},{"Album": "Until the End of Time", "City": "Marin City", "Lyrics": "plates to soup ya\r\n1 2's we oughta cruise right by the state troopers\r\nWhen I'm drinkin Cristal", "Artist": "2Pac", "Country": "USA", "Title": "M.O.B.", "Longitude": "-122.516579", "County": "Marin", "State": "California", "Latitude": "37.87199", "Type": "Solo M", "Release date": "2001-01-01"},{"Album": "Thank Me Later", "City": "Toronto", "Lyrics": "to a vegetable like you lyin' in soup\r\nAnd when I'm in the booth, bitch, the lion is loose\r\nMan I got so many", "Artist": "Drake", "Country": "CAN", "Title": "Miss Me", "Longitude": "-79.4", "County": "", "State": "Ontario", "Latitude": "43.7", "Type": "Solo M", "Release date": "2010-06-15"},{"Album": "Fly Away", "City": "Detroit", "Lyrics": "star, I fuck an RV-up like Brett Favre\r\nHomie you got it backwards, you're dipping your soup\r\nInside", "Artist": "Eminem", "Country": "USA", "Title": "Fly Away", "Longitude": "-83.045833", "County": "Wayne", "State": "Michigan", "Latitude": "42.331389", "Type": "Solo M", "Release date": "2011-01-01"},{"Album": "Mr. Smith", "City": "Queens", "Lyrics": "their troops, they can't recoup from drinkin acid soup\r\nSpectacular, benacular, miraculous raw shit", "Artist": "LL Cool J", "Country": "USA", "Title": "No Airplay", "Longitude": "-73.829959", "County": "Queens", "State": "New York", "Latitude": "40.713985", "Type": "Solo M", "Release date": "1995-11-21"},{"Album": "Record Single", "City": "Queens", "Lyrics": "friends in the jewelry store\r\nTold me, \"Todd, come back when you get off tour\"\r\nSouped as hell, I really", "Artist": "LL Cool J", "Country": "USA", "Title": "Cheesy Rat Blues", "Longitude": "-73.829959", "County": "Queens", "State": "New York", "Latitude": "40.713985", "Type": "Solo M", "Release date": null},{"Album": "Record Single", "City": "Park Slope", "Lyrics": "of\r\nThe year's clear your image and snooped up\r\nLabel got you souped up, tellin' you you sick\r\nWhen you", "Artist": "Talib Kweli", "Country": "USA", "Title": "Get Em High (Kanye West) (Ft. Common) prod. by Kanye West", "Longitude": "-73.977063", "County": "Kings", "State": "New York", "Latitude": "40.672404", "Type": "Solo M", "Release date": null},{"Album": "Def Jam Classics Vol. 1", "City": "Queens", "Lyrics": "will never recoup\r\nWhen I'm finished with you, boy, you'll be suckin' on soup\r\nMusic virtuoso", "Artist": "LL Cool J", "Country": "USA", "Title": "Rock the Bells (Original)", "Longitude": "-73.829959", "County": "Queens", "State": "New York", "Latitude": "40.713985", "Type": "Solo M", "Release date": "1989-01-01"},{"Album": "Record Single", "City": "Toronto", "Lyrics": "Turn you to a vegetable like you lyin' in soup\r\nAnd when I'm in the booth, bitch, the lion is loose", "Artist": "Drake", "Country": "CAN", "Title": "All Night Long (Miss Me Demo) (Ft. Bun B & Lil Wayne) prod. by Boi-1da & Noah \"40\" Shebib", "Longitude": "-79.4", "County": "", "State": "Ontario", "Latitude": "43.7", "Type": "Solo M", "Release date": null},{"Album": "Eyes in This", "City": "Brooklyn", "Lyrics": ", because you're gettin roasted\r\nDon't listen to your rhyme writers, cause yo, they souped you\r\nYou", "Artist": "MC Lyte", "Country": "USA", "Title": "Shut the Eff Up! (Hoe)", "Longitude": "-73.989872", "County": "Kings", "State": "New York", "Latitude": "40.692385", "Type": "Solo F", "Release date": "1989-10-03"},{"Album": "Record Single", "City": "Chicago", "Lyrics": "of\r\nThe year's clear your image and snooped up\r\nLabel got you souped up, tellin' you you sick\r\nWhen you", "Artist": "Common", "Country": "USA", "Title": "Get Em High (Kanye West) (Ft. Talib Kweli) prod. by Kanye West", "Longitude": "-87.632409", "County": "Cook", "State": "Illinois", "Latitude": "41.88415", "Type": "Solo M", "Release date": null},{"Album": "Record Single", "City": "Toronto", "Lyrics": "' I shoot, you don't need signs for proof\r\nTurn you to a vegetable like you lyin' in soup\r\nAnd when", "Artist": "Drake", "Country": "CAN", "Title": "All Night Long (Miss Me Demo)", "Longitude": "-79.4", "County": "", "State": "Ontario", "Latitude": "43.7", "Type": "Solo M", "Release date": null},{"Album": "The College Dropout", "City": "Chicago", "Lyrics": ", how come, you the hot garbage of\r\nThe year's clear your image and snooped up\r\nLabel got you souped", "Artist": "Kanye West", "Country": "USA", "Title": "Get Em High", "Longitude": "-87.632409", "County": "Cook", "State": "Illinois", "Latitude": "41.88415", "Type": "Solo M", "Release date": "2004-02-10"},{"Album": "D.I.G.I.T.A.L.", "City": "South Bronx", "Lyrics": "!\r\nDon't let these young kids go soup that ass up\r\nYou'll get smashed up, you gassed up, you puttin", "Artist": "KRS-ONE", "Country": "USA", "Title": "As You Already Know", "Longitude": "-73.91735", "County": "The Bronx", "State": "New York", "Latitude": "40.81621", "Type": "Solo M", "Release date": "2003-01-01"},{"Album": "Mama Said Knock You Out", "City": "Queens", "Lyrics": "friends in the jewelry store\r\nTold me, \"Todd, come back when you get off tour\"\r\nSouped as hell, I really", "Artist": "LL Cool J", "Country": "USA", "Title": "Cheesy Rat Blues", "Longitude": "-73.829959", "County": "Queens", "State": "New York", "Latitude": "40.713985", "Type": "Solo M", "Release date": "1991-01-01"},{"Album": "Record Single", "City": "The Bronx", "Lyrics": "shootin' hoops\r\nI break a chicken down to some noodle soup\r\nI buy a Rolls Royce like a Subaru\r\nI buy", "Artist": "Cory Gunz", "Country": "USA", "Title": "CivilTV Next Up Cypher", "Longitude": "-73.886", "County": "The Bronx", "State": "New York", "Latitude": " 40.8373", "Type": "Solo M", "Release date": null},{"Album": "BET Cyphers 2011", "City": "Detroit", "Lyrics": "for effort, that's WWA\r\nWhite with an attitude\r\nAlphabet soup is on my plate\r\nAll I got is Z's", "Artist": "Eminem", "Country": "USA", "Title": "BET Shady 2.0 Cypher", "Longitude": "-83.045833", "County": "Wayne", "State": "Michigan", "Latitude": "42.331389", "Type": "Solo M", "Release date": "2011-01-01"},{"Album": "Record Single", "City": "Harlem", "Lyrics": "\u00c3\u00a0 la t\u00c3\u00a9l\u00c3\u00a9 et non vos soupes\r\nNan, nan du talent dans nos rues en soif de diffusion\r\nMais vos", "Artist": "Camron", "Country": "USA", "Title": "#25 T\u00c3\u0192\u00c2\u00a9l\u00c3\u0192\u00c2\u00a9 Rap", "Longitude": "-73.944862", "County": "Manhattan", "State": "New York", "Latitude": "40.806198", "Type": "Solo M", "Release date": null},{"Album": "Record Single", "City": "Harlem", "Lyrics": "vos sornettes\r\nMettez-nous du bon Hip-Hop \u00c3\u00a0 la t\u00c3\u00a9l\u00c3\u00a9 et non vos soupes\r\nNan, nan du talent dans nos", "Artist": "Camron", "Country": "USA", "Title": "#25 T\u00c3\u0192\u00c2\u00a9l\u00c3\u0192\u00c2\u00a9 Rap (Pi\u00c3\u0192\u00c2\u00a8ge de freestyle) (Ft. 2ksee, 2-zer, A2H, Aladoum, Amy, Artik, BARHOW, Billie Brelok, Blackapar, Cheeko, Dandyguel, D'Click, Exnilo, Fibo, Gab, Gizzle, Gyst\u00c3\u0192\u00c2\u00a8re, Heazzy, Hippocampe Fou, Kenyon, K-LY, KOF, Kombo, Laetitia Dana, L", "Longitude": "-73.944862", "County": "Manhattan", "State": "New York", "Latitude": "40.806198", "Type": "Solo M", "Release date": null}]