[{"Album": "Sucka Free (Mixtape)", "City": "Jamaica", "Lyrics": "Sit up in the Rolls maybe roll to my residence\r\nStay around Fendi\r\nHe love my spaghetti\r\nHe let me", "Artist": "Nicki Minaj", "Country": "USA", "Title": "Young Money Ballaz", "Longitude": "-73.80842", "County": "Queens", "State": "New York", "Latitude": "40.701782", "Type": "Solo F", "Release date": "2008-01-01"},{"Album": "Mutant Mind Frame", "City": "Atlanta", "Lyrics": ", spaghetti\r\nOff in Japan they call me Yeti\r\nI'm the Boogie Man\r\n\r\n[Andre 3000: Hook]\r\n\r\n[Big Gipp]\r\nI'm", "Artist": "Andre 3000", "Country": "USA", "Title": "Boogieman", "Longitude": "-84.296548", "County": "DeKalb", "State": "Georgia", "Latitude": "33.775746", "Type": "Solo M", "Release date": "2003-01-01"},{"Album": "The Pinkprint", "City": "Jamaica", "Lyrics": "yeah, them girls bad, but I'm fucking heavy\r\nI'mma fuck around and have them looking like spaghetti\r\nI", "Artist": "Nicki Minaj", "Country": "USA", "Title": "Four Door Aventador", "Longitude": "-73.80842", "County": "Queens", "State": "New York", "Latitude": "40.701782", "Type": "Solo F", "Release date": "2014-01-01"},{"Album": "Record Single", "City": "Atlanta", "Lyrics": "media, spaghetti\r\nOff in Japan they call me Yeti\r\nI'm the Boogie Man\r\n\r\n[Andre 3000: Hook]\r\n\r\n[Big", "Artist": "Andre 3000", "Country": "USA", "Title": "Boogieman (Big Gipp)", "Longitude": "-84.296548", "County": "DeKalb", "State": "Georgia", "Latitude": "33.775746", "Type": "Solo M", "Release date": null},{"Album": "Life After Death", "City": "Bedford\u2013Stuyvesant", "Lyrics": "So no, caviar, sharp bar, uh uh\r\nStrictly sex that's pretty and leftover spaghetti\r\nI know you used", "Artist": "The Notorious B.I.G.", "Country": "USA", "Title": "Fuck You Tonight", "Longitude": "-73.963796", "County": "Kings", "State": "New York", "Latitude": "40.692385", "Type": "Solo M", "Release date": "1997-01-01"},{"Album": "Attack the Block", "City": "Park Slope", "Lyrics": "spaghetti sauce and lettuce chopped up with your body left in a crevice\r\nWe the reverends performing", "Artist": "Talib Kweli", "Country": "USA", "Title": "Congregation", "Longitude": "-73.977063", "County": "Kings", "State": "New York", "Latitude": "40.672404", "Type": "Solo M", "Release date": "2011-01-01"},{"Album": "The Suffix", "City": "New Orleans", "Lyrics": "like spaghetti\r\nI\u00e2\u20ac\u2122m a nice young d-boy baby\r\nI digest your man like a t-bone baby\r\nKeep on I got", "Artist": "Lil Wayne", "Country": "USA", "Title": "Get 'Em Off Me", "Longitude": "-90.077714", "County": "Orleans", "State": "Louisiana", "Latitude": "29.95369", "Type": "Solo M", "Release date": "2005-11-20"},{"Album": "Rich Forever", "City": "Carol City", "Lyrics": "it was for the weapon\r\nNowadays niggas reach just to sell they record\r\nSpaghetti bolognese", "Artist": "Rick Ross", "Country": "USA", "Title": "Stay Schemin'", "Longitude": "-80.269920", "County": "Miami-Dade", "State": "Florida", "Latitude": "25.942121", "Type": "Solo M", "Release date": "2012-01-06"},{"Album": "Cam'Ron Presents DukeDaGod - DipSet: The Movement Moves On", "City": "Harlem", "Lyrics": "to everything now focus on this heavy bling\r\nEat at Reyo's....Fettucini, Spaghetti things\r\nCheddy heavy so", "Artist": "Camron", "Country": "USA", "Title": "War", "Longitude": "-73.944862", "County": "Manhattan", "State": "New York", "Latitude": "40.806198", "Type": "Solo M", "Release date": "2006-04-11"},{"Album": "Only Built 4 Cuban Linx...", "City": "Staten Island", "Lyrics": "the derby like the mobster\r\n\r\n[Interlude: Big Un]\r\nYeah, yeah\r\nEight spaghetti lame brain ass", "Artist": "Raekwon", "Country": "USA", "Title": "Ice Water", "Longitude": "-74.144839", "County": "Richmond", "State": "New York", "Latitude": "40.576281", "Type": "Solo M", "Release date": "1995-08-01"},{"Album": "Deeper Than Rap", "City": "Carol City", "Lyrics": "As my fetti grow, fuck her, feed her Spaghetti-Os\r\nI'm club hopping in Cali, shout out to Ariel", "Artist": "Rick Ross", "Country": "USA", "Title": "Usual Suspects", "Longitude": "-80.269920", "County": "Miami-Dade", "State": "Florida", "Latitude": "25.942121", "Type": "Solo M", "Release date": "2009-01-01"},{"Album": "Rich Forever (French Version)", "City": "Carol City", "Lyrics": "it was for the weapon\r\nNowadays niggas reach just to sell they record\r\nSpaghetti bolognese in the Polo", "Artist": "Rick Ross", "Country": "USA", "Title": "Stay Schemin' ( French Version )", "Longitude": "-80.269920", "County": "Miami-Dade", "State": "Florida", "Latitude": "25.942121", "Type": "Solo M", "Release date": null},{"Album": "Apollo Kids", "City": "Staten Island", "Lyrics": "Spaghetti-O's\r\nPoppy Wardrobe, Mexican, handle a hose\r\nAll my gutter gang crew, got border patrol", "Artist": "Ghostface Killah", "Country": "USA", "Title": "Black Tequila", "Longitude": "-74.144839", "County": "Richmond", "State": "New York", "Latitude": "40.576281", "Type": "Solo M", "Release date": "2010-01-01"},{"Album": "Tha Carter", "City": "New Orleans", "Lyrics": "don't affiliate with baller blockers I'm too heavy\r\nMeatball Lamborghini top spaghetti\r\nSeats Ragu,20", "Artist": "Lil Wayne", "Country": "USA", "Title": "Bring It Back", "Longitude": "-90.077714", "County": "Orleans", "State": "Louisiana", "Latitude": "29.95369", "Type": "Solo M", "Release date": "2002-07-23"},{"Album": "Fly Away", "City": "Detroit", "Lyrics": "there with a damn machete\r\nShe's probably gonna eat you like canned spaghetti\r\nShe's probably gonna kill you, still", "Artist": "Eminem", "Country": "USA", "Title": "Wee Wee", "Longitude": "-83.045833", "County": "Wayne", "State": "Michigan", "Latitude": "42.331389", "Type": "Solo M", "Release date": "2011-01-01"},{"Album": "Under Construction", "City": "Portsmouth", "Lyrics": "up in your spaghetti daddy\r\nAre you ready for some cavi from me\r\nPussy, gushy, mushy, what more you", "Artist": "Missy Elliott", "Country": "USA", "Title": "Pussycat", "Longitude": "-76.297715", "County": "Portsmouth", "State": "Virginia", "Latitude": "36.832642", "Type": "Solo F", "Release date": "2002-01-01"},{"Album": "heart breakers", "City": "Long Beach", "Lyrics": "dawg, I'm tryin' to find my shrimp\r\nIn the cabbage patch, pink spaghetti\r\n500 crackers I was saving", "Artist": "Snoop Dogg", "Country": "USA", "Title": "Miley CyrusBlack umbrella", "Longitude": "-118.195556", "County": "Los Angeles", "State": "California", "Latitude": "33.768333", "Type": "Solo M", "Release date": null},{"Album": "Dreamchasers", "City": "Philadelphia", "Lyrics": "that will murder for a new bike\r\nHave you looking like you're fresh up out a food fight\r\nSpaghetti on your", "Artist": "Meek Mill", "Country": "USA", "Title": "Work", "Longitude": "-75.166667", "County": "Philadelphia", "State": "Pennsylvania", "Latitude": "39.95", "Type": "Solo M", "Release date": "2011-08-11"},{"Album": "Datz WTF I'm Talking Bout", "City": "The Bronx", "Lyrics": "to the Chevy, 50 G\u00e2\u20ac\u2122s to get ready\r\nNeed a pound of that lobster, we gon\u00e2\u20ac\u2122 need some spaghetti\r\n\u00e2\u20ac\u02dcCause", "Artist": "Cory Gunz", "Country": "USA", "Title": "I'm Laughin", "Longitude": "-73.886", "County": "The Bronx", "State": "New York", "Latitude": " 40.8373", "Type": "Solo M", "Release date": "2013-07-16"},{"Album": "Record Single", "City": "The Bronx", "Lyrics": "spaghetti\r\n\u00e2\u20ac\u02dcCause my niggas is mobbin\u00e2\u20ac\u2122, not to mention we ready\r\nAnd you ain\u00e2\u20ac\u2122t in our family\u00e2", "Artist": "Cory Gunz", "Country": "USA", "Title": "I'm Laughin (Ft. Wiz Khalifa)", "Longitude": "-73.886", "County": "The Bronx", "State": "New York", "Latitude": " 40.8373", "Type": "Solo M", "Release date": null},{"Album": "Shaolin vs. Wu-Tang", "City": "Staten Island", "Lyrics": "Grenada\r\nWild fight, customized dice, get nice in the Trump Tower\r\nDrunk bitch, spaghetti and sliced", "Artist": "Raekwon", "Country": "USA", "Title": "Your World & My World", "Longitude": "-74.144839", "County": "Richmond", "State": "New York", "Latitude": "40.576281", "Type": "Solo M", "Release date": "2011-03-07"},{"Album": "King", "City": "Atlanta", "Lyrics": "to spaghetti when it hit the ground\r\nToss the choppers in the Chevy than we mashing down\r\nCamelton", "Artist": "T.I.", "Country": "USA", "Title": "Undertaker", "Longitude": "-84.41918", "County": "Fulton", "State": "Georgia", "Latitude": "33.77155", "Type": "Solo M", "Release date": "2006-03-28"},{"Album": "Record Single", "City": "Portsmouth", "Lyrics": ", like spaghetti\r\nHalf of yall MCs be stinkin' like boobetti\r\nSo your record label cut you off like", "Artist": "Missy Elliott", "Country": "USA", "Title": "Beat Biters", "Longitude": "-76.297715", "County": "Portsmouth", "State": "Virginia", "Latitude": "36.832642", "Type": "Solo F", "Release date": null},{"Album": "Curtain Call: The Hits", "City": "Detroit", "Lyrics": "are sweaty, knees weak, arms are heavy\r\nThere's vomit on his sweater already: mom's spaghetti\r\nHe's nervous", "Artist": "Eminem", "Country": "USA", "Title": "Lose Yourself", "Longitude": "-83.045833", "County": "Wayne", "State": "Michigan", "Latitude": "42.331389", "Type": "Solo M", "Release date": "2005-12-06"},{"Album": "Cole World: The Sideline Story", "City": "Fayetteville", "Lyrics": "]\r\n\r\n[Verse 2: J. Cole]\r\nYeah, armed and ready, you niggas strung out, you spaghetti\r\nYa paper", "Artist": "J. Cole", "Country": "USA", "Title": "Dollar And A Dream III", "Longitude": "-78.878056", "County": "Cumberland", "State": "North Carolina", "Latitude": "35.0525", "Type": "Solo M", "Release date": "2011-09-27"},{"Album": "Bulletproof Wallets", "City": "Staten Island", "Lyrics": "by the hour\r\nYou're dancing, too, oh baby\r\n\r\n(Ghostface)\r\nBehind the wall action\r\nBarely spaghetti jewels", "Artist": "Ghostface Killah", "Country": "USA", "Title": "Ghost Showers", "Longitude": "-74.144839", "County": "Richmond", "State": "New York", "Latitude": "40.576281", "Type": "Solo M", "Release date": "2001-11-13"},{"Album": "Record Single", "City": "South Bronx", "Lyrics": "spaghetti\r\nEverybody kiss the fucking floor, Joey Crack\r\nBuck em all if they move, Noodles shoot", "Artist": "Big Punisher", "Country": "USA", "Title": "Twinz (Deep Cover '98) (Ft. Fat Joe) prod. by Dr. Dre", "Longitude": "-73.911789", "County": "Bronx", "State": "New York", "Latitude": "40.823318", "Type": "Solo M", "Release date": null},{"Album": "Record Single", "City": "Bedford\u2013Stuyvesant", "Lyrics": "Horace\r\nYeah living the raw deal, three course meals; spaghetti, fettuccine and veal\r\nBut still", "Artist": "Lil Kim", "Country": "USA", "Title": "It's All About The Benjamins (Remix) (Diddy) (Ft. Jadakiss, The Notorious B.I.G. & Sheek Louch)", "Longitude": "-73.944444", "County": "Kings", "State": "New York", "Latitude": "40.688889", "Type": "Solo F", "Release date": null},{"Album": "Record Single", "City": "The Bronx", "Lyrics": "Body Bags (Cassidy)\n\r\n[Cory Gunz:]\r\nGet ready, get set, it's steady\r\nBloody spaghetti shredded", "Artist": "Cory Gunz", "Country": "USA", "Title": "Body Bags (Cassidy)", "Longitude": "-73.886", "County": "The Bronx", "State": "New York", "Latitude": " 40.8373", "Type": "Solo M", "Release date": null},{"Album": "Record Single", "City": "Queens", "Lyrics": "this spaghetti or should I say this spa-get-even\r\nI think you fucking meatballs keep on just forgetting", "Artist": "50 Cent", "Country": "USA", "Title": "My Life (Ft. Adam Levine & Eminem) prod. by S1", "Longitude": "-73.829959", "County": "Queens", "State": "New York", "Latitude": "40.713985", "Type": "Solo M", "Release date": null},{"Album": "Escape From Monsta Island", "City": "Roosevelt", "Lyrics": "really picked\r\nTo see the vic or is he really dead for what he did\r\nLet the machete riffs spaghetti", "Artist": "MF DOOM", "Country": "USA", "Title": "1,2 1,2", "Longitude": "-73.585556", "County": "Nassau", "State": "New York", "Latitude": "40.679167", "Type": "Solo M", "Release date": "2003-01-01"},{"Album": "I Am", "City": "Queensbridge", "Lyrics": "-fo's ready, five masks, five machetes\r\nAttack em like Freddie,then we toastin over spaghetti\r\nI share", "Artist": "Nas", "Country": "USA", "Title": "Favor for a Favor", "Longitude": "-73.937622", "County": "Queens", "State": "New York", "Latitude": "40.756279", "Type": "Solo M", "Release date": "2013-01-01"},{"Album": "Record Single", "City": "The Bronx", "Lyrics": "Body Bags\n\r\n[Cory Gunz:]\r\nGet ready, get set, it's steady\r\nBloody spaghetti shredded, heavy debted", "Artist": "Cory Gunz", "Country": "USA", "Title": "Body Bags", "Longitude": "-73.886", "County": "The Bronx", "State": "New York", "Latitude": " 40.8373", "Type": "Solo M", "Release date": null},{"Album": "Street King Immortal", "City": "Queens", "Lyrics": "of that revenge juice, getting my taste buds ready\r\nTo wolf down this spaghetti or should I say this spa-get", "Artist": "50 Cent", "Country": "USA", "Title": "My Life", "Longitude": "-73.829959", "County": "Queens", "State": "New York", "Latitude": "40.713985", "Type": "Solo M", "Release date": "2016-08-18"},{"Album": "Capital Punishment", "City": "South Bronx", "Lyrics": "Meet me at Vito's with Noodles, we'll do this dude while he's slurping spaghetti\r\nEverybody kiss", "Artist": "Big Punisher", "Country": "USA", "Title": "Twinz (Deep Cover '98)", "Longitude": "-73.911789", "County": "Bronx", "State": "New York", "Latitude": "40.823318", "Type": "Solo M", "Release date": "1998-01-01"},{"Album": "Record Single", "City": "Detroit", "Lyrics": "on his sweater already: mom's spaghetti\r\nHe's nervous, but on the surface he looks calm and ready", "Artist": "Eminem", "Country": "USA", "Title": "Lose Yourself (Ft. Jeff Bass) prod. by Jeff Bass & Luis Resto", "Longitude": "-83.045833", "County": "Wayne", "State": "Michigan", "Latitude": "42.331389", "Type": "Solo M", "Release date": null},{"Album": "Da Real World", "City": "Portsmouth", "Lyrics": ", like spaghetti\r\nHalf of yall MCs be stinkin' like boobetti\r\nSo your record label cut you off like", "Artist": "Missy Elliott", "Country": "USA", "Title": "Beat Biters", "Longitude": "-76.297715", "County": "Portsmouth", "State": "Virginia", "Latitude": "36.832642", "Type": "Solo F", "Release date": "1999-01-01"},{"Album": "Shaolin vs. Wu-Tang", "City": "Staten Island", "Lyrics": "once a nigga done spaghetti slurpin'\r\nFly away in my new, Scaglietti surfin'\r\n\r\n[Hook]\r\n\r\n[Ghostface", "Artist": "Raekwon", "Country": "USA", "Title": "Molasses", "Longitude": "-74.144839", "County": "Richmond", "State": "New York", "Latitude": "40.576281", "Type": "Solo M", "Release date": "2011-03-07"},{"Album": "Rich Forever", "City": "Carol City", "Lyrics": "the rules\r\nI'm just making ends meet with this plate of food\r\nWent from Spaghetti-O's to a new set of Vogues", "Artist": "Rick Ross", "Country": "USA", "Title": "MMG The World Is Ours", "Longitude": "-80.269920", "County": "Miami-Dade", "State": "Florida", "Latitude": "25.942121", "Type": "Solo M", "Release date": "2012-01-06"},{"Album": "Record Single", "City": "New Orleans", "Lyrics": "my shit spaghetti tight\r\nPlayboy put the hood on that\r\nWe buy sports cars and put the fuckin' hood", "Artist": "Lil Wayne", "Country": "USA", "Title": "10,000 Bars", "Longitude": "-90.077714", "County": "Orleans", "State": "Louisiana", "Latitude": "29.95369", "Type": "Solo M", "Release date": null}]