[{"Album": "Tha Carter", "City": "New Orleans", "Lyrics": "or dogs,rats or snakes, Sams or Jakes\r\nRound here its all gravy, ham and steak\r\nMama cookin that up here", "Artist": "Lil Wayne", "Country": "USA", "Title": "Walk Out", "Longitude": "-90.077714", "County": "Orleans", "State": "Louisiana", "Latitude": "29.95369", "Type": "Solo M", "Release date": "2002-07-23"},{"Album": "What's Poppin Volume 1", "City": "Fayetteville", "Lyrics": "heard it in your toneWell now you know I got to get the chromeWe spent the mortgage at the steak", "Artist": "J. Cole", "Country": "USA", "Title": "Action BronsonAction", "Longitude": "-78.878056", "County": "Cumberland", "State": "North Carolina", "Latitude": "35.0525", "Type": "Solo M", "Release date": "2011-01-01"},{"Album": "Chase the Cat", "City": "East Oakland", "Lyrics": "[Hook: Kokane]\r\nWe got, top-notch hoes, y'all fools got crack-hoes\r\nWe eatin sirloin steak, y'all", "Artist": "Too Short", "Country": "USA", "Title": "This How We Eat", "Longitude": "-122.2591", "County": "Oakland", "State": "California", "Latitude": "37.8039", "Type": "Solo M", "Release date": "2001-11-20"},{"Album": "Purple Haze", "City": "Harlem", "Lyrics": "\"I'm gettin money niggaa\"\r\nY'all faking the fizzle, I'm caking for shizzle\r\nFuck a Sizzler steak; my", "Artist": "Camron", "Country": "USA", "Title": "Get 'Em Girls", "Longitude": "-73.944862", "County": "Manhattan", "State": "New York", "Latitude": "40.806198", "Type": "Solo M", "Release date": "2004-01-01"},{"Album": "Only Built 4 Cuban Linx Pt Ii", "City": "Staten Island", "Lyrics": "at TrishShe take a bone like a rib-eye steak at Ruth's ChrisYo, be\r\neasy on the trigger, son, you", "Artist": "Raekwon", "Country": "USA", "Title": "Gihad", "Longitude": "-74.144839", "County": "Richmond", "State": "New York", "Latitude": "40.576281", "Type": "Solo M", "Release date": "2009-01-01"},{"Album": "Untitled", "City": "Queensbridge", "Lyrics": "presidential candidates is planning wars with other nations\r\nOver steak with Masons\r\nPregnant teens give", "Artist": "Nas", "Country": "USA", "Title": "Queens Get The Money", "Longitude": "-73.937622", "County": "Queens", "State": "New York", "Latitude": "40.756279", "Type": "Solo M", "Release date": "2008-01-01"},{"Album": "F.I.L.A.", "City": "Staten Island", "Lyrics": ", part-time Cuban\r\nWho only eat steaks and grapes, boo how you moving\r\nPerfectionist, applause", "Artist": "Raekwon", "Country": "USA", "Title": "Son Of Sam", "Longitude": "-74.144839", "County": "Richmond", "State": "New York", "Latitude": "40.576281", "Type": "Solo M", "Release date": "2015-04-28"},{"Album": "Record Single", "City": "Brooklyn", "Lyrics": "and poultry shoving it in peoples faces\r\nI don't castigate people for not eating steak sandwiches\r\nAnd I would", "Artist": "Jean Grae", "Country": "USA", "Title": "Beef and Broccoli (Immortal Technique)", "Longitude": "-73.989872", "County": "Kings", "State": "New York", "Latitude": "40.692385", "Type": "Solo F", "Release date": null},{"Album": "Revolutionary Vol 1", "City": "Brooklyn", "Lyrics": "it in peoples faces\r\nI don't castigate people for not eating steak sandwiches\r\nAnd I would never diss someone", "Artist": "Jean Grae", "Country": "USA", "Title": "Beef and Broccoli", "Longitude": "-73.989872", "County": "Kings", "State": "New York", "Latitude": "40.692385", "Type": "Solo F", "Release date": "2001-01-01"},{"Album": "Sell Sole", "City": "Detroit", "Lyrics": "in the sky\r\nWe been eatin' good, hater how you like me now?\r\nAll that steak and all that shrimp, I done", "Artist": "DeJ Loaf", "Country": "USA", "Title": "Ayo", "Longitude": "-83.045833", "County": "Wayne", "State": "Michigan", "Latitude": "42.331389", "Type": "Solo F", "Release date": "2014-10-01"},{"Album": "Purple Haze", "City": "Harlem", "Lyrics": "cake\r\nRemember Jim we getting out of 5H (projects)\r\nNow chefs will fry us steaks\r\nIt's a higher", "Artist": "Camron", "Country": "USA", "Title": "Get Down", "Longitude": "-73.944862", "County": "Manhattan", "State": "New York", "Latitude": "40.806198", "Type": "Solo M", "Release date": "2004-01-01"},{"Album": "I Am (T.I. vs T.I.P.)", "City": "Atlanta", "Lyrics": "from the police in each state\r\nCan a young G take? I'm dying to eat steak, with a mill in each safe", "Artist": "T.I.", "Country": "USA", "Title": "Message To The Government", "Longitude": "-84.41918", "County": "Fulton", "State": "Georgia", "Latitude": "33.77155", "Type": "Solo M", "Release date": "2007-03-27"},{"Album": "Public enemy", "City": "Harlem", "Lyrics": "in the garden just beware of bait\r\nThey starvin, niggas eatin, nope they wouldn't share they steak", "Artist": "Camron", "Country": "USA", "Title": "Hot mess", "Longitude": "-73.944862", "County": "Manhattan", "State": "New York", "Latitude": "40.806198", "Type": "Solo M", "Release date": "2007-10-26"},{"Album": "Untitled", "City": "Queensbridge", "Lyrics": "steak tartar, pinot noir\r\nDavid Star on the chain of Sammy Davis\r\nHe helped pave the way", "Artist": "Nas", "Country": "USA", "Title": "You Can't Stop Us Now", "Longitude": "-73.937622", "County": "Queens", "State": "New York", "Latitude": "40.756279", "Type": "Solo M", "Release date": "2008-01-01"},{"Album": "Playtime is Over (Mixtape)", "City": "Jamaica", "Lyrics": "in my face bout you make mistakes\r\nIf I'da known you was fake I'da laced your steak\r\nStrick nine one", "Artist": "Nicki Minaj", "Country": "USA", "Title": "Letcha Go", "Longitude": "-73.80842", "County": "Queens", "State": "New York", "Latitude": "40.701782", "Type": "Solo F", "Release date": "2007-01-01"},{"Album": "Authentic", "City": "Queens", "Lyrics": "everywhere, everyone is keeping score\r\nEverybody talkin bout what's up bout the tour\r\nThe world is a steak", "Artist": "LL Cool J", "Country": "USA", "Title": "We're The Greatest", "Longitude": "-73.829959", "County": "Queens", "State": "New York", "Latitude": "40.713985", "Type": "Solo M", "Release date": "2013-04-30"},{"Album": "Gunz N' Butta", "City": "Harlem", "Lyrics": "size\r\nShe's steak fries\r\nSweet as egg pies\r\nMake cake rise, up in my fav five\r\n\r\n[Hook]", "Artist": "Camron", "Country": "USA", "Title": "Put A Bird Up", "Longitude": "-73.944862", "County": "Manhattan", "State": "New York", "Latitude": "40.806198", "Type": "Solo M", "Release date": "2011-01-01"},{"Album": "Record Single", "City": "Harlem", "Lyrics": "Get their check, hair, nails done\r\nSteak and chicken for the fridge\r\nAnd their kids fly.. I ain't", "Artist": "Camron", "Country": "USA", "Title": "1st of The Month", "Longitude": "-73.944862", "County": "Manhattan", "State": "New York", "Latitude": "40.806198", "Type": "Solo M", "Release date": null},{"Album": "The Blueprint 2 The Gift The Curse", "City": "Brooklyn", "Lyrics": "come out we do it again\r\nEverything evens up, you just wait\r\nEven a garbage can gets a steak\r\nYou ain't", "Artist": "Jay Z", "Country": "USA", "Title": "Guns & Roses", "Longitude": "-73.989872", "County": "Kings", "State": "New York", "Latitude": "40.692385", "Type": "Solo M", "Release date": "2002-01-01"},{"Album": "Ironman", "City": "Staten Island", "Lyrics": "dick and put it in\r\nMy dick's the bomb baby, marvelous hot steak\r\nPlus I'm conceited Starks make", "Artist": "Ghostface Killah", "Country": "USA", "Title": "Wildflower", "Longitude": "-74.144839", "County": "Richmond", "State": "New York", "Latitude": "40.576281", "Type": "Solo M", "Release date": "1996-01-01"},{"Album": "Truly Yours 3", "City": "Fayetteville", "Lyrics": "]\r\n\r\n[Verse 3: Bas]\r\nHow I go from selling reefa and plates\r\nTill eating steaks with Cole and playing FIFA", "Artist": "J. Cole", "Country": "USA", "Title": "New York Times", "Longitude": "-78.878056", "County": "Cumberland", "State": "North Carolina", "Latitude": "35.0525", "Type": "Solo M", "Release date": "2013-01-01"},{"Album": "Astronaut Status", "City": "Atlanta", "Lyrics": "Look at this motherfucker\r\nHis rhyme is a paper plate\r\nI chop 'em like paper steaks\r\nMy life", "Artist": "Future", "Country": "USA", "Title": "Birds Take A Bath", "Longitude": "-84.41918", "County": "Fulton", "State": "Georgia", "Latitude": "33.77155", "Type": "Solo M", "Release date": "2012-01-01"},{"Album": "Back on My B.S.", "City": "Uniondale", "Lyrics": "for the street and season the steak and\r\nGrab a champagne glass and put it up, we celebratin\r\nLike", "Artist": "Busta Rhymes", "Country": "USA", "Title": "Shoot For the Moon", "Longitude": "-73.593544", "County": "Nassau", "State": "New York", "Latitude": "40.717935", "Type": "Solo M", "Release date": "2009-01-01"},{"Album": "She Got Game", "City": "Wilson", "Lyrics": "got a steak\r\nNever understand the process\r\nThey speculate your lifestyle and don't account", "Artist": "Rapsody", "Country": "USA", "Title": "Never Know", "Longitude": "-77.923611", "County": "Wilson", "State": "North Carolina", "Latitude": "35.731111", "Type": "Solo F", "Release date": "2013-01-01"},{"Album": "She Got Game", "City": "Wilson", "Lyrics": "got a steak\r\nNever understand the process\r\nThey speculate your lifestyle and don't account", "Artist": "Rapsody", "Country": "USA", "Title": "Never Know", "Longitude": "-77.923611", "County": "Wilson", "State": "North Carolina", "Latitude": "35.731111", "Type": "Solo F", "Release date": "2013-09-17"},{"Album": "Record Single", "City": "Harlem", "Lyrics": "?\r\nOn the first, I hate these chickens\r\nGet their check, hair, nails done\r\nSteak and chicken for the fridge", "Artist": "Camron", "Country": "USA", "Title": "1st of The Month (Ft. Jim Jones & Juelz Santana)", "Longitude": "-73.944862", "County": "Manhattan", "State": "New York", "Latitude": "40.806198", "Type": "Solo M", "Release date": null},{"Album": "Chyna Doll", "City": "Brooklyn", "Lyrics": "So you can bring your boys, we got ten cars behind us\r\nOrder a steak, a glass of OJ to break-fast", "Artist": "Foxy Brown", "Country": "USA", "Title": "Hot Spot", "Longitude": "-73.989872", "County": "Kings", "State": "New York", "Latitude": "40.692385", "Type": "Solo F", "Release date": "1999-01-01"},{"Album": "Dark Sky Paradise", "City": "Detroit", "Lyrics": "calamari steak that shit\r\nAnd cop so much ice, me and my dogs gonna skate that shit\r\nBitch do it so big", "Artist": "Big Sean", "Country": "USA", "Title": "Stay Down", "Longitude": "-83.045833", "County": "Wayne", "State": "Michigan", "Latitude": "42.331389", "Type": "Solo M", "Release date": "2015-02-24"},{"Album": "Eardrum", "City": "Park Slope", "Lyrics": "and you lookin like a steak from Nick & Tony's\r\nBut don't nobody want your jewels, cause your shit", "Artist": "Talib Kweli", "Country": "USA", "Title": "Holy Moly", "Longitude": "-73.977063", "County": "Kings", "State": "New York", "Latitude": "40.672404", "Type": "Solo M", "Release date": "2007-08-21"},{"Album": "Shaolin vs. Wu-Tang", "City": "Staten Island", "Lyrics": "that shake, I bake\r\nI live in the state that kill niggas over grits and steak\r\nYou might get smacked", "Artist": "Raekwon", "Country": "USA", "Title": "Wu Crime", "Longitude": "-74.144839", "County": "Richmond", "State": "New York", "Latitude": "40.576281", "Type": "Solo M", "Release date": "2011-03-07"},{"Album": "Record Single", "City": "Queens", "Lyrics": "-be master\r\nCome on, baby, I eat steak and lobster\r\nI got a Mercedes-Benz, I be as double-(?) as your", "Artist": "LL Cool J", "Country": "USA", "Title": "Crime Stories", "Longitude": "-73.829959", "County": "Queens", "State": "New York", "Latitude": "40.713985", "Type": "Solo M", "Release date": null},{"Album": "Walking With a Panther", "City": "Queens", "Lyrics": "} and the money and the mic and I'm straight\r\nGo to a resteraunt, give me steak\r\nThen cook my chicken", "Artist": "LL Cool J", "Country": "USA", "Title": "1-900-LL Cool J", "Longitude": "-73.829959", "County": "Queens", "State": "New York", "Latitude": "40.713985", "Type": "Solo M", "Release date": "1989-01-01"},{"Album": "Record Single", "City": "Roosevelt", "Lyrics": "they food like Steak-ummm\r\nWhy she wanna ask me if I could pass the paprika?\r\nOne hand on the mic", "Artist": "MF DOOM", "Country": "USA", "Title": "All Outta Ale prod. by Nature Sounds", "Longitude": "-73.585556", "County": "Nassau", "State": "New York", "Latitude": "40.679167", "Type": "Solo M", "Release date": null},{"Album": "The Prof In Convexed", "City": "Roosevelt", "Lyrics": "'em eat they food like Steak-ummm\r\nWhy she wanna ask me if I could pass the paprika?\r\nOne hand", "Artist": "MF DOOM", "Country": "USA", "Title": "All Outta Ale", "Longitude": "-73.585556", "County": "Nassau", "State": "New York", "Latitude": "40.679167", "Type": "Solo M", "Release date": "2003-12-09"},{"Album": "Life After Death ( french version)", "City": "Bedford\u2013Stuyvesant", "Lyrics": "a steak up\r\nGotta go gotta go, more pies to bake up, word up\r\n\r\nParoles r\u00c3\u00a9dig\u00c3\u00a9es et expliqu\u00c3\u00a9es par la communaut\u00c3\u00a9 RapGenius France", "Artist": "The Notorious B.I.G.", "Country": "USA", "Title": "Ten Crack Commandments (french version)", "Longitude": "-73.963796", "County": "Kings", "State": "New York", "Latitude": "40.692385", "Type": "Solo M", "Release date": "1997-03-25"},{"Album": "Ready to Die", "City": "Bedford\u2013Stuyvesant", "Lyrics": ", go fill my belly\r\nA T-bone steak, cheese eggs and Welch's grape\r\nConversatefor a few, cause in a few", "Artist": "The Notorious B.I.G.", "Country": "USA", "Title": "Big Poppa", "Longitude": "-73.963796", "County": "Kings", "State": "New York", "Latitude": "40.692385", "Type": "Solo M", "Release date": "1994-09-13"},{"Album": "Magna Carta... Holy Grail", "City": "Brooklyn", "Lyrics": "now, Genius!\r\nDon't be good my nigga, be great\r\nAfter that government cheese, we eating steak", "Artist": "Jay Z", "Country": "USA", "Title": "F.U.T.W", "Longitude": "-73.989872", "County": "Kings", "State": "New York", "Latitude": "40.692385", "Type": "Solo M", "Release date": "2013-07-04"},{"Album": "It Ain't Safe No More...", "City": "Uniondale", "Lyrics": "a steak\r\nStackin my paper so see now I can buy an estate\r\nSo I rely on the love and I reply", "Artist": "Busta Rhymes", "Country": "USA", "Title": "What Do You Do When You're Branded", "Longitude": "-73.593544", "County": "Nassau", "State": "New York", "Latitude": "40.717935", "Type": "Solo M", "Release date": "2002-11-26"},{"Album": "Purple Haze", "City": "Harlem", "Lyrics": "a slim tramp. Order steak, shrimp scamp\r\nOk-k-kay, you g-g-gay\r\nI'll souffl\u00c3\u00a9 ya toup\u00c3\u00a9eandbottles", "Artist": "Camron", "Country": "USA", "Title": "Family Ties", "Longitude": "-73.944862", "County": "Manhattan", "State": "New York", "Latitude": "40.806198", "Type": "Solo M", "Release date": "2004-01-01"},{"Album": "The Lex Diamond Story", "City": "Staten Island", "Lyrics": "the shh, on the store, splashed it\r\nHad Dominicans runnin' and eatin' steak and cheese sandwiches", "Artist": "Raekwon", "Country": "USA", "Title": "Smith Bros.", "Longitude": "-74.144839", "County": "Richmond", "State": "New York", "Latitude": "40.576281", "Type": "Solo M", "Release date": "2003-01-01"},{"Album": "The Vatican Mixtape, Vol. 1", "City": "Staten Island", "Lyrics": "poppers\r\nLegends from the eighties came home, we got em eating poppers\r\nTake money, eating steaks", "Artist": "Raekwon", "Country": "USA", "Title": "Thousands to M's", "Longitude": "-74.144839", "County": "Richmond", "State": "New York", "Latitude": "40.576281", "Type": "Solo M", "Release date": "2007-02-27"},{"Album": "Deeper Than Rap", "City": "Carol City", "Lyrics": "a boss, champagne with the steak\r\nPink Rosay jason, ace by the case\r\nBrisco line 2, young nigga what", "Artist": "Rick Ross", "Country": "USA", "Title": "Gunplay", "Longitude": "-80.269920", "County": "Miami-Dade", "State": "Florida", "Latitude": "25.942121", "Type": "Solo M", "Release date": "2009-01-01"},{"Album": "God Forgives, I Don't", "City": "Carol City", "Lyrics": "eatin' steak, no more soup\r\nThen I parked the Caprice, I went and bought me a coupe\r\nEverything", "Artist": "Rick Ross", "Country": "USA", "Title": "Hold Me Back", "Longitude": "-80.269920", "County": "Miami-Dade", "State": "Florida", "Latitude": "25.942121", "Type": "Solo M", "Release date": "2012-07-30"},{"Album": "No Limit Top Dogg", "City": "Long Beach", "Lyrics": "up in some traffic behind some hood rat\r\nGrease strikes you out with no get back\r\nWishing for a steak", "Artist": "Snoop Dogg", "Country": "USA", "Title": "G Bedtime Stories", "Longitude": "-118.195556", "County": "Los Angeles", "State": "California", "Latitude": "33.768333", "Type": "Solo M", "Release date": "1999-05-11"},{"Album": "Life Is Good", "City": "Queensbridge", "Lyrics": "Let me take pictures\r\nSkin, sin\r\nWait, do you know whose pool you\u00e2\u20ac\u2122re in\r\nBeaches in Brazil, steaks", "Artist": "Nas", "Country": "USA", "Title": "Summer On Smash", "Longitude": "-73.937622", "County": "Queens", "State": "New York", "Latitude": "40.756279", "Type": "Solo M", "Release date": "2012-01-01"},{"Album": "Walking With a Panther", "City": "Queens", "Lyrics": "-be master\r\nCome on, baby, I eat steak and lobster\r\nI got a Mercedes-Benz, I be as double-(?) as your", "Artist": "LL Cool J", "Country": "USA", "Title": "Crime Stories", "Longitude": "-73.829959", "County": "Queens", "State": "New York", "Latitude": "40.713985", "Type": "Solo M", "Release date": "1989-01-01"},{"Album": "Shorty the Pimp", "City": "East Oakland", "Lyrics": "give a fuck\r\nI never get mad about the shit they break\r\nWhen I'm around, we eat steak\r\nI let", "Artist": "Too Short", "Country": "USA", "Title": "Step Daddy", "Longitude": "-122.2591", "County": "Oakland", "State": "California", "Latitude": "37.8039", "Type": "Solo M", "Release date": "1992-07-14"},{"Album": "Record Single", "City": "Atlanta", "Lyrics": "paper steaks\r\nMy life is a marathon\r\nCause I'm on the paper chase\r\nMy dog caught a paper case\r\nHe had", "Artist": "Future", "Country": "USA", "Title": "Birds Take A Bath (Ft. Jeezy & Young Scooter)", "Longitude": "-84.41918", "County": "Fulton", "State": "Georgia", "Latitude": "33.77155", "Type": "Solo M", "Release date": null},{"Album": "Bulletproof Wallets", "City": "Staten Island", "Lyrics": "they bring Killa, the more steak to feast off\r\nOne shot nearly took a cheek off, should've seen him", "Artist": "Ghostface Killah", "Country": "USA", "Title": "Strawberry", "Longitude": "-74.144839", "County": "Richmond", "State": "New York", "Latitude": "40.576281", "Type": "Solo M", "Release date": "2001-11-13"},{"Album": "Born Sinner", "City": "Fayetteville", "Lyrics": "]\r\n\r\n[Verse 3: Bas]\r\nHow I go from selling reefa and plates\r\nTill eating steaks with Cole and playing FIFA", "Artist": "J. Cole", "Country": "USA", "Title": "New York Times", "Longitude": "-78.878056", "County": "Cumberland", "State": "North Carolina", "Latitude": "35.0525", "Type": "Solo M", "Release date": "2013-01-01"},{"Album": "The Blueprint 2 The Gift The Curse", "City": "Brooklyn", "Lyrics": "manta ray, handlin a steak\r\nAnd handlinthe modernstand about five-eight\r\nFive-nine fine wine fine dine", "Artist": "Jay Z", "Country": "USA", "Title": "All Around the World", "Longitude": "-73.989872", "County": "Kings", "State": "New York", "Latitude": "40.692385", "Type": "Solo M", "Release date": "2002-01-01"},{"Album": "Record Single", "City": "Bedford\u2013Stuyvesant", "Lyrics": "like to spark a lot\r\nSteam on the way to the telly go fill my belly\r\nA T-bone steak, cheese eggs", "Artist": "The Notorious B.I.G.", "Country": "USA", "Title": "Big Poppa (So So Def Remix) (Ft. Jermaine Dupri)", "Longitude": "-73.963796", "County": "Kings", "State": "New York", "Latitude": "40.692385", "Type": "Solo M", "Release date": null},{"Album": "Record Single", "City": "Bedford\u2013Stuyvesant", "Lyrics": "hook a steak up\r\nGotta go gotta go, more pies to bake up, word up", "Artist": "The Notorious B.I.G.", "Country": "USA", "Title": "Ten Crack Commandments prod. by DJ Premier", "Longitude": "-73.963796", "County": "Kings", "State": "New York", "Latitude": "40.692385", "Type": "Solo M", "Release date": null},{"Album": "Kendrick Lamar EP", "City": "Compton", "Lyrics": "order tender steak, only one mouth to feed, funded a youth center\r\nInvested in some stock, doubled", "Artist": "Kendrick Lamar", "Country": "USA", "Title": "She Needs Me", "Longitude": "-118.224329", "County": "Los Angeles", "State": "California", "Latitude": "33.895285", "Type": "Solo M", "Release date": "2009-12-31"},{"Album": "The Drought Is Over 4 Mixtape", "City": "New Orleans", "Lyrics": "like steak\r\nDinner, I'm that nigga take a break\r\nMy fuck up is a perfect mistake, I'm great\r\nMurda", "Artist": "Lil Wayne", "Country": "USA", "Title": "Burn This City", "Longitude": "-90.077714", "County": "Orleans", "State": "Louisiana", "Latitude": "29.95369", "Type": "Solo M", "Release date": "2007-10-31"},{"Album": "Hardcore", "City": "Bedford\u2013Stuyvesant", "Lyrics": "there's one boss and one clan\r\nYes mans, they surround us like steaks in pans\r\nAll 'em wanna be the man", "Artist": "Lil Kim", "Country": "USA", "Title": "M.A.F.I.A. Land", "Longitude": "-73.944444", "County": "Kings", "State": "New York", "Latitude": "40.688889", "Type": "Solo F", "Release date": "1996-01-01"},{"Album": "Just Re'd Up (Mixtape)", "City": "Compton", "Lyrics": "steak,\r\nWhat's dessert? shit I wonder how she taste\r\nI don't want her you can get her\r\nBitch you ugly", "Artist": "YG", "Country": "USA", "Title": "I'm Good", "Longitude": "-118.224329", "County": "Los Angeles", "State": "California", "Latitude": "33.895285", "Type": "Solo M", "Release date": null},{"Album": "Street King Immortal", "City": "Queens", "Lyrics": "\u20ac\u2122m a winner\r\n\u00e2\u20ac\u02dcCause to my niggas y\u00e2\u20ac\u2122all niggas lookin\u00e2\u20ac\u2122 like steak dinner\r\nYou screw your face", "Artist": "50 Cent", "Country": "USA", "Title": "Financial Freedom", "Longitude": "-73.829959", "County": "Queens", "State": "New York", "Latitude": "40.713985", "Type": "Solo M", "Release date": "2016-08-18"},{"Album": "Train of Thought (Reflection Eternal album)", "City": "Park Slope", "Lyrics": "' at the table eatin' steak whole, side of greensBaby yams you know it stay soul, pre-natalBut", "Artist": "Talib Kweli", "Country": "USA", "Title": "Soul Rebels", "Longitude": "-73.977063", "County": "Kings", "State": "New York", "Latitude": "40.672404", "Type": "Solo M", "Release date": "2000-10-17"},{"Album": "California Republic", "City": "Compton", "Lyrics": "!\r\nLobster, shrimp, Roscoes and steak\r\nWhen my nigga come home\r\nHe can have any damn thing that he", "Artist": "Game", "Country": "USA", "Title": "When My Niggas Come Home", "Longitude": "-118.224329", "County": "Los Angeles", "State": "California", "Latitude": "33.895285", "Type": "Solo M", "Release date": "2012-04-05"},{"Album": "Life After Death", "City": "Bedford\u2013Stuyvesant", "Lyrics": "weeks\r\nShe sniffed a whole half of cake up\r\nHeard she suck a good dick, and can hook a steak up\r\nGotta go gotta go, more pies to bake up, word up", "Artist": "The Notorious B.I.G.", "Country": "USA", "Title": "Ten Crack Commandments", "Longitude": "-73.963796", "County": "Kings", "State": "New York", "Latitude": "40.692385", "Type": "Solo M", "Release date": "1997-01-01"},{"Album": "Record Single", "City": "Bedford\u2013Stuyvesant", "Lyrics": "can steam on the way to the telly, go fill my belly\r\nA T-bone steak, cheese eggs and Welch's grape", "Artist": "The Notorious B.I.G.", "Country": "USA", "Title": "Big Poppa prod. by Chucky Thompson & Diddy", "Longitude": "-73.963796", "County": "Kings", "State": "New York", "Latitude": "40.692385", "Type": "Solo M", "Release date": null},{"Album": "God Forgives, I Don't (French Version)", "City": "Carol City", "Lyrics": "Everything whipped well, I'm eatin' steak, no more soup\r\nThen I parked the Caprice, I went and bought me", "Artist": "Rick Ross", "Country": "USA", "Title": "Hold Me Back (French Version)", "Longitude": "-80.269920", "County": "Miami-Dade", "State": "Florida", "Latitude": "25.942121", "Type": "Solo M", "Release date": "2012-07-30"},{"Album": "Record Single", "City": "Queens", "Lyrics": ", so I'm leaving you\r\n\r\n[Verse 3]\r\nI went to Red Lobster for shrimp and steak\r\nAround the time whe", "Artist": "LL Cool J", "Country": "USA", "Title": "Big Ole Butt prod. by Dwayne Simon", "Longitude": "-73.829959", "County": "Queens", "State": "New York", "Latitude": "40.713985", "Type": "Solo M", "Release date": null},{"Album": "Walking With a Panther", "City": "Queens", "Lyrics": "[Verse 3]\r\nI went to Red Lobster for shrimp and steak\r\nAround the time whe the waitress", "Artist": "LL Cool J", "Country": "USA", "Title": "Big Ole Butt", "Longitude": "-73.829959", "County": "Queens", "State": "New York", "Latitude": "40.713985", "Type": "Solo M", "Release date": "1989-01-01"},{"Album": "Only Built 4 Cuban Linx Pt Ii", "City": "Uniondale", "Lyrics": "of kings spit blood, all on my apron\r\nWash a nigga's face with the MAC, smoke them like Steak Umm's", "Artist": "Busta Rhymes", "Country": "USA", "Title": "About Me", "Longitude": "-73.593544", "County": "Nassau", "State": "New York", "Latitude": "40.717935", "Type": "Solo M", "Release date": "2009-01-01"},{"Album": "GOOD Friday", "City": "Chicago", "Lyrics": "You a piece of steak I'd rather be that than some bacon\r\nEvery project is a throne only just", "Artist": "Kanye West", "Country": "USA", "Title": "Lord Lord Lord", "Longitude": "-87.632409", "County": "Cook", "State": "Illinois", "Latitude": "41.88415", "Type": "Solo M", "Release date": "2010-08-20"},{"Album": "Recovery", "City": "Detroit", "Lyrics": "is smoking weed, yeah, faggot, the steaks are high\r\nShit I ain't even suppose to be here", "Artist": "Eminem", "Country": "USA", "Title": "Cinderella Man", "Longitude": "-83.045833", "County": "Wayne", "State": "Michigan", "Latitude": "42.331389", "Type": "Solo M", "Release date": "2010-01-01"},{"Album": "Relapse", "City": "Detroit", "Lyrics": "have a steak\r\nAnd you'd think that with all I have at stake\r\nLook at my daughter's face, Mommy", "Artist": "Eminem", "Country": "USA", "Title": "Deja Vu", "Longitude": "-83.045833", "County": "Wayne", "State": "Michigan", "Latitude": "42.331389", "Type": "Solo M", "Release date": "2009-05-19"},{"Album": "Relapse", "City": "Detroit", "Lyrics": "The water that I drank, fucking peas on my plate\r\nShe sprinkled just enough of it to season my steak\r\nSo", "Artist": "Eminem", "Country": "USA", "Title": "My Mom", "Longitude": "-83.045833", "County": "Wayne", "State": "Michigan", "Latitude": "42.331389", "Type": "Solo M", "Release date": "2009-05-19"},{"Album": "good kid, m.A.A.d city", "City": "Compton", "Lyrics": "a lightweight\r\nThey tell me you nice and I'm like \"wait\"\r\nGo get me a knife, you're looking like steak", "Artist": "Kendrick Lamar", "Country": "USA", "Title": "Bitch, Don't Kill My Vibe Remix", "Longitude": "-118.224329", "County": "Los Angeles", "State": "California", "Latitude": "33.895285", "Type": "Solo M", "Release date": "2012-10-22"},{"Album": "I Got Next", "City": "South Bronx", "Lyrics": "surprise you get heffed up with just two steak knives\r\nYou're terrified, they take your Benz, and what", "Artist": "KRS-ONE", "Country": "USA", "Title": "I Got Next/Neva Hadda Gun", "Longitude": "-73.91735", "County": "The Bronx", "State": "New York", "Latitude": "40.81621", "Type": "Solo M", "Release date": "1997-01-01"},{"Album": "Record Single", "City": "Staten Island", "Lyrics": "with the MAC, smoke them like Steak Umm's\r\nYeah my dynasty's brolic for real, we hunt, eat, catch the rat", "Artist": "Raekwon", "Country": "USA", "Title": "About Me (Ft. Busta Rhymes) prod. by Dr. Dre & Mark Batson", "Longitude": "-74.144839", "County": "Richmond", "State": "New York", "Latitude": "40.576281", "Type": "Solo M", "Release date": null},{"Album": "Only Built 4 Cuban Linx Pt Ii", "City": "Compton", "Lyrics": "of kings spit blood, all on my apron\r\nWash a nigga's face with the MAC, smoke them like Steak Umm's", "Artist": "Dr. Dre", "Country": "USA", "Title": "About Me", "Longitude": "-118.224329", "County": "Los Angeles", "State": "California", "Latitude": "33.895285", "Type": "Solo M", "Release date": "2009-01-01"},{"Album": "The Pretty Toney Album", "City": "Staten Island", "Lyrics": ", and you start actin' funny\r\nShrimp's every night, ordering steaks\r\nThem jumbo joints, them shits cost", "Artist": "Ghostface Killah", "Country": "USA", "Title": "Tooken Back", "Longitude": "-74.144839", "County": "Richmond", "State": "New York", "Latitude": "40.576281", "Type": "Solo M", "Release date": "2004-04-20"},{"Album": "Record Single", "City": "Brooklyn", "Lyrics": "throw on a pit-bull neck's while feeding 'em raw steak\r\nIt's core take, more cake\r\nI take the crown of the so called king of the town and lock it down", "Artist": "Foxy Brown", "Country": "USA", "Title": "Affirmative Action II (AZ) (Ft. Cormega & Nas) prod. by Dave Atkinson & Trackmasters", "Longitude": "-73.989872", "County": "Kings", "State": "New York", "Latitude": "40.692385", "Type": "Solo F", "Release date": null},{"Album": "At.Long.Last.A$AP", "City": "Harlem", "Lyrics": "Bout to redo the face, get a see-through AK\r\nI eat seafood and steak\r\nBut girl I'mma treat you", "Artist": "A$AP Rocky", "Country": "USA", "Title": "M'S", "Longitude": "-73.944862", "County": "Manhattan", "State": "New York", "Latitude": "40.806198", "Type": "Solo M", "Release date": "2015-05-26"},{"Album": "Queensbridge: The Album", "City": "Queensbridge", "Lyrics": "the steaks gone\r\n\r\n[Wiz]\r\nNow picture this shit\r\nWith six Aunts five Uncles\r\nThugging a double", "Artist": "Nas", "Country": "USA", "Title": "Kids in Da P.J.'s", "Longitude": "-73.937622", "County": "Queens", "State": "New York", "Latitude": "40.756279", "Type": "Solo M", "Release date": "2000-11-21"},{"Album": "Only Built 4 Cuban Linx Pt Ii", "City": "Staten Island", "Lyrics": "of kings spit blood, all on my apron\r\nWash a nigga's face with the MAC, smoke them like Steak Umm's", "Artist": "Raekwon", "Country": "USA", "Title": "About Me", "Longitude": "-74.144839", "County": "Richmond", "State": "New York", "Latitude": "40.576281", "Type": "Solo M", "Release date": "2009-01-01"},{"Album": "The Idea of Beautiful", "City": "Wilson", "Lyrics": "take my steak rare, maybe it will help me bare\r\nWith all the bloody consequences obvious in this here", "Artist": "Rapsody", "Country": "USA", "Title": "Non-Fiction", "Longitude": "-77.923611", "County": "Wilson", "State": "North Carolina", "Latitude": "35.731111", "Type": "Solo F", "Release date": "2012-08-28"},{"Album": "Meet The Girl Next Door", "City": "Bedford\u2013Stuyvesant", "Lyrics": ", and mad trips to Jacob\r\nHe'll be home at night, hookin' you a steak up\r\nAnd keep comin' back for more on the wake up\r\n\r\n[Chorus]", "Artist": "Lil Kim", "Country": "USA", "Title": "10 Commandments", "Longitude": "-73.944444", "County": "Kings", "State": "New York", "Latitude": "40.688889", "Type": "Solo F", "Release date": "2003-01-01"},{"Album": "Record Single", "City": "Compton", "Lyrics": "with the MAC, smoke them like Steak Umm's\r\nYeah my dynasty's brolic for real, we hunt, eat, catch the rat", "Artist": "Dr. Dre", "Country": "USA", "Title": "About Me (Raekwon) (Ft. Busta Rhymes) prod. by Mark Batson", "Longitude": "-118.224329", "County": "Los Angeles", "State": "California", "Latitude": "33.895285", "Type": "Solo M", "Release date": null},{"Album": "Evermore The Art Of Duality", "City": "Flatbush", "Lyrics": "end\r\nNow we eat steak when we feasting\r\nThat motivate me to be something\r\nMore than slaves\r\nI'm gonna", "Artist": "The Underachievers", "Country": "USA", "Title": "Illusions", "Longitude": "-73.962083", "County": "Kings", "State": "New York", "Latitude": "40.640417", "Type": "Group M", "Release date": "2015-01-01"},{"Album": "Decade 1994 2004", "City": "Queensbridge", "Lyrics": ", big links is heavy like bricks\r\nThat you throw on a pit-bull neck's while feeding 'em raw steak", "Artist": "Nas", "Country": "USA", "Title": "Affirmative Action II", "Longitude": "-73.937622", "County": "Queens", "State": "New York", "Latitude": "40.756279", "Type": "Solo M", "Release date": "2004-01-01"},{"Album": "Record Single", "City": "Wilson", "Lyrics": "life, finally got it straight\r\nTook a nigga all his life, finally got a steak\r\nNever understand", "Artist": "Rapsody", "Country": "USA", "Title": "Never Know (Ft. Ab-Soul, Nipsey Hu$$le & Terrace Martin) prod. by 9th Wonder", "Longitude": "-77.923611", "County": "Wilson", "State": "North Carolina", "Latitude": "35.731111", "Type": "Solo F", "Release date": null},{"Album": "Record Single", "City": "Queensbridge", "Lyrics": "That you throw on a pit-bull neck's whilefeeding 'em raw steak\r\nIt's core take, more cake\r\nI take the crown of the so called king of the town and lock it down", "Artist": "Nas", "Country": "USA", "Title": "Affirmative Action II (AZ) (Ft. Cormega & Foxy Brown) prod. by Dave Atkinson & Trackmasters", "Longitude": "-73.937622", "County": "Queens", "State": "New York", "Latitude": "40.756279", "Type": "Solo M", "Release date": null},{"Album": "It Ain't Safe No More...", "City": "Uniondale", "Lyrics": "The name is Spliff baby I'll make you man hate me\r\nCause my shit's steak and gravy plus my pipe", "Artist": "Busta Rhymes", "Country": "USA", "Title": "Make it Clap", "Longitude": "-73.593544", "County": "Nassau", "State": "New York", "Latitude": "40.717935", "Type": "Solo M", "Release date": "2002-11-26"},{"Album": "Record Single", "City": "Uniondale", "Lyrics": ", smoke them like Steak Umm's\r\nYeah my dynasty's brolic for real, we hunt, eat, catch the rat\r\nBlow his", "Artist": "Busta Rhymes", "Country": "USA", "Title": "About Me (Raekwon) prod. by Dr. Dre & Mark Batson", "Longitude": "-73.593544", "County": "Nassau", "State": "New York", "Latitude": "40.717935", "Type": "Solo M", "Release date": null},{"Album": "Decade 1994 2004", "City": "Brooklyn", "Lyrics": ", big links is heavy like bricks\r\nThat you throw on a pit-bull neck's while feeding 'em raw steak", "Artist": "Foxy Brown", "Country": "USA", "Title": "Affirmative Action II", "Longitude": "-73.989872", "County": "Kings", "State": "New York", "Latitude": "40.692385", "Type": "Solo F", "Release date": "2004-01-01"},{"Album": "GOTHAM DOWN: Cycle II: LEVIATHAN", "City": "Brooklyn", "Lyrics": "and\r\nStrapped to Kobe beef steaks\r\nYa don't believe me, for Pete's sake\r\nMan, what the fuck do I have do", "Artist": "Jean Grae", "Country": "USA", "Title": "FUCKERY LEVEL 3000", "Longitude": "-73.989872", "County": "Kings", "State": "New York", "Latitude": "40.692385", "Type": "Solo F", "Release date": "2013-10-25"},{"Album": "Gotham Down Deluxe", "City": "Brooklyn", "Lyrics": "and\r\nStrapped to Kobe beef steaks\r\nYa don't believe me, for Pete's sake\r\nMan, what the fuck do I have do", "Artist": "Jean Grae", "Country": "USA", "Title": "FUCKERY LEVEL 3000", "Longitude": "-73.989872", "County": "Kings", "State": "New York", "Latitude": "40.692385", "Type": "Solo F", "Release date": "2014-01-01"},{"Album": "Recovery", "City": "Detroit", "Lyrics": "and a Happy Meal\r\nFuck a steak slut, I'll cut my toes off and step on the receipt\r\nBefore I foot the bill", "Artist": "Eminem", "Country": "USA", "Title": "Won't Back Down", "Longitude": "-83.045833", "County": "Wayne", "State": "Michigan", "Latitude": "42.331389", "Type": "Solo M", "Release date": "2010-01-01"},{"Album": "Gettin' It (Album Number Ten)", "City": "East Oakland", "Lyrics": "bills to pay, no time to be fake\r\nEating top rump don't fuck with steak\r\nDon't be jealous of me, cause", "Artist": "Too Short", "Country": "USA", "Title": "Survivin' the Game", "Longitude": "-122.2591", "County": "Oakland", "State": "California", "Latitude": "37.8039", "Type": "Solo M", "Release date": "1996-01-01"},{"Album": "The Idea of Beautiful", "City": "Wilson", "Lyrics": "take my steak rare, maybe it will help me bare\r\nWith all the bloody consequences obvious in this here", "Artist": "Rapsody", "Country": "USA", "Title": "Non-Fiction", "Longitude": "-77.923611", "County": "Wilson", "State": "North Carolina", "Latitude": "35.731111", "Type": "Solo F", "Release date": "2012-01-01"},{"Album": "I Am", "City": "Queensbridge", "Lyrics": "have been fate\r\nFirst date, crushed grapes, we ate lobster and steak\r\nShe kept asking questions how", "Artist": "Nas", "Country": "USA", "Title": "K-I-S-S-I-N-G", "Longitude": "-73.937622", "County": "Queens", "State": "New York", "Latitude": "40.756279", "Type": "Solo M", "Release date": "2013-01-01"},{"Album": "Whiteboys soundtrack", "City": "Long Beach", "Lyrics": "ass feetWhile my vogues burn, up and down the streetEatin steak and shrimp, got my name", "Artist": "Snoop Dogg", "Country": "USA", "Title": "White Boyz", "Longitude": "-118.195556", "County": "Los Angeles", "State": "California", "Latitude": "33.768333", "Type": "Solo M", "Release date": "1999-07-20"},{"Album": "Dedication 3", "City": "New Orleans", "Lyrics": "no mistake\r\nSince the deal\r\nSteak dinner everyday\r\nFor the movie\r\nMy life is like a Compton Play\r\nYou can", "Artist": "Lil Wayne", "Country": "USA", "Title": "My Weezy", "Longitude": "-90.077714", "County": "Orleans", "State": "Louisiana", "Latitude": "29.95369", "Type": "Solo M", "Release date": "2008-11-14"},{"Album": "Dreams Worth More than Money", "City": "Philadelphia", "Lyrics": "with the same niggas I came with\r\nWhere I came from, when I came in\r\nWe eatin' lobster and steak from Top", "Artist": "Meek Mill", "Country": "USA", "Title": "Stand Up", "Longitude": "-75.166667", "County": "Philadelphia", "State": "Pennsylvania", "Latitude": "39.95", "Type": "Solo M", "Release date": "2015-01-01"},{"Album": "Record Single", "City": "East Oakland", "Lyrics": "state\r\nUsed to drink brew and eat steak\r\nNow I pop bottles with models\r\nLarger stakes on large", "Artist": "Too Short", "Country": "USA", "Title": "The World Is Filled (The Notorious B.I.G.) (Ft. Diddy)", "Longitude": "-122.2591", "County": "Oakland", "State": "California", "Latitude": "37.8039", "Type": "Solo M", "Release date": null},{"Album": "Record Single", "City": "Compton", "Lyrics": "even take her on a date\r\nChan (woo woo wha!) bake\r\nRacks, racks racks racks, steak\r\n\r\n[Pre-Hook] + [Hook]", "Artist": "YG", "Country": "USA", "Title": "All in A Day", "Longitude": "-118.224329", "County": "Los Angeles", "State": "California", "Latitude": "33.895285", "Type": "Solo M", "Release date": null},{"Album": "Recovery", "City": "Detroit", "Lyrics": ", the veggies on my plate can flyMy filet is smokin' weed, yeah, faggot, the steaks are highShit I ain't", "Artist": "Eminem", "Country": "USA", "Title": "Cinderella man (Accurate)", "Longitude": "-83.045833", "County": "Wayne", "State": "Michigan", "Latitude": "42.331389", "Type": "Solo M", "Release date": "2010-01-01"},{"Album": "Fishscale", "City": "Staten Island", "Lyrics": "plantains and rice\r\nBig round onions on a T-bone steak, my stomach growling yo I want some\r\nHold", "Artist": "Ghostface Killah", "Country": "USA", "Title": "Shakey Dog", "Longitude": "-74.144839", "County": "Richmond", "State": "New York", "Latitude": "40.576281", "Type": "Solo M", "Release date": "2006-01-01"},{"Album": "More Fish", "City": "Staten Island", "Lyrics": "a sirloin steak\r\nLittle money, backstage passes, and some Oreo cake\r\nYou better split if the legs", "Artist": "Ghostface Killah", "Country": "USA", "Title": "Greedy Bitches", "Longitude": "-74.144839", "County": "Richmond", "State": "New York", "Latitude": "40.576281", "Type": "Solo M", "Release date": "2006-01-01"},{"Album": "2001", "City": "Compton", "Lyrics": "it to Snoop, or pass it to Nate\r\nSee hoes eat dick like eggs and steak\r\nIt ain't shit new, I thought you", "Artist": "Dr. Dre", "Country": "USA", "Title": "Housewife", "Longitude": "-118.224329", "County": "Los Angeles", "State": "California", "Latitude": "33.895285", "Type": "Solo M", "Release date": "1999-01-01"},{"Album": "Dreams Worth More than Money", "City": "Philadelphia", "Lyrics": "I Got the Juice\n[Verse 1: Meek Mill]\r\nRather eat crumbs with bums 'fore I split my steak with you", "Artist": "Meek Mill", "Country": "USA", "Title": "I Got the Juice", "Longitude": "-75.166667", "County": "Philadelphia", "State": "Pennsylvania", "Latitude": "39.95", "Type": "Solo M", "Release date": "2015-01-01"},{"Album": "G.D.O.D.", "City": "Atlanta", "Lyrics": "for me\r\n\r\n[Hook]\r\n\r\n[Verse 4: Shad da God]\r\nI'm made for this - steak and lobster, my table's dish", "Artist": "T.I.", "Country": "USA", "Title": "Here I Go", "Longitude": "-84.41918", "County": "Fulton", "State": "Georgia", "Latitude": "33.77155", "Type": "Solo M", "Release date": "2013-05-07"},{"Album": "Koch Compilation", "City": "Atlanta", "Lyrics": "Man its nothing I eat those\r\nThen I piss off my fowl, I lay for it\r\nCar, Crib, credit, A 1 steak", "Artist": "T.I.", "Country": "USA", "Title": "Crown Me", "Longitude": "-84.41918", "County": "Fulton", "State": "Georgia", "Latitude": "33.77155", "Type": "Solo M", "Release date": null},{"Album": "Pink Friday: Roman Reloaded", "City": "Jamaica", "Lyrics": "Cooking up tryna eat niggas, steak and ribs\r\nI made a couple stars outta basic chicks\r\nNowadays blow", "Artist": "Nicki Minaj", "Country": "USA", "Title": "Champion", "Longitude": "-73.80842", "County": "Queens", "State": "New York", "Latitude": "40.701782", "Type": "Solo F", "Release date": "2012-01-01"},{"Album": "Bsb Vol 4", "City": "Crown Heights", "Lyrics": "weight need a forklift\r\nSo I could have some lobster or steak when the fork lift\r\nNiggas act hard turn", "Artist": "Troy Ave", "Country": "USA", "Title": "4 Amgios", "Longitude": "-73.944722", "County": "Kings", "State": "New York", "Latitude": "40.663056", "Type": "Solo M", "Release date": "2014-05-05"},{"Album": "Mama Said Knock You Out", "City": "Queens", "Lyrics": ", run with a milkshake\r\nGo to the supermarket, pocket a raw steak\r\nI need beer\r\nI'mma catch", "Artist": "LL Cool J", "Country": "USA", "Title": "Cheesy Rat Blues", "Longitude": "-73.829959", "County": "Queens", "State": "New York", "Latitude": "40.713985", "Type": "Solo M", "Release date": "1991-01-01"},{"Album": "Record Single", "City": "Queens", "Lyrics": "the serious joint\r\nI eat my steak fast, I drink my brew slow\r\nMy voice is milky with a nice clear flow", "Artist": "LL Cool J", "Country": "USA", "Title": "Clap Your Hands prod. by Dwayne Simon", "Longitude": "-73.829959", "County": "Queens", "State": "New York", "Latitude": "40.713985", "Type": "Solo M", "Release date": null},{"Album": "Walking With a Panther", "City": "Queens", "Lyrics": "my steak fast, I drink my brew slow\r\nMy voice is milky with a nice clear flow\r\nI eat like a fat man", "Artist": "LL Cool J", "Country": "USA", "Title": "Clap Your Hands", "Longitude": "-73.829959", "County": "Queens", "State": "New York", "Latitude": "40.713985", "Type": "Solo M", "Release date": "1989-01-01"},{"Album": "Self Made Vol.1", "City": "Carol City", "Lyrics": "on the stakeout\r\nAs I enter the steak house pockets on humongo\r\nPhilosphical drama and wildin known", "Artist": "Rick Ross", "Country": "USA", "Title": "WaleSelf Made", "Longitude": "-80.269920", "County": "Miami-Dade", "State": "Florida", "Latitude": "25.942121", "Type": "Solo M", "Release date": "2011-05-23"},{"Album": "Record Single", "City": "Compton", "Lyrics": "a grill\r\nI cook beef, like a steak on a grill\r\nGot the clips on hold, but I ain't Pharrell\r\nNigga", "Artist": "Game", "Country": "USA", "Title": "360 Bars", "Longitude": "-118.224329", "County": "Los Angeles", "State": "California", "Latitude": "33.895285", "Type": "Solo M", "Release date": null},{"Album": "Get In Where You Fit In", "City": "East Oakland", "Lyrics": "Macaroni, steak, collard greens, or whatever the fuck\r\nYeah $hort, you know how we do'em\r\nTreat bitches", "Artist": "Too Short", "Country": "USA", "Title": "All My Bitches Are Gone", "Longitude": "-122.2591", "County": "Oakland", "State": "California", "Latitude": "37.8039", "Type": "Solo M", "Release date": "1994-01-01"},{"Album": "Rick Ross, Roscoe Dash & Yo Gotti", "City": "Long Beach", "Lyrics": "!!!!!!!!!) Ricky Ross!!!!!!!!!!!\r\n\r\n[Verse Two: Snoop Dogg]\r\nBIG SNOOP DOGG!!! I like steak and eggs I", "Artist": "Snoop Dogg", "Country": "USA", "Title": "I Wanna Rock (DJ Green Lantern Interstate Trafficking Remix) 12\"", "Longitude": "-118.195556", "County": "Los Angeles", "State": "California", "Latitude": "33.768333", "Type": "Solo M", "Release date": null},{"Album": "I'm Serious", "City": "Atlanta", "Lyrics": "got steak and eggs right here\r\nI'm sayin, what the business is?\r\nGet the hell out of here man\r\nAy", "Artist": "T.I.", "Country": "USA", "Title": "I Can't Be Your Man", "Longitude": "-84.41918", "County": "Fulton", "State": "Georgia", "Latitude": "33.77155", "Type": "Solo M", "Release date": "2001-10-09"},{"Album": "Don't Stop Rappin'", "City": "East Oakland", "Lyrics": "that steak\r\nCuz what is a girl without a lot of bank\r\nA bump and a grind and she's on her knees\r\nThe way", "Artist": "Too Short", "Country": "USA", "Title": "Don't Stop Rappin", "Longitude": "-122.2591", "County": "Oakland", "State": "California", "Latitude": "37.8039", "Type": "Solo M", "Release date": null},{"Album": "Record Single", "City": "South Bronx", "Lyrics": "Thats like takin a steak out of a lions mouth\r\nBetta yet that like takin a plate outta Ryans mouth", "Artist": "Big Punisher", "Country": "USA", "Title": "Bring 'Em Back (Terror Squad) (Ft. Big L) prod. by Davel \"Bo\" McKenzie & Lord Finesse", "Longitude": "-73.911789", "County": "Bronx", "State": "New York", "Latitude": "40.823318", "Type": "Solo M", "Release date": null},{"Album": "True Story", "City": "South Bronx", "Lyrics": "theres nothin he can do for me\r\nThats like takin a steak out of a lions mouth\r\nBetta yet that like takin", "Artist": "Big Punisher", "Country": "USA", "Title": "Bring 'Em Back", "Longitude": "-73.911789", "County": "Bronx", "State": "New York", "Latitude": "40.823318", "Type": "Solo M", "Release date": "2011-06-09"},{"Album": "51 50 Ratchet", "City": "Compton", "Lyrics": "bay what we gone eat today I want me some steak\r\nPaint the caddy candy green hey bay bay\r\nAnybody try", "Artist": "Game", "Country": "USA", "Title": "A Bay Bay (The Ratchet Remix)", "Longitude": "-118.224329", "County": "Los Angeles", "State": "California", "Latitude": "33.895285", "Type": "Solo M", "Release date": "2007-01-01"},{"Album": "Record Single", "City": "Compton", "Lyrics": "bay what we gone eat today I want me some steak\r\nPaint the caddy candy green hey bay bay\r\nAnybody", "Artist": "Game", "Country": "USA", "Title": "A Bay Bay (The Ratchet Remix) (Hurricane Chris) (Ft. Angie Locc, Birdman, E-40, Jadakiss & Lil Boosie) prod. by Phunk Dawg", "Longitude": "-118.224329", "County": "Los Angeles", "State": "California", "Latitude": "33.895285", "Type": "Solo M", "Release date": null},{"Album": "Dreams Worth More than Money", "City": "Philadelphia", "Lyrics": ", know how that shit go\r\nAnd they say I'm arrogant\r\nI'm still eatin' steak with the asparagus\r\nWhen I", "Artist": "Meek Mill", "Country": "USA", "Title": "The Trillest", "Longitude": "-75.166667", "County": "Philadelphia", "State": "Pennsylvania", "Latitude": "39.95", "Type": "Solo M", "Release date": "2015-01-01"},{"Album": "Record Single", "City": "Queens", "Lyrics": ", run with a milkshake\r\nGo to the supermarket, pocket a raw steak\r\nI need beer\r\nI'mma catch", "Artist": "LL Cool J", "Country": "USA", "Title": "Cheesy Rat Blues", "Longitude": "-73.829959", "County": "Queens", "State": "New York", "Latitude": "40.713985", "Type": "Solo M", "Release date": null},{"Album": "Record Single", "City": "Brooklyn", "Lyrics": "a beef steak, cause my technique's great\r\nAnd I'm the nigga police hate in each state\r\nCause I'm", "Artist": "Jay Z", "Country": "USA", "Title": "7 Minute Freestyle", "Longitude": "-73.989872", "County": "Kings", "State": "New York", "Latitude": "40.692385", "Type": "Solo M", "Release date": null},{"Album": "Record Single", "City": "Brooklyn", "Lyrics": "cook the mic like a beef steak, cause my techniques great\r\nAnd I'm the nigga police hate in each", "Artist": "Jay Z", "Country": "USA", "Title": "7 Minute Freestyle (Big L)", "Longitude": "-73.989872", "County": "Kings", "State": "New York", "Latitude": "40.692385", "Type": "Solo M", "Release date": null},{"Album": "Record Single", "City": "Compton", "Lyrics": "forgot my cheese steak, that's what I told the cops\r\nSo they wouldn't get the dogs start searching", "Artist": "Game", "Country": "USA", "Title": "300 Bars & Runnin'", "Longitude": "-118.224329", "County": "Los Angeles", "State": "California", "Latitude": "33.895285", "Type": "Solo M", "Release date": null},{"Album": "You Know What it Is Volume 3", "City": "Compton", "Lyrics": "forgot my cheese steak, that's what I told the cops\r\nSo they wouldn't get the dogs start searching", "Artist": "Game", "Country": "USA", "Title": "300 Bars & Runnin'", "Longitude": "-118.224329", "County": "Los Angeles", "State": "California", "Latitude": "33.895285", "Type": "Solo M", "Release date": "2006-01-01"},{"Album": "You Know What it Is Volume 3", "City": "Compton", "Lyrics": "forgot my cheese steak, that's what I told the cops\r\nSo they wouldn't get the dogs start searching", "Artist": "Game", "Country": "USA", "Title": "300 Bars & Runnin'", "Longitude": "-118.224329", "County": "Los Angeles", "State": "California", "Latitude": "33.895285", "Type": "Solo M", "Release date": "2006-01-01"}]