[{"Album": "The Lex Diamond Story", "City": "Staten Island", "Lyrics": "is priceless\r\nButter-butter caramel swirl, chocolate chip\r\nFrench vanilla sundae girls, banana split\r\nCum", "Artist": "Raekwon", "Country": "USA", "Title": "Ice Cream Pt. 2", "Longitude": "-74.144839", "County": "Richmond", "State": "New York", "Latitude": "40.576281", "Type": "Solo M", "Release date": "2003-01-01"},{"Album": "Record Single", "City": "Staten Island", "Lyrics": "up in your guts\r\nFrench-vanilla, butter-pecan, chocolate-deluxe\r\nEven caramel sundaes is getting", "Artist": "Ghostface Killah", "Country": "USA", "Title": "Ice Cream (Raekwon) (Ft. Cappadonna & Method Man) prod. by RZA", "Longitude": "-74.144839", "County": "Richmond", "State": "New York", "Latitude": "40.576281", "Type": "Solo M", "Release date": null},{"Album": "Only Built 4 Cuban Linx...", "City": "Staten Island", "Lyrics": ", chocolate-deluxe\r\nEven caramel sundaes is getting touched\r\nAnd scooped in my ice cream truck, who tears", "Artist": "Raekwon", "Country": "USA", "Title": "Ice Cream", "Longitude": "-74.144839", "County": "Richmond", "State": "New York", "Latitude": "40.576281", "Type": "Solo M", "Release date": "1995-08-01"},{"Album": "Record Single", "City": "Staten Island", "Lyrics": "get all up in your guts\r\nFrench-vanilla, butter-pecan, chocolate-deluxe\r\nEven caramel sundaes", "Artist": "Raekwon", "Country": "USA", "Title": "Ice Cream (Ft. Cappadonna, Ghostface Killah & Method Man) prod. by RZA", "Longitude": "-74.144839", "County": "Richmond", "State": "New York", "Latitude": "40.576281", "Type": "Solo M", "Release date": null},{"Album": "Todd smith", "City": "Queens", "Lyrics": "and we can't go wrong)\r\nLike caramel on vanilla sundae\r\nHave a scoop you'll want some day\r\nCause", "Artist": "LL Cool J", "Country": "USA", "Title": "Favorite Flavor", "Longitude": "-73.829959", "County": "Queens", "State": "New York", "Latitude": "40.713985", "Type": "Solo M", "Release date": "2006-01-01"},{"Album": "The Notorious K.I.M.", "City": "Bedford\u2013Stuyvesant", "Lyrics": "Wear more skins than Crocodile Dundee\r\nTasty like a sundae (Take that!)\r\n(Mmm-da-da)\r\nEat it like", "Artist": "Lil Kim", "Country": "USA", "Title": "Off the Wall", "Longitude": "-73.944444", "County": "Kings", "State": "New York", "Latitude": "40.688889", "Type": "Solo F", "Release date": "2000-01-01"},{"Album": "Born Sinner", "City": "Fayetteville", "Lyrics": "like my sundaes with a cherry on top\r\nMake that ass drop (drop, drop)\r\nMake that ass drop (drop, drop", "Artist": "J. Cole", "Country": "USA", "Title": "LAnd Of The Snakes", "Longitude": "-78.878056", "County": "Cumberland", "State": "North Carolina", "Latitude": "35.0525", "Type": "Solo M", "Release date": "2013-01-01"},{"Album": "Recovery", "City": "Detroit", "Lyrics": "get a hot fudge sundae\r\nFrom me so don\u00e2\u20ac\u2122t strut my way, slut because\u00e2\u20ac\u00a6\r\n\r\n[Hook]\r\n\r\n[Verse 3", "Artist": "Eminem", "Country": "USA", "Title": "Untitled", "Longitude": "-83.045833", "County": "Wayne", "State": "Michigan", "Latitude": "42.331389", "Type": "Solo M", "Release date": "2010-01-01"},{"Album": "King", "City": "Atlanta", "Lyrics": "creamImpala same color as a sundae\r\nSo you can miss me with that hatin and that \"He can't rap shit\"\r\nTell", "Artist": "T.I.", "Country": "USA", "Title": "Top Back", "Longitude": "-84.41918", "County": "Fulton", "State": "Georgia", "Latitude": "33.77155", "Type": "Solo M", "Release date": "2006-03-28"}]