[{"Album": "Record Single", "City": "Harlem", "Lyrics": "in the river\r\nI'm the sushi king\r\nAnd I'mma keep ya fresh\r\nLet the fish eat ya flesh\r\nYes sir, please", "Artist": "Camron", "Country": "USA", "Title": "Killa Cam prod. by The Heatmakerz", "Longitude": "-73.944862", "County": "Manhattan", "State": "New York", "Latitude": "40.806198", "Type": "Solo M", "Release date": null},{"Album": "Da Baddest Bitch", "City": "Miami", "Lyrics": "]\r\nGhetto superstar\r\nNiggas eat the pussy like a sushi bar\r\nNever let a nigga hit the koochie raw", "Artist": "Trina", "Country": "USA", "Title": "69 Ways", "Longitude": "-80.237419", "County": "Miami-Dade", "State": "Florida", "Latitude": "25.728985", "Type": "Solo F", "Release date": "2000-01-01"},{"Album": "Purple Haze", "City": "Harlem", "Lyrics": "Clack-clack, \"ooh he ring!\"\r\nBad rap, cuties cling\r\nAss cap, put em in the river\r\nI'm the sushi", "Artist": "Camron", "Country": "USA", "Title": "Killa Cam", "Longitude": "-73.944862", "County": "Manhattan", "State": "New York", "Latitude": "40.806198", "Type": "Solo M", "Release date": "2004-01-01"},{"Album": "California Republic", "City": "Compton", "Lyrics": "to side, like my hair long\r\nFeeling like Tunechi in this motherfucker\r\nEyes Japanese, blowing sushi", "Artist": "Game", "Country": "USA", "Title": "Mean Muggin", "Longitude": "-118.224329", "County": "Los Angeles", "State": "California", "Latitude": "33.895285", "Type": "Solo M", "Release date": "2012-04-05"},{"Album": "Oke Operation Kill Everything", "City": "Compton", "Lyrics": "wanna eat that up raw sushi\r\nFine china gold digger 49er\r\nSee me with nana the baddest bitches", "Artist": "Game", "Country": "USA", "Title": "TD", "Longitude": "-118.224329", "County": "Los Angeles", "State": "California", "Latitude": "33.895285", "Type": "Solo M", "Release date": "2013-01-01"},{"Album": "G.O.A.T. (Greatest Of All Time)", "City": "Queens", "Lyrics": ")\r\n\r\n[LL Cool J]\r\nWord up, this shit gon' be ill\r\n(Uh-huh, uh-huh..) raw like sushi\r\nLove paper like", "Artist": "LL Cool J", "Country": "USA", "Title": "M.I.S.S.I.", "Longitude": "-73.829959", "County": "Queens", "State": "New York", "Latitude": "40.713985", "Type": "Solo M", "Release date": "2000-01-01"},{"Album": "Take Care (French version)", "City": "Toronto", "Lyrics": "dated\r\nBut she was no angel, and we never waited\r\nI took her for sushi, she wanted to fuck\r\nSo we", "Artist": "Drake", "Country": "CAN", "Title": "HYFR (french version)", "Longitude": "-79.4", "County": "", "State": "Ontario", "Latitude": "43.7", "Type": "Solo M", "Release date": "2011-11-15"},{"Album": "Sucka Free (Mixtape)", "City": "Jamaica", "Lyrics": "with the boy like sushi\r\nShe said her name was Nicki, I'm Tunechi\r\nI ain't have to introduce me", "Artist": "Nicki Minaj", "Country": "USA", "Title": "Sunshine", "Longitude": "-73.80842", "County": "Queens", "State": "New York", "Latitude": "40.701782", "Type": "Solo F", "Release date": "2008-01-01"},{"Album": "The Pretty Toney Album", "City": "Staten Island", "Lyrics": ", eatin' sushi, playin' with her cucci\r\nOn some Lil' Kim shit, tattoo right up on her booty", "Artist": "Ghostface Killah", "Country": "USA", "Title": "Last Night", "Longitude": "-74.144839", "County": "Richmond", "State": "New York", "Latitude": "40.576281", "Type": "Solo M", "Release date": "2004-04-20"},{"Album": "In My Lifetime, Vol. 1", "City": "Brooklyn", "Lyrics": ", pa-pa, uhh\r\nThe G, Roc-A-Fella y'all\r\n\r\n[Jay Z]\r\nWho be, in a Japanese restaurant, eating sushi", "Artist": "Foxy Brown", "Country": "USA", "Title": "(Always Be My) Sunshine", "Longitude": "-73.989872", "County": "Kings", "State": "New York", "Latitude": "40.692385", "Type": "Solo F", "Release date": "1997-11-04"},{"Album": "The Master", "City": "Wyandanch", "Lyrics": "me\r\nEven with no jewelry she call me goldie\r\nLike a Jacuzzi she overheat an o-g\r\nLike sushi swimin", "Artist": "Rakim", "Country": "USA", "Title": "It's the R", "Longitude": "-73.357999", "County": "Suffolk", "State": "New York", "Latitude": "40.75986", "Type": "Solo M", "Release date": "1999-01-01"},{"Album": "Take Care", "City": "Toronto", "Lyrics": "was no angel, and we never waited\r\nI took her for sushi, she wanted to fuck\r\nSo we took it to go,told", "Artist": "Drake", "Country": "CAN", "Title": "HYFR", "Longitude": "-79.4", "County": "", "State": "Ontario", "Latitude": "43.7", "Type": "Solo M", "Release date": "2011-11-15"},{"Album": "In My Lifetime, Vol. 1", "City": "Brooklyn", "Lyrics": ", pa-pa, uhh\r\nThe G, Roc-A-Fella y'all\r\n\r\nWho be, in a Japanese restaurant,eating sushi\r\nDrinking sake", "Artist": "Jay Z", "Country": "USA", "Title": "(Always Be My) Sunshine", "Longitude": "-73.989872", "County": "Kings", "State": "New York", "Latitude": "40.692385", "Type": "Solo M", "Release date": "1997-11-04"},{"Album": "One Nation", "City": "Marin City", "Lyrics": ".\r\nNow who's the man?\r\nAnd therefore my Luchi, eatin' sushi.\r\nCheckin' out some kinda movie featurin", "Artist": "2Pac", "Country": "USA", "Title": "Where Ever You Are", "Longitude": "-122.516579", "County": "Marin", "State": "California", "Latitude": "37.87199", "Type": "Solo M", "Release date": "2010-01-01"},{"Album": "Boss Of All Bosses 2.5", "City": "Harlem", "Lyrics": "You know I get the assuming's quick\r\nGroupie bitch, Gucci\r\nI raw, no Sushi shit\r\nBut I want to get", "Artist": "Camron", "Country": "USA", "Title": "Road Trip", "Longitude": "-73.944862", "County": "Manhattan", "State": "New York", "Latitude": "40.806198", "Type": "Solo M", "Release date": "2010-05-12"},{"Album": "Trouble Man: Heavy Is the Head", "City": "Atlanta", "Lyrics": "door\r\nRaw ho, caviar, sushi and escargot\r\nEverywhere I go fresh to death and clean as a bar of soap", "Artist": "T.I.", "Country": "USA", "Title": "The Introduction", "Longitude": "-84.41918", "County": "Fulton", "State": "Georgia", "Latitude": "33.77155", "Type": "Solo M", "Release date": "2012-12-18"},{"Album": "Playtime is Over (Mixtape)", "City": "Jamaica", "Lyrics": ")Now who be rolling with the boy like sushi She said her name was Nicki I'm TunchiI ain't have", "Artist": "Nicki Minaj", "Country": "USA", "Title": "Sunshine", "Longitude": "-73.80842", "County": "Queens", "State": "New York", "Latitude": "40.701782", "Type": "Solo F", "Release date": "2007-01-01"},{"Album": "Malice N Wonderland", "City": "Long Beach", "Lyrics": ", no sushi mayne\r\nCookin up the whole thing for Snoop Dogg and Gucci Mane\r\nMy homegirls out", "Artist": "Snoop Dogg", "Country": "USA", "Title": "That's Tha Homie", "Longitude": "-118.195556", "County": "Los Angeles", "State": "California", "Latitude": "33.768333", "Type": "Solo M", "Release date": "2009-12-08"},{"Album": "Record Single", "City": "The Bronx", "Lyrics": "To me, you sushi, chewy and tooshie\r\nI'm bad like Boosie\r\nRap to me is easy as apple-picking", "Artist": "Cory Gunz", "Country": "USA", "Title": "On Da Spot Freestyle", "Longitude": "-73.886", "County": "The Bronx", "State": "New York", "Latitude": " 40.8373", "Type": "Solo M", "Release date": null},{"Album": "Record Single", "City": "Brooklyn", "Lyrics": "be, in a Japanese restaurant, eating sushi\r\nDrinking sake, it's me, and my mami with the doobie\r\nCutie, smellin", "Artist": "Foxy Brown", "Country": "USA", "Title": "(Always Be My) Sunshine (Jay Z) (Ft. Babyface) prod. by Prestige", "Longitude": "-73.989872", "County": "Kings", "State": "New York", "Latitude": "40.692385", "Type": "Solo F", "Release date": null},{"Album": "Look at me now (mixtape)", "City": "Detroit", "Lyrics": "a nuisance, I go stupid, I go dumb like the 3 stoogesI don't eat sushi, I'm the shit, no I'm pollution", "Artist": "Eminem", "Country": "USA", "Title": "KardizzleLook at me now", "Longitude": "-83.045833", "County": "Wayne", "State": "Michigan", "Latitude": "42.331389", "Type": "Solo M", "Release date": "2011-01-01"},{"Album": "Port of Miami", "City": "Carol City", "Lyrics": "and boochie copin gucci\r\nBoochie that's my road dawg\r\nFlippin chickens for the sushi\r\nMusta been", "Artist": "Rick Ross", "Country": "USA", "Title": "Hit U From the Back", "Longitude": "-80.269920", "County": "Miami-Dade", "State": "Florida", "Latitude": "25.942121", "Type": "Solo M", "Release date": "2006-08-08"},{"Album": "Just Re'd Up (Mixtape)", "City": "Compton", "Lyrics": "on they body like Bugatti's\r\nSake with the sushi can't forget the music\r\nNow show me how you do", "Artist": "YG", "Country": "USA", "Title": "She Bad", "Longitude": "-118.224329", "County": "Los Angeles", "State": "California", "Latitude": "33.895285", "Type": "Solo M", "Release date": null},{"Album": "Record Single", "City": "Uniondale", "Lyrics": "Tunechi, I\u00e2\u20ac\u2122m a nuisance, I go stupid, I go dumb like the Three Stooges\r\nI don\u00e2\u20ac\u2122t eat sushi, I\u00e2\u20ac\u2122m", "Artist": "Busta Rhymes", "Country": "USA", "Title": "Look At Me Now (Chris Brown) (Ft. Lil Wayne) prod. by Afrojack, Diplo & Free School", "Longitude": "-73.593544", "County": "Nassau", "State": "New York", "Latitude": "40.717935", "Type": "Solo M", "Release date": null},{"Album": "No Mercy", "City": "Atlanta", "Lyrics": "if a stain on my shoelaceT.I. roll like sushi, touch\u00c3\u0192\u00c2\u00a9If the king ain't back, who the hell am I", "Artist": "T.I.", "Country": "USA", "Title": "Yeah Ya Know (Takers)", "Longitude": "-84.41918", "County": "Fulton", "State": "Georgia", "Latitude": "33.77155", "Type": "Solo M", "Release date": "2010-12-07"}]